[{"datasetid":"laposte_hexasmal","recordid":"48ded6c0835bff5c846dc8464f22b6cb12d8c366","fields":{"nom_de_la_commune":"MONTROZIER","libell_d_acheminement":"MONTROZIER","code_postal":"12630","coordonnees_gps":[44.394981764,2.72127812252],"code_commune_insee":"12157"},"geometry":{"type":"Point","coordinates":[2.72127812252,44.394981764]},"record_timestamp":"2016-05-09T15:17:00+02:00"},{"datasetid":"laposte_hexasmal","recordid":"d52af791d6f371f37bb1e5647d8743e8a8a7e013","fields":{"nom_de_la_commune":"MURASSON","libell_d_acheminement":"MURASSON","code_postal":"12370","coordonnees_gps":[43.7612201142,2.7618005022],"code_commune_insee":"12163"},"geometry":{"type":"Point","coordinates":[2.7618005022,43.7612201142]},"record_timestamp":"2016-05-09T15:17:00+02:00"},{"datasetid":"laposte_hexasmal","recordid":"c94c40d68dbe337c721349c8600917432b1282b3","fields":{"nom_de_la_commune":"MUR DE BARREZ","libell_d_acheminement":"MUR DE BARREZ","code_postal":"12600","coordonnees_gps":[44.8759902067,2.68059365877],"code_commune_insee":"12164"},"geometry":{"type":"Point","coordinates":[2.68059365877,44.8759902067]},"record_timestamp":"2016-05-09T15:17:00+02:00"},{"datasetid":"laposte_hexasmal","recordid":"3c1233aa8c23309259b26319c0f76a64144b1e95","fields":{"nom_de_la_commune":"MURET LE CHATEAU","libell_d_acheminement":"MURET LE CHATEAU","code_postal":"12330","coordonnees_gps":[44.4957128112,2.57147635051],"code_commune_insee":"12165"},"geometry":{"type":"Point","coordinates":[2.57147635051,44.4957128112]},"record_timestamp":"2016-05-09T15:17:00+02:00"},{"datasetid":"laposte_hexasmal","recordid":"98801df549d350cb0e6dfa0d0030e66e1777f9d0","fields":{"nom_de_la_commune":"OLEMPS","libell_d_acheminement":"OLEMPS","code_postal":"12510","coordonnees_gps":[44.338471851,2.54774198749],"code_commune_insee":"12174"},"geometry":{"type":"Point","coordinates":[2.54774198749,44.338471851]},"record_timestamp":"2016-05-09T15:17:00+02:00"},{"datasetid":"laposte_hexasmal","recordid":"16181b921b49dddb8f97dac8fadff49bd7a7a35b","fields":{"nom_de_la_commune":"ONET LE CHATEAU","libell_d_acheminement":"ONET LE CHATEAU","code_postal":"12850","coordonnees_gps":[44.3825530939,2.56000835023],"code_commune_insee":"12176"},"geometry":{"type":"Point","coordinates":[2.56000835023,44.3825530939]},"record_timestamp":"2016-05-09T15:17:00+02:00"},{"datasetid":"laposte_hexasmal","recordid":"b5a51ebef92b9409320722d474a4caf010ef475a","fields":{"nom_de_la_commune":"PALMAS D AVEYRON","libell_d_acheminement":"PALMAS D AVEYRON","code_postal":"12310","coordonnees_gps":[44.4009437729,2.84225329377],"code_commune_insee":"12177"},"geometry":{"type":"Point","coordinates":[2.84225329377,44.4009437729]},"record_timestamp":"2016-05-09T15:17:00+02:00"},{"datasetid":"laposte_hexasmal","recordid":"d2ab0b5d58489ae54fd85018248c014c731bd916","fields":{"nom_de_la_commune":"PEUX ET COUFFOULEUX","libell_d_acheminement":"PEUX ET COUFFOULEUX","code_postal":"12360","coordonnees_gps":[43.7634161386,2.8805204264],"code_commune_insee":"12179"},"geometry":{"type":"Point","coordinates":[2.8805204264,43.7634161386]},"record_timestamp":"2016-05-09T15:17:00+02:00"},{"datasetid":"laposte_hexasmal","recordid":"8d87dda0e162d6c833481bbf2f3c8cc18cb4ed8c","fields":{"nom_de_la_commune":"PEYRELEAU","libell_d_acheminement":"PEYRELEAU","code_postal":"12720","coordonnees_gps":[44.1757756277,3.20495893117],"code_commune_insee":"12180"},"geometry":{"type":"Point","coordinates":[3.20495893117,44.1757756277]},"record_timestamp":"2016-05-09T15:17:00+02:00"},{"datasetid":"laposte_hexasmal","recordid":"90dc2fb9e1db645a2c537a0a6f6a03825b781843","fields":{"nom_de_la_commune":"PRADES D AUBRAC","libell_d_acheminement":"PRADES D AUBRAC","code_postal":"12470","coordonnees_gps":[44.5418402145,2.97032674456],"code_commune_insee":"12187"},"geometry":{"type":"Point","coordinates":[2.97032674456,44.5418402145]},"record_timestamp":"2016-05-09T15:17:00+02:00"},{"datasetid":"laposte_hexasmal","recordid":"526e22de1901da032999b905589753a7c7c15b4e","fields":{"code_postal":"12800","code_commune_insee":"12194","libell_d_acheminement":"QUINS","ligne_5":"LA MOTHE","nom_de_la_commune":"QUINS","coordonnees_gps":[44.2295906034,2.37852465105]},"geometry":{"type":"Point","coordinates":[2.37852465105,44.2295906034]},"record_timestamp":"2016-05-09T15:17:00+02:00"},{"datasetid":"laposte_hexasmal","recordid":"4101dc47d77ad08d7dd574311334d6c5c8b6df05","fields":{"nom_de_la_commune":"ST AMANS DES COTS","libell_d_acheminement":"ST AMANS DES COTS","code_postal":"12460","coordonnees_gps":[44.6868560667,2.69135482513],"code_commune_insee":"12209"},"geometry":{"type":"Point","coordinates":[2.69135482513,44.6868560667]},"record_timestamp":"2016-05-09T15:17:00+02:00"},{"datasetid":"laposte_hexasmal","recordid":"129c82f9adef407f55553109802d1256b5d23df1","fields":{"nom_de_la_commune":"ST ANDRE DE VEZINES","libell_d_acheminement":"ST ANDRE DE VEZINES","code_postal":"12720","coordonnees_gps":[44.1476911332,3.27124677006],"code_commune_insee":"12211"},"geometry":{"type":"Point","coordinates":[3.27124677006,44.1476911332]},"record_timestamp":"2016-05-09T15:17:00+02:00"},{"datasetid":"laposte_hexasmal","recordid":"86f48f5e3fd27770e28a833588549cb84f78408b","fields":{"nom_de_la_commune":"ST COME D OLT","libell_d_acheminement":"ST COME D OLT","code_postal":"12500","coordonnees_gps":[44.5314215162,2.82190819996],"code_commune_insee":"12216"},"geometry":{"type":"Point","coordinates":[2.82190819996,44.5314215162]},"record_timestamp":"2016-05-09T15:17:00+02:00"},{"datasetid":"laposte_hexasmal","recordid":"5e70d397bb5e0370eed63a7dcfddd563311d3974","fields":{"nom_de_la_commune":"ST FELIX DE LUNEL","libell_d_acheminement":"ST FELIX DE LUNEL","code_postal":"12320","coordonnees_gps":[44.5645678324,2.51363543065],"code_commune_insee":"12221"},"geometry":{"type":"Point","coordinates":[2.51363543065,44.5645678324]},"record_timestamp":"2016-05-09T15:17:00+02:00"},{"datasetid":"laposte_hexasmal","recordid":"4f67a44aa14b85e0658cf7aeb433c62e5f6f4093","fields":{"code_postal":"12210","code_commune_insee":"12223","libell_d_acheminement":"ARGENCES EN AUBRAC","ligne_5":"LA TERRISSE","nom_de_la_commune":"ARGENCES EN AUBRAC","coordonnees_gps":[44.8003905234,2.7434750028]},"geometry":{"type":"Point","coordinates":[2.7434750028,44.8003905234]},"record_timestamp":"2016-05-09T15:17:00+02:00"},{"datasetid":"laposte_hexasmal","recordid":"bae24298fc3df434d8341f304360c72dff33a870","fields":{"code_postal":"12420","code_commune_insee":"12223","libell_d_acheminement":"ARGENCES EN AUBRAC","ligne_5":"GRAISSAC","nom_de_la_commune":"ARGENCES EN AUBRAC","coordonnees_gps":[44.8003905234,2.7434750028]},"geometry":{"type":"Point","coordinates":[2.7434750028,44.8003905234]},"record_timestamp":"2016-05-09T15:17:00+02:00"},{"datasetid":"laposte_hexasmal","recordid":"2a69abb3449012f67c4ffcb19a6aa8636020e3ea","fields":{"nom_de_la_commune":"ST GENIEZ D OLT ET D AUBRAC","libell_d_acheminement":"ST GENIEZ D OLT ET D AUBRAC","code_postal":"12130","coordonnees_gps":[44.4732674724,2.98156818185],"code_commune_insee":"12224"},"geometry":{"type":"Point","coordinates":[2.98156818185,44.4732674724]},"record_timestamp":"2016-05-09T15:17:00+02:00"},{"datasetid":"laposte_hexasmal","recordid":"dcae2a75758cff9732efadf574351c4940363345","fields":{"code_postal":"12130","code_commune_insee":"12224","libell_d_acheminement":"ST GENIEZ D OLT ET D AUBRAC","ligne_5":"AURELLE VERLAC","nom_de_la_commune":"ST GENIEZ D OLT ET D AUBRAC","coordonnees_gps":[44.4732674724,2.98156818185]},"geometry":{"type":"Point","coordinates":[2.98156818185,44.4732674724]},"record_timestamp":"2016-05-09T15:17:00+02:00"},{"datasetid":"laposte_hexasmal","recordid":"801c7af60d40cd3ad22f8639301fd16cab0a8579","fields":{"nom_de_la_commune":"ST JEAN DU BRUEL","libell_d_acheminement":"ST JEAN DU BRUEL","code_postal":"12230","coordonnees_gps":[44.0262087023,3.38224826789],"code_commune_insee":"12231"},"geometry":{"type":"Point","coordinates":[3.38224826789,44.0262087023]},"record_timestamp":"2016-05-09T15:17:00+02:00"},{"datasetid":"laposte_hexasmal","recordid":"de26a326865897334fb1a182cbf262eb354e5118","fields":{"nom_de_la_commune":"ST LAURENT DE LEVEZOU","libell_d_acheminement":"ST LAURENT DE LEVEZOU","code_postal":"12620","coordonnees_gps":[44.2089764028,2.93837029184],"code_commune_insee":"12236"},"geometry":{"type":"Point","coordinates":[2.93837029184,44.2089764028]},"record_timestamp":"2016-05-09T15:17:00+02:00"},{"datasetid":"laposte_hexasmal","recordid":"f58d7269a3283dbe6924e7e270b28dadd4837fe1","fields":{"nom_de_la_commune":"ST MARTIN DE LENNE","libell_d_acheminement":"ST MARTIN DE LENNE","code_postal":"12130","coordonnees_gps":[44.4245376835,2.96547959933],"code_commune_insee":"12239"},"geometry":{"type":"Point","coordinates":[2.96547959933,44.4245376835]},"record_timestamp":"2016-05-09T15:17:00+02:00"},{"datasetid":"laposte_hexasmal","recordid":"ab22b5ea00d4bace33ee5b02f1b6231a41e063a2","fields":{"nom_de_la_commune":"STE RADEGONDE","libell_d_acheminement":"STE RADEGONDE","code_postal":"12850","coordonnees_gps":[44.3313046455,2.63272943848],"code_commune_insee":"12241"},"geometry":{"type":"Point","coordinates":[2.63272943848,44.3313046455]},"record_timestamp":"2016-05-09T15:17:00+02:00"},{"datasetid":"laposte_hexasmal","recordid":"9dd47cfdf4ea231db807ca6939b9b2dc9f9d2d95","fields":{"nom_de_la_commune":"ST REMY","libell_d_acheminement":"ST REMY","code_postal":"12200","coordonnees_gps":[44.3952055876,2.04173574254],"code_commune_insee":"12242"},"geometry":{"type":"Point","coordinates":[2.04173574254,44.3952055876]},"record_timestamp":"2016-05-09T15:17:00+02:00"},{"datasetid":"laposte_hexasmal","recordid":"288ecc059412c4a8566bcb27bc5130293c63c876","fields":{"nom_de_la_commune":"ST ROME DE TARN","libell_d_acheminement":"ST ROME DE TARN","code_postal":"12490","coordonnees_gps":[44.0328970436,2.8904868402],"code_commune_insee":"12244"},"geometry":{"type":"Point","coordinates":[2.8904868402,44.0328970436]},"record_timestamp":"2016-05-09T15:17:00+02:00"},{"datasetid":"laposte_hexasmal","recordid":"52aa0cade7c54550086d73f5dce3df05a312a08d","fields":{"nom_de_la_commune":"ST SERNIN SUR RANCE","libell_d_acheminement":"ST SERNIN SUR RANCE","code_postal":"12380","coordonnees_gps":[43.8788015376,2.62311158409],"code_commune_insee":"12248"},"geometry":{"type":"Point","coordinates":[2.62311158409,43.8788015376]},"record_timestamp":"2016-05-09T15:17:00+02:00"},{"datasetid":"laposte_hexasmal","recordid":"1ab2d6d5862defb2e5c8233b3ea611a281b2e177","fields":{"nom_de_la_commune":"LA SELVE","libell_d_acheminement":"LA SELVE","code_postal":"12170","coordonnees_gps":[44.1061917162,2.53638704269],"code_commune_insee":"12267"},"geometry":{"type":"Point","coordinates":[2.53638704269,44.1061917162]},"record_timestamp":"2016-05-09T15:17:00+02:00"},{"datasetid":"laposte_hexasmal","recordid":"43ff18589a9535a84a2b0736bd69b0c0e02c3635","fields":{"nom_de_la_commune":"SENERGUES","libell_d_acheminement":"SENERGUES","code_postal":"12320","coordonnees_gps":[44.6062228544,2.46311277374],"code_commune_insee":"12268"},"geometry":{"type":"Point","coordinates":[2.46311277374,44.6062228544]},"record_timestamp":"2016-05-09T15:17:00+02:00"},{"datasetid":"laposte_hexasmal","recordid":"bb11ef26a10fb60cd3603e14c1b210118b8fefe8","fields":{"nom_de_la_commune":"LA SERRE","libell_d_acheminement":"LA SERRE","code_postal":"12380","coordonnees_gps":[43.8936026764,2.65558670644],"code_commune_insee":"12269"},"geometry":{"type":"Point","coordinates":[2.65558670644,43.8936026764]},"record_timestamp":"2016-05-09T15:17:00+02:00"},{"datasetid":"laposte_hexasmal","recordid":"05f4bf24727883e2f139da14e890a578874be2a4","fields":{"code_postal":"12150","code_commune_insee":"12270","libell_d_acheminement":"SEVERAC D AVEYRON","ligne_5":"BUZEINS","nom_de_la_commune":"SEVERAC D AVEYRON","coordonnees_gps":[44.3000638764,3.08915100601]},"geometry":{"type":"Point","coordinates":[3.08915100601,44.3000638764]},"record_timestamp":"2016-05-09T15:17:00+02:00"},{"datasetid":"laposte_hexasmal","recordid":"a308eb45737c0ae8c366e991e30eb43d371c3343","fields":{"nom_de_la_commune":"VABRES L ABBAYE","libell_d_acheminement":"VABRES L ABBAYE","code_postal":"12400","coordonnees_gps":[43.9213497351,2.81975476984],"code_commune_insee":"12286"},"geometry":{"type":"Point","coordinates":[2.81975476984,43.9213497351]},"record_timestamp":"2016-05-09T15:17:00+02:00"},{"datasetid":"laposte_hexasmal","recordid":"057d47ed543e6bf0cf4736630a8f438dc7696d1c","fields":{"nom_de_la_commune":"VALZERGUES","libell_d_acheminement":"VALZERGUES","code_postal":"12220","coordonnees_gps":[44.5055186879,2.22147187127],"code_commune_insee":"12289"},"geometry":{"type":"Point","coordinates":[2.22147187127,44.5055186879]},"record_timestamp":"2016-05-09T15:17:00+02:00"},{"datasetid":"laposte_hexasmal","recordid":"6c5059fdd73684c7b2a8511c6c2944d22def5c3b","fields":{"nom_de_la_commune":"VERRIERES","libell_d_acheminement":"VERRIERES","code_postal":"12520","coordonnees_gps":[44.2168374801,3.05097559285],"code_commune_insee":"12291"},"geometry":{"type":"Point","coordinates":[3.05097559285,44.2168374801]},"record_timestamp":"2016-05-09T15:17:00+02:00"},{"datasetid":"laposte_hexasmal","recordid":"46bdf883e433ea70c024a3457f324d7dc3556895","fields":{"nom_de_la_commune":"VEZINS DE LEVEZOU","libell_d_acheminement":"VEZINS DE LEVEZOU","code_postal":"12780","coordonnees_gps":[44.2679981187,2.92575800141],"code_commune_insee":"12294"},"geometry":{"type":"Point","coordinates":[2.92575800141,44.2679981187]},"record_timestamp":"2016-05-09T15:17:00+02:00"},{"datasetid":"laposte_hexasmal","recordid":"b55910361852d1493a0de2aa3a568d8845fffc60","fields":{"nom_de_la_commune":"VIALA DU TARN","libell_d_acheminement":"VIALA DU TARN","code_postal":"12490","coordonnees_gps":[44.0855039631,2.83906955497],"code_commune_insee":"12296"},"geometry":{"type":"Point","coordinates":[2.83906955497,44.0855039631]},"record_timestamp":"2016-05-09T15:17:00+02:00"},{"datasetid":"laposte_hexasmal","recordid":"05ffd0938badc6f5e57e5d69018ab2cfaeade2b0","fields":{"nom_de_la_commune":"CURAN","libell_d_acheminement":"CURAN","code_postal":"12410","coordonnees_gps":[44.1978533166,2.85380503746],"code_commune_insee":"12307"},"geometry":{"type":"Point","coordinates":[2.85380503746,44.1978533166]},"record_timestamp":"2016-05-09T15:17:00+02:00"},{"datasetid":"laposte_hexasmal","recordid":"5d8bf95edcb1cbf2020a188e3b98d5d43a8999bc","fields":{"nom_de_la_commune":"AGEN D AVEYRON","libell_d_acheminement":"AGEN D AVEYRON","code_postal":"12630","coordonnees_gps":[44.3513031939,2.69339680513],"code_commune_insee":"12001"},"geometry":{"type":"Point","coordinates":[2.69339680513,44.3513031939]},"record_timestamp":"2016-05-09T15:17:00+02:00"},{"datasetid":"laposte_hexasmal","recordid":"28c41a314356e541efd8b8b5e3f3cde6f85d6f6f","fields":{"nom_de_la_commune":"ALRANCE","libell_d_acheminement":"ALRANCE","code_postal":"12430","coordonnees_gps":[44.1352241599,2.67560444399],"code_commune_insee":"12006"},"geometry":{"type":"Point","coordinates":[2.67560444399,44.1352241599]},"record_timestamp":"2016-05-09T15:17:00+02:00"},{"datasetid":"laposte_hexasmal","recordid":"49d791618042b9476e3e3dee00a89affac6d7d17","fields":{"nom_de_la_commune":"ASPRIERES","libell_d_acheminement":"ASPRIERES","code_postal":"12700","coordonnees_gps":[44.555388853,2.13842661504],"code_commune_insee":"12012"},"geometry":{"type":"Point","coordinates":[2.13842661504,44.555388853]},"record_timestamp":"2016-05-09T15:17:00+02:00"},{"datasetid":"laposte_hexasmal","recordid":"f7fcbb155e48999b6d4059d42ee693bd3ac44604","fields":{"code_postal":"12110","code_commune_insee":"12013","libell_d_acheminement":"AUBIN","ligne_5":"COMBES","nom_de_la_commune":"AUBIN","coordonnees_gps":[44.5318545051,2.25591796926]},"geometry":{"type":"Point","coordinates":[2.25591796926,44.5318545051]},"record_timestamp":"2016-05-09T15:17:00+02:00"},{"datasetid":"laposte_hexasmal","recordid":"d0aa0b4f1de32218090c2ad963e05c723ea14345","fields":{"code_postal":"12110","code_commune_insee":"12013","libell_d_acheminement":"AUBIN","ligne_5":"LE GUA","nom_de_la_commune":"AUBIN","coordonnees_gps":[44.5318545051,2.25591796926]},"geometry":{"type":"Point","coordinates":[2.25591796926,44.5318545051]},"record_timestamp":"2016-05-09T15:17:00+02:00"},{"datasetid":"laposte_hexasmal","recordid":"29d766bbe767e79bd5ef668e78ac1d7445c704a0","fields":{"nom_de_la_commune":"BALAGUIER D OLT","libell_d_acheminement":"BALAGUIER D OLT","code_postal":"12260","coordonnees_gps":[44.5189126443,1.97719263772],"code_commune_insee":"12018"},"geometry":{"type":"Point","coordinates":[1.97719263772,44.5189126443]},"record_timestamp":"2016-05-09T15:17:00+02:00"},{"datasetid":"laposte_hexasmal","recordid":"40bbfcd18b0f81e80f00a37e470bff1fa20049dc","fields":{"nom_de_la_commune":"BALAGUIER SUR RANCE","libell_d_acheminement":"BALAGUIER SUR RANCE","code_postal":"12380","coordonnees_gps":[43.8958843359,2.576705609],"code_commune_insee":"12019"},"geometry":{"type":"Point","coordinates":[2.576705609,43.8958843359]},"record_timestamp":"2016-05-09T15:17:00+02:00"},{"datasetid":"laposte_hexasmal","recordid":"35d9f580faf463560c4d0477cf9ef0f650a4fb7f","fields":{"code_postal":"12200","code_commune_insee":"12021","libell_d_acheminement":"LE BAS SEGALA","ligne_5":"LA BASTIDE L EVEQUE","nom_de_la_commune":"LE BAS SEGALA","coordonnees_gps":[44.3386235465,2.14341113213]},"geometry":{"type":"Point","coordinates":[2.14341113213,44.3386235465]},"record_timestamp":"2016-05-09T15:17:00+02:00"},{"datasetid":"laposte_hexasmal","recordid":"214d2ac133f97b9b5e8917438161876bf292cebf","fields":{"code_postal":"12240","code_commune_insee":"12021","libell_d_acheminement":"LE BAS SEGALA","ligne_5":"VABRE TIZAC","nom_de_la_commune":"LE BAS SEGALA","coordonnees_gps":[44.3386235465,2.14341113213]},"geometry":{"type":"Point","coordinates":[2.14341113213,44.3386235465]},"record_timestamp":"2016-05-09T15:17:00+02:00"},{"datasetid":"laposte_hexasmal","recordid":"93c4c5ddc79a4e658da64f5472f3e06b9ab1571c","fields":{"nom_de_la_commune":"LA BASTIDE SOLAGES","libell_d_acheminement":"LA BASTIDE SOLAGES","code_postal":"12550","coordonnees_gps":[43.9499780867,2.52484421466],"code_commune_insee":"12023"},"geometry":{"type":"Point","coordinates":[2.52484421466,43.9499780867]},"record_timestamp":"2016-05-09T15:17:00+02:00"},{"datasetid":"laposte_hexasmal","recordid":"47eaea9ff0d694aa77f7dc009c38055690debcb0","fields":{"nom_de_la_commune":"BERTHOLENE","libell_d_acheminement":"BERTHOLENE","code_postal":"12310","coordonnees_gps":[44.3951997527,2.78341531364],"code_commune_insee":"12026"},"geometry":{"type":"Point","coordinates":[2.78341531364,44.3951997527]},"record_timestamp":"2016-05-09T15:17:00+02:00"},{"datasetid":"laposte_hexasmal","recordid":"c2b80ec5113f0c1ad232d814dac583b7745f425d","fields":{"nom_de_la_commune":"BOISSE PENCHOT","libell_d_acheminement":"BOISSE PENCHOT","code_postal":"12300","coordonnees_gps":[44.5806056647,2.21149187356],"code_commune_insee":"12028"},"geometry":{"type":"Point","coordinates":[2.21149187356,44.5806056647]},"record_timestamp":"2016-05-09T15:17:00+02:00"},{"datasetid":"laposte_hexasmal","recordid":"b9d750df78dd7fd221624888d83ac899cfafbfa5","fields":{"nom_de_la_commune":"BRASC","libell_d_acheminement":"BRASC","code_postal":"12550","coordonnees_gps":[43.9790937141,2.57293179162],"code_commune_insee":"12035"},"geometry":{"type":"Point","coordinates":[2.57293179162,43.9790937141]},"record_timestamp":"2016-05-09T15:17:00+02:00"},{"datasetid":"laposte_hexasmal","recordid":"92e9c12be1d34ae0c142f847e171d44dae8f69dc","fields":{"nom_de_la_commune":"BROQUIES","libell_d_acheminement":"BROQUIES","code_postal":"12480","coordonnees_gps":[44.0179354928,2.70623918127],"code_commune_insee":"12037"},"geometry":{"type":"Point","coordinates":[2.70623918127,44.0179354928]},"record_timestamp":"2016-05-09T15:17:00+02:00"},{"datasetid":"laposte_hexasmal","recordid":"d38dbbc50a0ea30ac7493c10c80c67902c51458d","fields":{"nom_de_la_commune":"CALMONT","libell_d_acheminement":"CALMONT","code_postal":"12450","coordonnees_gps":[44.2590321912,2.52423447426],"code_commune_insee":"12043"},"geometry":{"type":"Point","coordinates":[2.52423447426,44.2590321912]},"record_timestamp":"2016-05-09T15:17:00+02:00"},{"datasetid":"laposte_hexasmal","recordid":"85abc3bd767e1b70c2820eb4cb639d15c4c08cd3","fields":{"nom_de_la_commune":"CAMARES","libell_d_acheminement":"CAMARES","code_postal":"12360","coordonnees_gps":[43.8183603178,2.88523152665],"code_commune_insee":"12044"},"geometry":{"type":"Point","coordinates":[2.88523152665,43.8183603178]},"record_timestamp":"2016-05-09T15:17:00+02:00"},{"datasetid":"laposte_hexasmal","recordid":"f8c2738c616f58d3a2fcfa87057e0076084512e8","fields":{"nom_de_la_commune":"CAMPOURIEZ","libell_d_acheminement":"CAMPOURIEZ","code_postal":"12140","coordonnees_gps":[44.6808744001,2.60936956955],"code_commune_insee":"12048"},"geometry":{"type":"Point","coordinates":[2.60936956955,44.6808744001]},"record_timestamp":"2016-05-09T15:17:00+02:00"},{"datasetid":"laposte_hexasmal","recordid":"526d11eebb3c972887f639135d8f6c8ed5c20b51","fields":{"nom_de_la_commune":"CAMPUAC","libell_d_acheminement":"CAMPUAC","code_postal":"12580","coordonnees_gps":[44.5663603478,2.5847677536],"code_commune_insee":"12049"},"geometry":{"type":"Point","coordinates":[2.5847677536,44.5663603478]},"record_timestamp":"2016-05-09T15:17:00+02:00"},{"datasetid":"laposte_hexasmal","recordid":"3d1c6e5caa00e0ba2e91284ab153e0efd853a83e","fields":{"nom_de_la_commune":"CASTELNAU PEGAYROLS","libell_d_acheminement":"CASTELNAU PEGAYROLS","code_postal":"12620","coordonnees_gps":[44.1404700763,2.92770802784],"code_commune_insee":"12062"},"geometry":{"type":"Point","coordinates":[2.92770802784,44.1404700763]},"record_timestamp":"2016-05-09T15:17:00+02:00"},{"datasetid":"laposte_hexasmal","recordid":"b6824900ea0ad65d27c5a8b7348f4afd207db0d2","fields":{"nom_de_la_commune":"COMBRET","libell_d_acheminement":"COMBRET","code_postal":"12370","coordonnees_gps":[43.8406339417,2.68483003393],"code_commune_insee":"12069"},"geometry":{"type":"Point","coordinates":[2.68483003393,43.8406339417]},"record_timestamp":"2016-05-09T15:17:00+02:00"},{"datasetid":"laposte_hexasmal","recordid":"f3c653417d25299ad2a08024680ddbf86e5868e3","fields":{"nom_de_la_commune":"CONDOM D AUBRAC","libell_d_acheminement":"CONDOM D AUBRAC","code_postal":"12470","coordonnees_gps":[44.6054295973,2.88073175235],"code_commune_insee":"12074"},"geometry":{"type":"Point","coordinates":[2.88073175235,44.6054295973]},"record_timestamp":"2016-05-09T15:17:00+02:00"},{"datasetid":"laposte_hexasmal","recordid":"c5904f187322ebc39b5825e78232409e3818c073","fields":{"code_postal":"12320","code_commune_insee":"12076","libell_d_acheminement":"CONQUES EN ROUERGUE","ligne_5":"GRAND VABRE","nom_de_la_commune":"CONQUES EN ROUERGUE","coordonnees_gps":[44.5952473002,2.4201643341]},"geometry":{"type":"Point","coordinates":[2.4201643341,44.5952473002]},"record_timestamp":"2016-05-09T15:17:00+02:00"},{"datasetid":"laposte_hexasmal","recordid":"7f46f7000473b7da970233034a1682dfeca30cdc","fields":{"code_postal":"12320","code_commune_insee":"12076","libell_d_acheminement":"CONQUES EN ROUERGUE","ligne_5":"NOAILHAC","nom_de_la_commune":"CONQUES EN ROUERGUE","coordonnees_gps":[44.5952473002,2.4201643341]},"geometry":{"type":"Point","coordinates":[2.4201643341,44.5952473002]},"record_timestamp":"2016-05-09T15:17:00+02:00"},{"datasetid":"laposte_hexasmal","recordid":"1c4bcb7a12e8b1ede57895ddbfec5ac649bd8236","fields":{"nom_de_la_commune":"CORNUS","libell_d_acheminement":"CORNUS","code_postal":"12540","coordonnees_gps":[43.8924370352,3.20078895944],"code_commune_insee":"12077"},"geometry":{"type":"Point","coordinates":[3.20078895944,43.8924370352]},"record_timestamp":"2016-05-09T15:17:00+02:00"},{"datasetid":"laposte_hexasmal","recordid":"4f0d44e9543f4eea7f5bc9c7248c9b6c86681598","fields":{"nom_de_la_commune":"LES COSTES GOZON","libell_d_acheminement":"LES COSTES GOZON","code_postal":"12400","coordonnees_gps":[44.0165312389,2.80008517701],"code_commune_insee":"12078"},"geometry":{"type":"Point","coordinates":[2.80008517701,44.0165312389]},"record_timestamp":"2016-05-09T15:17:00+02:00"},{"datasetid":"laposte_hexasmal","recordid":"fb573a2968f80193a849e89fa59250320b94471d","fields":{"nom_de_la_commune":"LA CRESSE","libell_d_acheminement":"LA CRESSE","code_postal":"12640","coordonnees_gps":[44.1676766844,3.15670064587],"code_commune_insee":"12086"},"geometry":{"type":"Point","coordinates":[3.15670064587,44.1676766844]},"record_timestamp":"2016-05-09T15:17:00+02:00"},{"datasetid":"laposte_hexasmal","recordid":"aa2dcc01bd9be949d2a0e04a599e7c95d3ec7174","fields":{"nom_de_la_commune":"DRUELLE","libell_d_acheminement":"DRUELLE","code_postal":"12510","coordonnees_gps":[44.3609252009,2.47671597719],"code_commune_insee":"12090"},"geometry":{"type":"Point","coordinates":[2.47671597719,44.3609252009]},"record_timestamp":"2016-05-09T15:17:00+02:00"},{"datasetid":"laposte_hexasmal","recordid":"cb80e997edc983530b1d1edecfb242e9fbb197d4","fields":{"nom_de_la_commune":"ESPALION","libell_d_acheminement":"ESPALION","code_postal":"12500","coordonnees_gps":[44.5188717043,2.76426608276],"code_commune_insee":"12096"},"geometry":{"type":"Point","coordinates":[2.76426608276,44.5188717043]},"record_timestamp":"2016-05-09T15:17:00+02:00"},{"datasetid":"laposte_hexasmal","recordid":"d59633ff354389a578b2df7a6b8a293596b2ec31","fields":{"nom_de_la_commune":"ESPEYRAC","libell_d_acheminement":"ESPEYRAC","code_postal":"12140","coordonnees_gps":[44.619095045,2.51940471481],"code_commune_insee":"12097"},"geometry":{"type":"Point","coordinates":[2.51940471481,44.619095045]},"record_timestamp":"2016-05-09T15:17:00+02:00"},{"datasetid":"laposte_hexasmal","recordid":"f800bd38a504bba0c24d10dc6ec2e1c65cd46683","fields":{"nom_de_la_commune":"LA FOUILLADE","libell_d_acheminement":"LA FOUILLADE","code_postal":"12270","coordonnees_gps":[44.2345851449,2.04784404559],"code_commune_insee":"12105"},"geometry":{"type":"Point","coordinates":[2.04784404559,44.2345851449]},"record_timestamp":"2016-05-09T15:17:00+02:00"},{"datasetid":"laposte_hexasmal","recordid":"12996c8642ab76d47de803926005803e7c6bfa5e","fields":{"nom_de_la_commune":"GALGAN","libell_d_acheminement":"GALGAN","code_postal":"12220","coordonnees_gps":[44.5034642584,2.17991482623],"code_commune_insee":"12108"},"geometry":{"type":"Point","coordinates":[2.17991482623,44.5034642584]},"record_timestamp":"2016-05-09T15:17:00+02:00"},{"datasetid":"laposte_hexasmal","recordid":"50205c6593f8febc39bba6f0a91124d0166e84f9","fields":{"nom_de_la_commune":"LAISSAC SEVERAC L EGLISE","libell_d_acheminement":"LAISSAC SEVERAC L EGLISE","code_postal":"12310","coordonnees_gps":[44.3644570513,2.81804424075],"code_commune_insee":"12120"},"geometry":{"type":"Point","coordinates":[2.81804424075,44.3644570513]},"record_timestamp":"2016-05-09T15:17:00+02:00"},{"datasetid":"laposte_hexasmal","recordid":"7ae278b56a8e1004ccca63f3155d528ed41ef015","fields":{"nom_de_la_commune":"LANUEJOULS","libell_d_acheminement":"LANUEJOULS","code_postal":"12350","coordonnees_gps":[44.4236494726,2.16109197679],"code_commune_insee":"12121"},"geometry":{"type":"Point","coordinates":[2.16109197679,44.4236494726]},"record_timestamp":"2016-05-09T15:17:00+02:00"},{"datasetid":"laposte_hexasmal","recordid":"5c5109b3da1dea2e1261b0a95f779706354c7fc1","fields":{"nom_de_la_commune":"LAPANOUSE DE CERNON","libell_d_acheminement":"LAPANOUSE DE CERNON","code_postal":"12230","coordonnees_gps":[44.0062686145,3.09638242965],"code_commune_insee":"12122"},"geometry":{"type":"Point","coordinates":[3.09638242965,44.0062686145]},"record_timestamp":"2016-05-09T15:17:00+02:00"},{"datasetid":"laposte_hexasmal","recordid":"f60aa1f84d1f239e99c29c63780627c6cb65b398","fields":{"nom_de_la_commune":"LIVINHAC LE HAUT","libell_d_acheminement":"LIVINHAC LE HAUT","code_postal":"12300","coordonnees_gps":[44.5972432577,2.21621082428],"code_commune_insee":"12130"},"geometry":{"type":"Point","coordinates":[2.21621082428,44.5972432577]},"record_timestamp":"2016-05-09T15:17:00+02:00"},{"datasetid":"laposte_hexasmal","recordid":"b23354d608f46fd5d062b7fba47142df48aae3a6","fields":{"nom_de_la_commune":"LA LOUBIERE","libell_d_acheminement":"LA LOUBIERE","code_postal":"12740","coordonnees_gps":[44.3909930617,2.65068486955],"code_commune_insee":"12131"},"geometry":{"type":"Point","coordinates":[2.65068486955,44.3909930617]},"record_timestamp":"2016-05-09T15:17:00+02:00"},{"datasetid":"laposte_hexasmal","recordid":"9b194f7bc3cbc589af75d348f4b059f3b9e62de9","fields":{"nom_de_la_commune":"LUC LA PRIMAUBE","libell_d_acheminement":"LUC LA PRIMAUBE","code_postal":"12450","coordonnees_gps":[44.3056658484,2.5364516694],"code_commune_insee":"12133"},"geometry":{"type":"Point","coordinates":[2.5364516694,44.3056658484]},"record_timestamp":"2016-05-09T15:17:00+02:00"},{"datasetid":"laposte_hexasmal","recordid":"0f6defa52d5c7db7f670373de89cd98db7d27082","fields":{"nom_de_la_commune":"MANHAC","libell_d_acheminement":"MANHAC","code_postal":"12160","coordonnees_gps":[44.2605706406,2.4781869588],"code_commune_insee":"12137"},"geometry":{"type":"Point","coordinates":[2.4781869588,44.2605706406]},"record_timestamp":"2016-05-09T15:17:00+02:00"},{"datasetid":"laposte_hexasmal","recordid":"2d1388a682c1091f9139ed7b89a4ba3d54fe3dea","fields":{"nom_de_la_commune":"MARCILLAC VALLON","libell_d_acheminement":"MARCILLAC VALLON","code_postal":"12330","coordonnees_gps":[44.4772361351,2.46487970585],"code_commune_insee":"12138"},"geometry":{"type":"Point","coordinates":[2.46487970585,44.4772361351]},"record_timestamp":"2016-05-09T15:17:00+02:00"},{"datasetid":"laposte_hexasmal","recordid":"797042d7c66ead418127c9aa46924a55b0335077","fields":{"nom_de_la_commune":"MONTEZIC","libell_d_acheminement":"MONTEZIC","code_postal":"12460","coordonnees_gps":[44.7168656794,2.64085756114],"code_commune_insee":"12151"},"geometry":{"type":"Point","coordinates":[2.64085756114,44.7168656794]},"record_timestamp":"2016-05-09T15:17:00+02:00"},{"datasetid":"laposte_hexasmal","recordid":"cb4ce6eb0c6ce9bad711d01557ba38e72b7abcfb","fields":{"nom_de_la_commune":"ALMONT LES JUNIES","libell_d_acheminement":"ALMONT LES JUNIES","code_postal":"12300","coordonnees_gps":[44.6009371852,2.31097212819],"code_commune_insee":"12004"},"geometry":{"type":"Point","coordinates":[2.31097212819,44.6009371852]},"record_timestamp":"2016-05-09T15:17:00+02:00"},{"datasetid":"laposte_hexasmal","recordid":"d876c0b6528ca74990e7613f03ba71e166cbeed2","fields":{"nom_de_la_commune":"AUBIN","libell_d_acheminement":"AUBIN","code_postal":"12110","coordonnees_gps":[44.5318545051,2.25591796926],"code_commune_insee":"12013"},"geometry":{"type":"Point","coordinates":[2.25591796926,44.5318545051]},"record_timestamp":"2016-05-09T15:17:00+02:00"},{"datasetid":"laposte_hexasmal","recordid":"7dd88d929a58c43165c10baf621c681e04dee798","fields":{"nom_de_la_commune":"AUZITS","libell_d_acheminement":"AUZITS","code_postal":"12390","coordonnees_gps":[44.4995549267,2.32166840443],"code_commune_insee":"12016"},"geometry":{"type":"Point","coordinates":[2.32166840443,44.4995549267]},"record_timestamp":"2016-05-09T15:17:00+02:00"},{"datasetid":"laposte_hexasmal","recordid":"ef3ee91d7a8e518836dee00a200848a8f6612e2e","fields":{"nom_de_la_commune":"AYSSENES","libell_d_acheminement":"AYSSENES","code_postal":"12430","coordonnees_gps":[44.092111179,2.76570045651],"code_commune_insee":"12017"},"geometry":{"type":"Point","coordinates":[2.76570045651,44.092111179]},"record_timestamp":"2016-05-09T15:17:00+02:00"},{"datasetid":"laposte_hexasmal","recordid":"89413cc6bb7273f3a4b8b7c2ace046ab313a06f8","fields":{"nom_de_la_commune":"LA BASTIDE PRADINES","libell_d_acheminement":"LA BASTIDE PRADINES","code_postal":"12490","coordonnees_gps":[44.0105483436,3.05634130776],"code_commune_insee":"12022"},"geometry":{"type":"Point","coordinates":[3.05634130776,44.0105483436]},"record_timestamp":"2016-05-09T15:17:00+02:00"},{"datasetid":"laposte_hexasmal","recordid":"2c134e3e1e3f21c5a34612865bbf720fda36d4b0","fields":{"nom_de_la_commune":"BESSUEJOULS","libell_d_acheminement":"BESSUEJOULS","code_postal":"12500","coordonnees_gps":[44.5198421781,2.71668578006],"code_commune_insee":"12027"},"geometry":{"type":"Point","coordinates":[2.71668578006,44.5198421781]},"record_timestamp":"2016-05-09T15:17:00+02:00"},{"datasetid":"laposte_hexasmal","recordid":"0c7548981b6581cd6e60a5969b663e97bb517783","fields":{"nom_de_la_commune":"BROUSSE LE CHATEAU","libell_d_acheminement":"BROUSSE LE CHATEAU","code_postal":"12480","coordonnees_gps":[44.0062723535,2.63789868887],"code_commune_insee":"12038"},"geometry":{"type":"Point","coordinates":[2.63789868887,44.0062723535]},"record_timestamp":"2016-05-09T15:17:00+02:00"},{"datasetid":"laposte_hexasmal","recordid":"64c065ad09834431b3fed52b9ece03b75d6a38f3","fields":{"nom_de_la_commune":"BRUSQUE","libell_d_acheminement":"BRUSQUE","code_postal":"12360","coordonnees_gps":[43.7649625087,2.94838918036],"code_commune_insee":"12039"},"geometry":{"type":"Point","coordinates":[2.94838918036,43.7649625087]},"record_timestamp":"2016-05-09T15:17:00+02:00"},{"datasetid":"laposte_hexasmal","recordid":"51725155ffdcb3172ab0354897f47934a8e2ab22","fields":{"nom_de_la_commune":"LA CAPELLE BONANCE","libell_d_acheminement":"LA CAPELLE BONANCE","code_postal":"12130","coordonnees_gps":[44.4515040312,3.02655921339],"code_commune_insee":"12055"},"geometry":{"type":"Point","coordinates":[3.02655921339,44.4515040312]},"record_timestamp":"2016-05-09T15:17:00+02:00"},{"datasetid":"laposte_hexasmal","recordid":"7880acc5f1c0111003331d00f15bb452142702e9","fields":{"nom_de_la_commune":"CENTRES","libell_d_acheminement":"CENTRES","code_postal":"12120","coordonnees_gps":[44.1676419665,2.4408941815],"code_commune_insee":"12065"},"geometry":{"type":"Point","coordinates":[2.4408941815,44.1676419665]},"record_timestamp":"2016-05-09T15:17:00+02:00"},{"datasetid":"laposte_hexasmal","recordid":"a01ebc43757b9dc370f8eec4df275b5fbbce7edf","fields":{"nom_de_la_commune":"COMPS LA GRAND VILLE","libell_d_acheminement":"COMPS LA GRAND VILLE","code_postal":"12120","coordonnees_gps":[44.2241967002,2.56911408448],"code_commune_insee":"12073"},"geometry":{"type":"Point","coordinates":[2.56911408448,44.2241967002]},"record_timestamp":"2016-05-09T15:17:00+02:00"},{"datasetid":"laposte_hexasmal","recordid":"883dc8d199997abc892464280702f6ed67f0bef5","fields":{"nom_de_la_commune":"LA COUVERTOIRADE","libell_d_acheminement":"LA COUVERTOIRADE","code_postal":"12230","coordonnees_gps":[43.9292282018,3.28890121279],"code_commune_insee":"12082"},"geometry":{"type":"Point","coordinates":[3.28890121279,43.9292282018]},"record_timestamp":"2016-05-09T15:17:00+02:00"},{"datasetid":"laposte_hexasmal","recordid":"22cf4f8521fc9caff9450458532b9ec730ca724d","fields":{"nom_de_la_commune":"CREISSELS","libell_d_acheminement":"CREISSELS","code_postal":"12100","coordonnees_gps":[44.064990103,3.05961986973],"code_commune_insee":"12084"},"geometry":{"type":"Point","coordinates":[3.05961986973,44.064990103]},"record_timestamp":"2016-05-09T15:17:00+02:00"},{"datasetid":"laposte_hexasmal","recordid":"e06b074e34e286eee8f7044bb870a66a047a586e","fields":{"nom_de_la_commune":"DRUELLE","libell_d_acheminement":"DRUELLE","code_postal":"12000","coordonnees_gps":[44.3609252009,2.47671597719],"code_commune_insee":"12090"},"geometry":{"type":"Point","coordinates":[2.47671597719,44.3609252009]},"record_timestamp":"2016-05-09T15:17:00+02:00"},{"datasetid":"laposte_hexasmal","recordid":"3446bf116e51f2599938fd90d411b0901efc6e6e","fields":{"nom_de_la_commune":"FAYET","libell_d_acheminement":"FAYET","code_postal":"12360","coordonnees_gps":[43.8035569048,2.97747865298],"code_commune_insee":"12099"},"geometry":{"type":"Point","coordinates":[2.97747865298,43.8035569048]},"record_timestamp":"2016-05-09T15:17:00+02:00"},{"datasetid":"laposte_hexasmal","recordid":"216ed0d475b663b31dd6e514b81f72cc99c069c6","fields":{"nom_de_la_commune":"FLAVIN","libell_d_acheminement":"FLAVIN","code_postal":"12450","coordonnees_gps":[44.2880137822,2.62175551429],"code_commune_insee":"12102"},"geometry":{"type":"Point","coordinates":[2.62175551429,44.2880137822]},"record_timestamp":"2016-05-09T15:17:00+02:00"},{"datasetid":"laposte_hexasmal","recordid":"427ee031a113d33d878a7abf30002cc9dbfb00b2","fields":{"nom_de_la_commune":"FLORENTIN LA CAPELLE","libell_d_acheminement":"FLORENTIN LA CAPELLE","code_postal":"12140","coordonnees_gps":[44.6389814573,2.64439043133],"code_commune_insee":"12103"},"geometry":{"type":"Point","coordinates":[2.64439043133,44.6389814573]},"record_timestamp":"2016-05-09T15:17:00+02:00"},{"datasetid":"laposte_hexasmal","recordid":"7c453783a67fb486dba0d2d88f2941c0e76851bf","fields":{"code_postal":"12310","code_commune_insee":"12120","libell_d_acheminement":"LAISSAC SEVERAC L EGLISE","ligne_5":"SEVERAC L EGLISE","nom_de_la_commune":"LAISSAC SEVERAC L EGLISE","coordonnees_gps":[44.3644570513,2.81804424075]},"geometry":{"type":"Point","coordinates":[2.81804424075,44.3644570513]},"record_timestamp":"2016-05-09T15:17:00+02:00"},{"datasetid":"laposte_hexasmal","recordid":"e88a51b0d00ca37a49f9cf9174c0e4afa1fb53a6","fields":{"nom_de_la_commune":"LAVAL ROQUECEZIERE","libell_d_acheminement":"LAVAL ROQUECEZIERE","code_postal":"12380","coordonnees_gps":[43.8122894492,2.63515019916],"code_commune_insee":"12125"},"geometry":{"type":"Point","coordinates":[2.63515019916,43.8122894492]},"record_timestamp":"2016-05-09T15:17:00+02:00"},{"datasetid":"laposte_hexasmal","recordid":"901b93b3ba589aa203dddb946641b933ff8b02c2","fields":{"nom_de_la_commune":"LESCURE JAOUL","libell_d_acheminement":"LESCURE JAOUL","code_postal":"12440","coordonnees_gps":[44.225497867,2.1468963703],"code_commune_insee":"12128"},"geometry":{"type":"Point","coordinates":[2.1468963703,44.225497867]},"record_timestamp":"2016-05-09T15:17:00+02:00"},{"datasetid":"laposte_hexasmal","recordid":"b4ad1764cedc2afc7e065d5c842ceedcdd87123c","fields":{"nom_de_la_commune":"LESTRADE ET THOUELS","libell_d_acheminement":"LESTRADE ET THOUELS","code_postal":"12430","coordonnees_gps":[44.054162276,2.64776017353],"code_commune_insee":"12129"},"geometry":{"type":"Point","coordinates":[2.64776017353,44.054162276]},"record_timestamp":"2016-05-09T15:17:00+02:00"},{"datasetid":"laposte_hexasmal","recordid":"209f88b1ca8bf0374a5a859b4293a6bf733c197f","fields":{"code_postal":"12450","code_commune_insee":"12133","libell_d_acheminement":"LUC LA PRIMAUBE","ligne_5":"LA PRIMAUBE","nom_de_la_commune":"LUC LA PRIMAUBE","coordonnees_gps":[44.3056658484,2.5364516694]},"geometry":{"type":"Point","coordinates":[2.5364516694,44.3056658484]},"record_timestamp":"2016-05-09T15:17:00+02:00"},{"datasetid":"laposte_hexasmal","recordid":"a2568b401340ca808bf61d9746e8054051ff87d8","fields":{"nom_de_la_commune":"MARNHAGUES ET LATOUR","libell_d_acheminement":"MARNHAGUES ET LATOUR","code_postal":"12540","coordonnees_gps":[43.8794497161,3.04168349472],"code_commune_insee":"12139"},"geometry":{"type":"Point","coordinates":[3.04168349472,43.8794497161]},"record_timestamp":"2016-05-09T15:17:00+02:00"},{"datasetid":"laposte_hexasmal","recordid":"c213ad63ea542ce3db472ee17ea9753263f26cee","fields":{"nom_de_la_commune":"MARTIEL","libell_d_acheminement":"MARTIEL","code_postal":"12200","coordonnees_gps":[44.3811674619,1.91298331714],"code_commune_insee":"12140"},"geometry":{"type":"Point","coordinates":[1.91298331714,44.3811674619]},"record_timestamp":"2016-05-09T15:17:00+02:00"},{"datasetid":"laposte_hexasmal","recordid":"3154805bb721af7d20d23f11285754ce4caffbe4","fields":{"nom_de_la_commune":"MAYRAN","libell_d_acheminement":"MAYRAN","code_postal":"12390","coordonnees_gps":[44.3890735468,2.37196392635],"code_commune_insee":"12142"},"geometry":{"type":"Point","coordinates":[2.37196392635,44.3890735468]},"record_timestamp":"2016-05-09T15:17:00+02:00"},{"datasetid":"laposte_hexasmal","recordid":"8712a6d55f365a6d31ea9bc2e724c2bdd67ade95","fields":{"nom_de_la_commune":"MELAGUES","libell_d_acheminement":"MELAGUES","code_postal":"12360","coordonnees_gps":[43.7281707219,3.01706208309],"code_commune_insee":"12143"},"geometry":{"type":"Point","coordinates":[3.01706208309,43.7281707219]},"record_timestamp":"2016-05-09T15:17:00+02:00"},{"datasetid":"laposte_hexasmal","recordid":"f9439907d4856dd68f56408d7560eed02117d9b1","fields":{"code_postal":"12360","code_commune_insee":"12147","libell_d_acheminement":"MONTAGNOL","ligne_5":"CENOMES","nom_de_la_commune":"MONTAGNOL","coordonnees_gps":[43.831157935,3.02461521529]},"geometry":{"type":"Point","coordinates":[3.02461521529,43.831157935]},"record_timestamp":"2016-05-09T15:17:00+02:00"},{"datasetid":"laposte_hexasmal","recordid":"107e773f7e4debc3911172c369c332d2bc56285a","fields":{"nom_de_la_commune":"MONTCLAR","libell_d_acheminement":"MONTCLAR","code_postal":"12550","coordonnees_gps":[43.9795757997,2.63093615826],"code_commune_insee":"12149"},"geometry":{"type":"Point","coordinates":[2.63093615826,43.9795757997]},"record_timestamp":"2016-05-09T15:17:00+02:00"},{"datasetid":"laposte_hexasmal","recordid":"ac31d80c12c984629dfee205b4dba5aedf3ed9ae","fields":{"nom_de_la_commune":"MOURET","libell_d_acheminement":"MOURET","code_postal":"12330","coordonnees_gps":[44.5143822131,2.52108945379],"code_commune_insee":"12161"},"geometry":{"type":"Point","coordinates":[2.52108945379,44.5143822131]},"record_timestamp":"2016-05-09T15:17:00+02:00"},{"datasetid":"laposte_hexasmal","recordid":"8e3c3226cd2e40e71798cfe09562e3a17b596364","fields":{"nom_de_la_commune":"NAJAC","libell_d_acheminement":"NAJAC","code_postal":"12270","coordonnees_gps":[44.211295506,1.96305922109],"code_commune_insee":"12167"},"geometry":{"type":"Point","coordinates":[1.96305922109,44.211295506]},"record_timestamp":"2016-05-09T15:17:00+02:00"},{"datasetid":"laposte_hexasmal","recordid":"2f2e245aca977c1e56431e44a34a4a1996639f2a","fields":{"code_postal":"12850","code_commune_insee":"12176","libell_d_acheminement":"ONET LE CHATEAU","ligne_5":"QUATRE SAISONS","nom_de_la_commune":"ONET LE CHATEAU","coordonnees_gps":[44.3825530939,2.56000835023]},"geometry":{"type":"Point","coordinates":[2.56000835023,44.3825530939]},"record_timestamp":"2016-05-09T15:17:00+02:00"},{"datasetid":"laposte_hexasmal","recordid":"33a574fbcbd618745e80d14912daee8172b3f84f","fields":{"code_postal":"12310","code_commune_insee":"12177","libell_d_acheminement":"PALMAS D AVEYRON","ligne_5":"COUSSERGUES","nom_de_la_commune":"PALMAS D AVEYRON","coordonnees_gps":[44.4009437729,2.84225329377]},"geometry":{"type":"Point","coordinates":[2.84225329377,44.4009437729]},"record_timestamp":"2016-05-09T15:17:00+02:00"},{"datasetid":"laposte_hexasmal","recordid":"90f54fbe5d033475fe21c8f484725067b1a20906","fields":{"nom_de_la_commune":"PRIVEZAC","libell_d_acheminement":"PRIVEZAC","code_postal":"12350","coordonnees_gps":[44.4103475612,2.19453209894],"code_commune_insee":"12191"},"geometry":{"type":"Point","coordinates":[2.19453209894,44.4103475612]},"record_timestamp":"2016-05-09T15:17:00+02:00"},{"datasetid":"laposte_hexasmal","recordid":"ad4586f15afb4efb4bc03d8e54b431ec135b5585","fields":{"nom_de_la_commune":"PRUINES","libell_d_acheminement":"PRUINES","code_postal":"12320","coordonnees_gps":[44.534819715,2.4875783018],"code_commune_insee":"12193"},"geometry":{"type":"Point","coordinates":[2.4875783018,44.534819715]},"record_timestamp":"2016-05-09T15:17:00+02:00"},{"datasetid":"laposte_hexasmal","recordid":"ea48b8029c05250d61a4f15878bb8a6aefb625ee","fields":{"nom_de_la_commune":"REQUISTA","libell_d_acheminement":"REQUISTA","code_postal":"12170","coordonnees_gps":[44.031961026,2.54899148777],"code_commune_insee":"12197"},"geometry":{"type":"Point","coordinates":[2.54899148777,44.031961026]},"record_timestamp":"2016-05-09T15:17:00+02:00"},{"datasetid":"laposte_hexasmal","recordid":"21bbc1915fb7a9187e0c285d0cd783ba796932e2","fields":{"nom_de_la_commune":"RIGNAC","libell_d_acheminement":"RIGNAC","code_postal":"12390","coordonnees_gps":[44.4038329146,2.29228871208],"code_commune_insee":"12199"},"geometry":{"type":"Point","coordinates":[2.29228871208,44.4038329146]},"record_timestamp":"2016-05-09T15:17:00+02:00"},{"datasetid":"laposte_hexasmal","recordid":"1ff96da19e677d639f990e8db13375df2e453a8c","fields":{"nom_de_la_commune":"RODELLE","libell_d_acheminement":"RODELLE","code_postal":"12340","coordonnees_gps":[44.4813052355,2.6223380773],"code_commune_insee":"12201"},"geometry":{"type":"Point","coordinates":[2.6223380773,44.4813052355]},"record_timestamp":"2016-05-09T15:17:00+02:00"},{"datasetid":"laposte_hexasmal","recordid":"dd303d44972fe80c30cf30abbd70fb8416821ed5","fields":{"nom_de_la_commune":"LA ROQUE STE MARGUERITE","libell_d_acheminement":"LA ROQUE STE MARGUERITE","code_postal":"12100","coordonnees_gps":[44.1093444691,3.24200220208],"code_commune_insee":"12204"},"geometry":{"type":"Point","coordinates":[3.24200220208,44.1093444691]},"record_timestamp":"2016-05-09T15:17:00+02:00"},{"datasetid":"laposte_hexasmal","recordid":"e81285e6bf8c28e67b49747dbd51b481fe017fa9","fields":{"nom_de_la_commune":"RULLAC ST CIRQ","libell_d_acheminement":"RULLAC ST CIRQ","code_postal":"12120","coordonnees_gps":[44.1192120935,2.47693953343],"code_commune_insee":"12207"},"geometry":{"type":"Point","coordinates":[2.47693953343,44.1192120935]},"record_timestamp":"2016-05-09T15:17:00+02:00"},{"datasetid":"laposte_hexasmal","recordid":"5ff8e3008e77db0c634a45ee03d5ac1f80186a51","fields":{"nom_de_la_commune":"ST BEAULIZE","libell_d_acheminement":"ST BEAULIZE","code_postal":"12540","coordonnees_gps":[43.9061421509,3.10001497795],"code_commune_insee":"12212"},"geometry":{"type":"Point","coordinates":[3.10001497795,43.9061421509]},"record_timestamp":"2016-05-09T15:17:00+02:00"},{"datasetid":"laposte_hexasmal","recordid":"d83ed36748dbbfbf38ddc9ceae715fcf19783412","fields":{"nom_de_la_commune":"STE CROIX","libell_d_acheminement":"STE CROIX","code_postal":"12260","coordonnees_gps":[44.4143206609,1.96803908132],"code_commune_insee":"12217"},"geometry":{"type":"Point","coordinates":[1.96803908132,44.4143206609]},"record_timestamp":"2016-05-09T15:17:00+02:00"},{"datasetid":"laposte_hexasmal","recordid":"1054e772a025576a4f06827156b0c41cc2a9e086","fields":{"nom_de_la_commune":"STE EULALIE D OLT","libell_d_acheminement":"STE EULALIE D OLT","code_postal":"12130","coordonnees_gps":[44.4661013084,2.91950653018],"code_commune_insee":"12219"},"geometry":{"type":"Point","coordinates":[2.91950653018,44.4661013084]},"record_timestamp":"2016-05-09T15:17:00+02:00"},{"datasetid":"laposte_hexasmal","recordid":"ffd75978d6d752d173934f2d0c90b7fefdc58350","fields":{"code_postal":"12210","code_commune_insee":"12223","libell_d_acheminement":"ARGENCES EN AUBRAC","ligne_5":"ALPUECH","nom_de_la_commune":"ARGENCES EN AUBRAC","coordonnees_gps":[44.8003905234,2.7434750028]},"geometry":{"type":"Point","coordinates":[2.7434750028,44.8003905234]},"record_timestamp":"2016-05-09T15:17:00+02:00"},{"datasetid":"laposte_hexasmal","recordid":"2a986da878d711d2edf9e9c3e41779d823c2fd04","fields":{"nom_de_la_commune":"ST GEORGES DE LUZENCON","libell_d_acheminement":"ST GEORGES DE LUZENCON","code_postal":"12100","coordonnees_gps":[44.0565556182,2.98714381525],"code_commune_insee":"12225"},"geometry":{"type":"Point","coordinates":[2.98714381525,44.0565556182]},"record_timestamp":"2016-05-09T15:17:00+02:00"},{"datasetid":"laposte_hexasmal","recordid":"34200750897261a1db328bc4970440849549f6fb","fields":{"nom_de_la_commune":"ST IGEST","libell_d_acheminement":"ST IGEST","code_postal":"12260","coordonnees_gps":[44.4455113511,2.09133013053],"code_commune_insee":"12227"},"geometry":{"type":"Point","coordinates":[2.09133013053,44.4455113511]},"record_timestamp":"2016-05-09T15:17:00+02:00"},{"datasetid":"laposte_hexasmal","recordid":"93e3368f3903b3217ddc2675ed3a81722ca30e10","fields":{"nom_de_la_commune":"ST PARTHEM","libell_d_acheminement":"ST PARTHEM","code_postal":"12300","coordonnees_gps":[44.6329765505,2.29151431858],"code_commune_insee":"12240"},"geometry":{"type":"Point","coordinates":[2.29151431858,44.6329765505]},"record_timestamp":"2016-05-09T15:17:00+02:00"},{"datasetid":"laposte_hexasmal","recordid":"ea22bb32b9cb01e5cc98e838c3006941b65e4fb1","fields":{"nom_de_la_commune":"ST SATURNIN DE LENNE","libell_d_acheminement":"ST SATURNIN DE LENNE","code_postal":"12560","coordonnees_gps":[44.409127962,3.02218493838],"code_commune_insee":"12247"},"geometry":{"type":"Point","coordinates":[3.02218493838,44.409127962]},"record_timestamp":"2016-05-09T15:17:00+02:00"},{"datasetid":"laposte_hexasmal","recordid":"cb438ce98c396a2f09522e8bb73d32c7be597b84","fields":{"code_postal":"12400","code_commune_insee":"12251","libell_d_acheminement":"ST VICTOR ET MELVIEU","ligne_5":"MELVIEU","nom_de_la_commune":"ST VICTOR ET MELVIEU","coordonnees_gps":[44.0507837492,2.81021922503]},"geometry":{"type":"Point","coordinates":[2.81021922503,44.0507837492]},"record_timestamp":"2016-05-09T15:17:00+02:00"},{"datasetid":"laposte_hexasmal","recordid":"e8efd565d6cbf76e70b2ebd57edd9ecd1c7e1d4a","fields":{"nom_de_la_commune":"SALLES CURAN","libell_d_acheminement":"SALLES CURAN","code_postal":"12410","coordonnees_gps":[44.159383352,2.78625740284],"code_commune_insee":"12253"},"geometry":{"type":"Point","coordinates":[2.78625740284,44.159383352]},"record_timestamp":"2016-05-09T15:17:00+02:00"},{"datasetid":"laposte_hexasmal","recordid":"c73765ef711e112b9881768bf964ef47afd45b85","fields":{"nom_de_la_commune":"SALMIECH","libell_d_acheminement":"SALMIECH","code_postal":"12120","coordonnees_gps":[44.1937884405,2.58717278711],"code_commune_insee":"12255"},"geometry":{"type":"Point","coordinates":[2.58717278711,44.1937884405]},"record_timestamp":"2016-05-09T15:17:00+02:00"},{"datasetid":"laposte_hexasmal","recordid":"40359d3631f28ee62d481b03414a726302748ea2","fields":{"nom_de_la_commune":"SALVAGNAC CAJARC","libell_d_acheminement":"SALVAGNAC CAJARC","code_postal":"12260","coordonnees_gps":[44.4543375215,1.87232547648],"code_commune_insee":"12256"},"geometry":{"type":"Point","coordinates":[1.87232547648,44.4543375215]},"record_timestamp":"2016-05-09T15:17:00+02:00"},{"datasetid":"laposte_hexasmal","recordid":"0b0ae0cc1a707536e7d98c49df88bdf45d5a5d9d","fields":{"nom_de_la_commune":"SANVENSA","libell_d_acheminement":"SANVENSA","code_postal":"12200","coordonnees_gps":[44.2844997959,2.04052425454],"code_commune_insee":"12259"},"geometry":{"type":"Point","coordinates":[2.04052425454,44.2844997959]},"record_timestamp":"2016-05-09T15:17:00+02:00"},{"datasetid":"laposte_hexasmal","recordid":"a5120ffd430d6e86380b1791c40991cdf884d663","fields":{"nom_de_la_commune":"TAURIAC DE CAMARES","libell_d_acheminement":"TAURIAC DE CAMARES","code_postal":"12360","coordonnees_gps":[43.7765492565,3.03077499172],"code_commune_insee":"12275"},"geometry":{"type":"Point","coordinates":[3.03077499172,43.7765492565]},"record_timestamp":"2016-05-09T15:17:00+02:00"},{"datasetid":"laposte_hexasmal","recordid":"cb383a45b39ffc10f224a4e910ef762b1de58170","fields":{"nom_de_la_commune":"TAYRAC","libell_d_acheminement":"TAYRAC","code_postal":"12440","coordonnees_gps":[44.2036765147,2.24341011271],"code_commune_insee":"12278"},"geometry":{"type":"Point","coordinates":[2.24341011271,44.2036765147]},"record_timestamp":"2016-05-09T15:17:00+02:00"},{"datasetid":"laposte_hexasmal","recordid":"ce6c178a99dfcafc9df54190a2d24bafbd1472d6","fields":{"nom_de_la_commune":"VILLEFRANCHE DE ROUERGUE","libell_d_acheminement":"VILLEFRANCHE DE ROUERGUE","code_postal":"12200","coordonnees_gps":[44.3499160171,2.03103287572],"code_commune_insee":"12300"},"geometry":{"type":"Point","coordinates":[2.03103287572,44.3499160171]},"record_timestamp":"2016-05-09T15:17:00+02:00"},{"datasetid":"laposte_hexasmal","recordid":"ddaf4651c5277b7da29c05f1dd58e3917488b9cd","fields":{"nom_de_la_commune":"MONTSALES","libell_d_acheminement":"MONTSALES","code_postal":"12260","coordonnees_gps":[44.4857721529,1.97611373855],"code_commune_insee":"12158"},"geometry":{"type":"Point","coordinates":[1.97611373855,44.4857721529]},"record_timestamp":"2016-05-09T15:17:00+02:00"},{"datasetid":"laposte_hexasmal","recordid":"b3f7df21b00a7b56a1d01238b36aa01b41e890cb","fields":{"nom_de_la_commune":"MOYRAZES","libell_d_acheminement":"MOYRAZES","code_postal":"12160","coordonnees_gps":[44.3275804769,2.42736716891],"code_commune_insee":"12162"},"geometry":{"type":"Point","coordinates":[2.42736716891,44.3275804769]},"record_timestamp":"2016-05-09T15:17:00+02:00"},{"datasetid":"laposte_hexasmal","recordid":"e3140ad2a40fb18d4590c815b9b20fbd4f2b3154","fields":{"nom_de_la_commune":"ONET LE CHATEAU","libell_d_acheminement":"ONET LE CHATEAU","code_postal":"12000","coordonnees_gps":[44.3825530939,2.56000835023],"code_commune_insee":"12176"},"geometry":{"type":"Point","coordinates":[2.56000835023,44.3825530939]},"record_timestamp":"2016-05-09T15:17:00+02:00"},{"datasetid":"laposte_hexasmal","recordid":"24c37693bcb239350b148046d57c620dac059fb1","fields":{"nom_de_la_commune":"PEYRUSSE LE ROC","libell_d_acheminement":"PEYRUSSE LE ROC","code_postal":"12220","coordonnees_gps":[44.5026320672,2.13437459711],"code_commune_insee":"12181"},"geometry":{"type":"Point","coordinates":[2.13437459711,44.5026320672]},"record_timestamp":"2016-05-09T15:17:00+02:00"},{"datasetid":"laposte_hexasmal","recordid":"764a22fe4ae32cd6cd8c0072ee6447ddb351f7c7","fields":{"nom_de_la_commune":"POMAYROLS","libell_d_acheminement":"POMAYROLS","code_postal":"12130","coordonnees_gps":[44.4867594811,3.05866574301],"code_commune_insee":"12184"},"geometry":{"type":"Point","coordinates":[3.05866574301,44.4867594811]},"record_timestamp":"2016-05-09T15:17:00+02:00"},{"datasetid":"laposte_hexasmal","recordid":"7a0bcf97f0c9d6a3d3d387001e00bb55754f3a86","fields":{"nom_de_la_commune":"MOUNES PROHENCOUX","libell_d_acheminement":"MOUNES PROHENCOUX","code_postal":"12370","coordonnees_gps":[43.7982858454,2.81918000593],"code_commune_insee":"12192"},"geometry":{"type":"Point","coordinates":[2.81918000593,43.7982858454]},"record_timestamp":"2016-05-09T15:17:00+02:00"},{"datasetid":"laposte_hexasmal","recordid":"e382a457a72810d960e7cb44054b191fe75bec2d","fields":{"nom_de_la_commune":"QUINS","libell_d_acheminement":"QUINS","code_postal":"12800","coordonnees_gps":[44.2295906034,2.37852465105],"code_commune_insee":"12194"},"geometry":{"type":"Point","coordinates":[2.37852465105,44.2295906034]},"record_timestamp":"2016-05-09T15:17:00+02:00"},{"datasetid":"laposte_hexasmal","recordid":"ecd824a3a13e5cfeacb17a08f3107adcd51aa19c","fields":{"nom_de_la_commune":"ROQUEFORT SUR SOULZON","libell_d_acheminement":"ROQUEFORT SUR SOULZON","code_postal":"12250","coordonnees_gps":[43.9706930615,2.98176110631],"code_commune_insee":"12203"},"geometry":{"type":"Point","coordinates":[2.98176110631,43.9706930615]},"record_timestamp":"2016-05-09T15:17:00+02:00"},{"datasetid":"laposte_hexasmal","recordid":"d5f180a05901413f5fbc327260512996cacd5e75","fields":{"code_postal":"12210","code_commune_insee":"12223","libell_d_acheminement":"ARGENCES EN AUBRAC","ligne_5":"LACALM","nom_de_la_commune":"ARGENCES EN AUBRAC","coordonnees_gps":[44.8003905234,2.7434750028]},"geometry":{"type":"Point","coordinates":[2.7434750028,44.8003905234]},"record_timestamp":"2016-05-09T15:17:00+02:00"},{"datasetid":"laposte_hexasmal","recordid":"0b7c7592a9b6bf593d247e889caee9e60ffcecff","fields":{"code_postal":"12420","code_commune_insee":"12223","libell_d_acheminement":"ARGENCES EN AUBRAC","ligne_5":"STE GENEVIEVE SUR ARGENCE","nom_de_la_commune":"ARGENCES EN AUBRAC","coordonnees_gps":[44.8003905234,2.7434750028]},"geometry":{"type":"Point","coordinates":[2.7434750028,44.8003905234]},"record_timestamp":"2016-05-09T15:17:00+02:00"},{"datasetid":"laposte_hexasmal","recordid":"71bd21aaeb17d166aa09bb7c547bba5f57d8eb71","fields":{"nom_de_la_commune":"ST HIPPOLYTE","libell_d_acheminement":"ST HIPPOLYTE","code_postal":"12140","coordonnees_gps":[44.7257623817,2.58415334807],"code_commune_insee":"12226"},"geometry":{"type":"Point","coordinates":[2.58415334807,44.7257623817]},"record_timestamp":"2016-05-09T15:17:00+02:00"},{"datasetid":"laposte_hexasmal","recordid":"3ceb1b3bd0c428894ce53360e51bca101364c7a4","fields":{"nom_de_la_commune":"ST IZAIRE","libell_d_acheminement":"ST IZAIRE","code_postal":"12480","coordonnees_gps":[43.9709276715,2.70338873518],"code_commune_insee":"12228"},"geometry":{"type":"Point","coordinates":[2.70338873518,43.9709276715]},"record_timestamp":"2016-05-09T15:17:00+02:00"},{"datasetid":"laposte_hexasmal","recordid":"c954a7bd904b9dc949ffcac1030cf3a08bf10648","fields":{"nom_de_la_commune":"ST JEAN DELNOUS","libell_d_acheminement":"ST JEAN DELNOUS","code_postal":"12170","coordonnees_gps":[44.0414081,2.49245464315],"code_commune_insee":"12230"},"geometry":{"type":"Point","coordinates":[2.49245464315,44.0414081]},"record_timestamp":"2016-05-09T15:17:00+02:00"},{"datasetid":"laposte_hexasmal","recordid":"5ae7a916b310d834c4b156407ac3a3ebfb44af26","fields":{"nom_de_la_commune":"ST JUERY","libell_d_acheminement":"ST JUERY","code_postal":"12550","coordonnees_gps":[43.9242584641,2.69629046616],"code_commune_insee":"12233"},"geometry":{"type":"Point","coordinates":[2.69629046616,43.9242584641]},"record_timestamp":"2016-05-09T15:17:00+02:00"},{"datasetid":"laposte_hexasmal","recordid":"64505726265f8a2ed09d175404da0b65c949358a","fields":{"nom_de_la_commune":"ST SEVER DU MOUSTIER","libell_d_acheminement":"ST SEVER DU MOUSTIER","code_postal":"12370","coordonnees_gps":[43.7720630211,2.69278651558],"code_commune_insee":"12249"},"geometry":{"type":"Point","coordinates":[2.69278651558,43.7720630211]},"record_timestamp":"2016-05-09T15:17:00+02:00"},{"datasetid":"laposte_hexasmal","recordid":"a6ac9369362955f8d38c32759df5881bdaa03fb1","fields":{"nom_de_la_commune":"ST SYMPHORIEN DE THENIERES","libell_d_acheminement":"ST SYMPHORIEN DE THENIERES","code_postal":"12460","coordonnees_gps":[44.7403646791,2.70823948666],"code_commune_insee":"12250"},"geometry":{"type":"Point","coordinates":[2.70823948666,44.7403646791]},"record_timestamp":"2016-05-09T15:17:00+02:00"},{"datasetid":"laposte_hexasmal","recordid":"b130f9a082e1066206ee7ef73544c9ea7d545b57","fields":{"code_postal":"12460","code_commune_insee":"12250","libell_d_acheminement":"ST SYMPHORIEN DE THENIERES","ligne_5":"ST GERVAIS","nom_de_la_commune":"ST SYMPHORIEN DE THENIERES","coordonnees_gps":[44.7403646791,2.70823948666]},"geometry":{"type":"Point","coordinates":[2.70823948666,44.7403646791]},"record_timestamp":"2016-05-09T15:17:00+02:00"},{"datasetid":"laposte_hexasmal","recordid":"9b939a7b81d2c90009dc5b68272eb2f689fbceb4","fields":{"code_postal":"12700","code_commune_insee":"12257","libell_d_acheminement":"CAUSSE ET DIEGE","ligne_5":"GELLE","nom_de_la_commune":"CAUSSE ET DIEGE","coordonnees_gps":[44.5282954974,2.03482919718]},"geometry":{"type":"Point","coordinates":[2.03482919718,44.5282954974]},"record_timestamp":"2016-05-09T15:17:00+02:00"},{"datasetid":"laposte_hexasmal","recordid":"324940c50ebcb50540c941fb860f6c71837d6035","fields":{"code_postal":"12700","code_commune_insee":"12257","libell_d_acheminement":"CAUSSE ET DIEGE","ligne_5":"LOUPIAC","nom_de_la_commune":"CAUSSE ET DIEGE","coordonnees_gps":[44.5282954974,2.03482919718]},"geometry":{"type":"Point","coordinates":[2.03482919718,44.5282954974]},"record_timestamp":"2016-05-09T15:17:00+02:00"},{"datasetid":"laposte_hexasmal","recordid":"0f08f86338ac3f765f3fddd493993ac61b1ce890","fields":{"nom_de_la_commune":"SAUCLIERES","libell_d_acheminement":"SAUCLIERES","code_postal":"12230","coordonnees_gps":[43.9797470303,3.37516953256],"code_commune_insee":"12260"},"geometry":{"type":"Point","coordinates":[3.37516953256,43.9797470303]},"record_timestamp":"2016-05-09T15:17:00+02:00"},{"datasetid":"laposte_hexasmal","recordid":"30b8041b3765c5ca00ad49bab6a1e90cb961f04d","fields":{"nom_de_la_commune":"AMBEYRAC","libell_d_acheminement":"AMBEYRAC","code_postal":"12260","coordonnees_gps":[44.4943534957,1.9357162857],"code_commune_insee":"12007"},"geometry":{"type":"Point","coordinates":[1.9357162857,44.4943534957]},"record_timestamp":"2016-05-09T15:17:00+02:00"},{"datasetid":"laposte_hexasmal","recordid":"d8d4a1db4aa96bf6318223bc550d15f1840a59ce","fields":{"nom_de_la_commune":"ARNAC SUR DOURDOU","libell_d_acheminement":"ARNAC SUR DOURDOU","code_postal":"12360","coordonnees_gps":[43.7187010455,2.94592121582],"code_commune_insee":"12009"},"geometry":{"type":"Point","coordinates":[2.94592121582,43.7187010455]},"record_timestamp":"2016-05-09T15:17:00+02:00"},{"datasetid":"laposte_hexasmal","recordid":"10afeaff4149080b1ee8ff8e0f66ce5dc877b57c","fields":{"nom_de_la_commune":"BALSAC","libell_d_acheminement":"BALSAC","code_postal":"12510","coordonnees_gps":[44.40028476,2.45563526521],"code_commune_insee":"12020"},"geometry":{"type":"Point","coordinates":[2.45563526521,44.40028476]},"record_timestamp":"2016-05-09T15:17:00+02:00"},{"datasetid":"laposte_hexasmal","recordid":"dea829eb70503cc62c08d36585782e9f44ac5e1f","fields":{"nom_de_la_commune":"BELCASTEL","libell_d_acheminement":"BELCASTEL","code_postal":"12390","coordonnees_gps":[44.3944148302,2.33164860958],"code_commune_insee":"12024"},"geometry":{"type":"Point","coordinates":[2.33164860958,44.3944148302]},"record_timestamp":"2016-05-09T15:17:00+02:00"},{"datasetid":"laposte_hexasmal","recordid":"7ab8d79df035510e8a27908ba3e5b6d1473cd7b5","fields":{"nom_de_la_commune":"BOURNAZEL","libell_d_acheminement":"BOURNAZEL","code_postal":"12390","coordonnees_gps":[44.4601104771,2.30271323299],"code_commune_insee":"12031"},"geometry":{"type":"Point","coordinates":[2.30271323299,44.4601104771]},"record_timestamp":"2016-05-09T15:17:00+02:00"},{"datasetid":"laposte_hexasmal","recordid":"d5286c17247362afdc26b742a9cfdf404175915f","fields":{"nom_de_la_commune":"CABANES","libell_d_acheminement":"CABANES","code_postal":"12800","coordonnees_gps":[44.191255782,2.29209486155],"code_commune_insee":"12041"},"geometry":{"type":"Point","coordinates":[2.29209486155,44.191255782]},"record_timestamp":"2016-05-09T15:17:00+02:00"},{"datasetid":"laposte_hexasmal","recordid":"6eb1c8be5e6541eb2ef93f21f65d84eaf818b113","fields":{"nom_de_la_commune":"CALMELS ET LE VIALA","libell_d_acheminement":"CALMELS ET LE VIALA","code_postal":"12400","coordonnees_gps":[43.95542291,2.75841981289],"code_commune_insee":"12042"},"geometry":{"type":"Point","coordinates":[2.75841981289,43.95542291]},"record_timestamp":"2016-05-09T15:17:00+02:00"},{"datasetid":"laposte_hexasmal","recordid":"b0905d0b55b6451f8620a15bf89c6f05c4f9ea73","fields":{"nom_de_la_commune":"CAMPAGNAC","libell_d_acheminement":"CAMPAGNAC","code_postal":"12560","coordonnees_gps":[44.4014190434,3.08798041232],"code_commune_insee":"12047"},"geometry":{"type":"Point","coordinates":[3.08798041232,44.4014190434]},"record_timestamp":"2016-05-09T15:17:00+02:00"},{"datasetid":"laposte_hexasmal","recordid":"85a67e36eeb434747af61c3cfee2ff8a75e74964","fields":{"nom_de_la_commune":"CAMPOURIEZ","libell_d_acheminement":"CAMPOURIEZ","code_postal":"12460","coordonnees_gps":[44.6808744001,2.60936956955],"code_commune_insee":"12048"},"geometry":{"type":"Point","coordinates":[2.60936956955,44.6808744001]},"record_timestamp":"2016-05-09T15:17:00+02:00"},{"datasetid":"laposte_hexasmal","recordid":"484e434a72aab4a0b2071cdb88db1b831406e3b1","fields":{"nom_de_la_commune":"CAPDENAC GARE","libell_d_acheminement":"CAPDENAC GARE","code_postal":"12700","coordonnees_gps":[44.5596095618,2.06863929998],"code_commune_insee":"12052"},"geometry":{"type":"Point","coordinates":[2.06863929998,44.5596095618]},"record_timestamp":"2016-05-09T15:17:00+02:00"},{"datasetid":"laposte_hexasmal","recordid":"224b32a38224ca58c890734544a15635c549ccf2","fields":{"nom_de_la_commune":"LA CAPELLE BALAGUIER","libell_d_acheminement":"LA CAPELLE BALAGUIER","code_postal":"12260","coordonnees_gps":[44.4390516926,1.9259338711],"code_commune_insee":"12053"},"geometry":{"type":"Point","coordinates":[1.9259338711,44.4390516926]},"record_timestamp":"2016-05-09T15:17:00+02:00"},{"datasetid":"laposte_hexasmal","recordid":"33dc2af95080916ea8cc07562be1510cfff0b270","fields":{"code_postal":"12160","code_commune_insee":"12056","libell_d_acheminement":"BARAQUEVILLE","ligne_5":"VORS","nom_de_la_commune":"BARAQUEVILLE","coordonnees_gps":[44.2810938954,2.44964862339]},"geometry":{"type":"Point","coordinates":[2.44964862339,44.2810938954]},"record_timestamp":"2016-05-09T15:17:00+02:00"},{"datasetid":"laposte_hexasmal","recordid":"eab1594d50ff6056b13908dae211ddd6628cd9ec","fields":{"nom_de_la_commune":"CASSUEJOULS","libell_d_acheminement":"CASSUEJOULS","code_postal":"12210","coordonnees_gps":[44.7223970654,2.81116036535],"code_commune_insee":"12058"},"geometry":{"type":"Point","coordinates":[2.81116036535,44.7223970654]},"record_timestamp":"2016-05-09T15:17:00+02:00"},{"datasetid":"laposte_hexasmal","recordid":"5d3be8687e068f31a358cb1b79b19dc26c471271","fields":{"nom_de_la_commune":"CASTANET","libell_d_acheminement":"CASTANET","code_postal":"12240","coordonnees_gps":[44.2930906891,2.30836294143],"code_commune_insee":"12059"},"geometry":{"type":"Point","coordinates":[2.30836294143,44.2930906891]},"record_timestamp":"2016-05-09T15:17:00+02:00"},{"datasetid":"laposte_hexasmal","recordid":"4feacd6a918c32daa5977a0a2516d8e2faa3c81b","fields":{"nom_de_la_commune":"CASTELMARY","libell_d_acheminement":"CASTELMARY","code_postal":"12800","coordonnees_gps":[44.1721922742,2.24442015696],"code_commune_insee":"12060"},"geometry":{"type":"Point","coordinates":[2.24442015696,44.1721922742]},"record_timestamp":"2016-05-09T15:17:00+02:00"},{"datasetid":"laposte_hexasmal","recordid":"fd910f7bd4b86f0c155588286f9659a49ae647a0","fields":{"nom_de_la_commune":"LA CAVALERIE","libell_d_acheminement":"LA CAVALERIE","code_postal":"12230","coordonnees_gps":[44.0119187928,3.1838932062],"code_commune_insee":"12063"},"geometry":{"type":"Point","coordinates":[3.1838932062,44.0119187928]},"record_timestamp":"2016-05-09T15:17:00+02:00"},{"datasetid":"laposte_hexasmal","recordid":"a22713ead32b503753f0688bb1963f3a663fad9a","fields":{"nom_de_la_commune":"CLAIRVAUX D AVEYRON","libell_d_acheminement":"CLAIRVAUX D AVEYRON","code_postal":"12330","coordonnees_gps":[44.4068685217,2.40873081566],"code_commune_insee":"12066"},"geometry":{"type":"Point","coordinates":[2.40873081566,44.4068685217]},"record_timestamp":"2016-05-09T15:17:00+02:00"},{"datasetid":"laposte_hexasmal","recordid":"2359f4f0e897aea20ef66d03cafc4578d760b57a","fields":{"nom_de_la_commune":"LE CLAPIER","libell_d_acheminement":"LE CLAPIER","code_postal":"12540","coordonnees_gps":[43.8281226174,3.17391582367],"code_commune_insee":"12067"},"geometry":{"type":"Point","coordinates":[3.17391582367,43.8281226174]},"record_timestamp":"2016-05-09T15:17:00+02:00"},{"datasetid":"laposte_hexasmal","recordid":"f194299130dba0362eeb7db162e01bdae9b491a6","fields":{"nom_de_la_commune":"COLOMBIES","libell_d_acheminement":"COLOMBIES","code_postal":"12240","coordonnees_gps":[44.3435829134,2.32786073616],"code_commune_insee":"12068"},"geometry":{"type":"Point","coordinates":[2.32786073616,44.3435829134]},"record_timestamp":"2016-05-09T15:17:00+02:00"},{"datasetid":"laposte_hexasmal","recordid":"3d46526d13f340c54aca72e38bf8d6cb8d2685e0","fields":{"nom_de_la_commune":"COMPREGNAC","libell_d_acheminement":"COMPREGNAC","code_postal":"12100","coordonnees_gps":[44.0964783684,2.97961913091],"code_commune_insee":"12072"},"geometry":{"type":"Point","coordinates":[2.97961913091,44.0964783684]},"record_timestamp":"2016-05-09T15:17:00+02:00"},{"datasetid":"laposte_hexasmal","recordid":"48f077fb52814ee91f337a93c0f6607fa9b16acd","fields":{"nom_de_la_commune":"CRESPIN","libell_d_acheminement":"CRESPIN","code_postal":"12800","coordonnees_gps":[44.153846974,2.25678856386],"code_commune_insee":"12085"},"geometry":{"type":"Point","coordinates":[2.25678856386,44.153846974]},"record_timestamp":"2016-05-09T15:17:00+02:00"},{"datasetid":"laposte_hexasmal","recordid":"267003fb6699ad820b03b9e6b04586b8be4f9173","fields":{"nom_de_la_commune":"DURENQUE","libell_d_acheminement":"DURENQUE","code_postal":"12170","coordonnees_gps":[44.10079135,2.62177074145],"code_commune_insee":"12092"},"geometry":{"type":"Point","coordinates":[2.62177074145,44.10079135]},"record_timestamp":"2016-05-09T15:17:00+02:00"},{"datasetid":"laposte_hexasmal","recordid":"40314be54854681af451e692d179c443924f42a5","fields":{"nom_de_la_commune":"ENTRAYGUES SUR TRUYERE","libell_d_acheminement":"ENTRAYGUES SUR TRUYERE","code_postal":"12140","coordonnees_gps":[44.6544227279,2.57843798744],"code_commune_insee":"12094"},"geometry":{"type":"Point","coordinates":[2.57843798744,44.6544227279]},"record_timestamp":"2016-05-09T15:17:00+02:00"},{"datasetid":"laposte_hexasmal","recordid":"dc2455b8014e2fa382fc9accfacc8514250eeea5","fields":{"nom_de_la_commune":"ESTAING","libell_d_acheminement":"ESTAING","code_postal":"12190","coordonnees_gps":[44.5694224223,2.68750805663],"code_commune_insee":"12098"},"geometry":{"type":"Point","coordinates":[2.68750805663,44.5694224223]},"record_timestamp":"2016-05-09T15:17:00+02:00"},{"datasetid":"laposte_hexasmal","recordid":"4c0e2af8bbe0b0cc662f9dcd612b86f91faee24f","fields":{"nom_de_la_commune":"FOISSAC","libell_d_acheminement":"FOISSAC","code_postal":"12260","coordonnees_gps":[44.5065119928,2.00769890689],"code_commune_insee":"12104"},"geometry":{"type":"Point","coordinates":[2.00769890689,44.5065119928]},"record_timestamp":"2016-05-09T15:17:00+02:00"},{"datasetid":"laposte_hexasmal","recordid":"16fa0a36a3c6e7c75e9829a913ee872dc729098a","fields":{"nom_de_la_commune":"GABRIAC","libell_d_acheminement":"GABRIAC","code_postal":"12340","coordonnees_gps":[44.4619669953,2.80472572393],"code_commune_insee":"12106"},"geometry":{"type":"Point","coordinates":[2.80472572393,44.4619669953]},"record_timestamp":"2016-05-09T15:17:00+02:00"},{"datasetid":"laposte_hexasmal","recordid":"c253020ef4d8ce911132012b7c63b4d883f1b925","fields":{"nom_de_la_commune":"GISSAC","libell_d_acheminement":"GISSAC","code_postal":"12360","coordonnees_gps":[43.868273324,2.90640154939],"code_commune_insee":"12109"},"geometry":{"type":"Point","coordinates":[2.90640154939,43.868273324]},"record_timestamp":"2016-05-09T15:17:00+02:00"},{"datasetid":"laposte_hexasmal","recordid":"d811754e05aae7fa16a65f82760779ef6cc266cb","fields":{"nom_de_la_commune":"GOLINHAC","libell_d_acheminement":"GOLINHAC","code_postal":"12140","coordonnees_gps":[44.5959231172,2.58644592091],"code_commune_insee":"12110"},"geometry":{"type":"Point","coordinates":[2.58644592091,44.5959231172]},"record_timestamp":"2016-05-09T15:17:00+02:00"},{"datasetid":"laposte_hexasmal","recordid":"e55e76640184c7a7b8e7ea4b6b51661942402966","fields":{"nom_de_la_commune":"GOUTRENS","libell_d_acheminement":"GOUTRENS","code_postal":"12390","coordonnees_gps":[44.4387236873,2.36634361552],"code_commune_insee":"12111"},"geometry":{"type":"Point","coordinates":[2.36634361552,44.4387236873]},"record_timestamp":"2016-05-09T15:17:00+02:00"},{"datasetid":"laposte_hexasmal","recordid":"7f25ec879b132f82bb83e18f468ad7a495711847","fields":{"nom_de_la_commune":"HUPARLAC","libell_d_acheminement":"HUPARLAC","code_postal":"12460","coordonnees_gps":[44.7114576875,2.75356213678],"code_commune_insee":"12116"},"geometry":{"type":"Point","coordinates":[2.75356213678,44.7114576875]},"record_timestamp":"2016-05-09T15:17:00+02:00"},{"datasetid":"laposte_hexasmal","recordid":"64c36f70331794da586fe3ff191798e047a8a47f","fields":{"nom_de_la_commune":"LUGAN","libell_d_acheminement":"LUGAN","code_postal":"12220","coordonnees_gps":[44.4835018832,2.25588264756],"code_commune_insee":"12134"},"geometry":{"type":"Point","coordinates":[2.25588264756,44.4835018832]},"record_timestamp":"2016-05-09T15:17:00+02:00"},{"datasetid":"laposte_hexasmal","recordid":"dd8c1ef3456add863be69867b368d53c0a06ccde","fields":{"nom_de_la_commune":"MILLAU","libell_d_acheminement":"MILLAU","code_postal":"12100","coordonnees_gps":[44.0976252203,3.11705384129],"code_commune_insee":"12145"},"geometry":{"type":"Point","coordinates":[3.11705384129,44.0976252203]},"record_timestamp":"2016-05-09T15:17:00+02:00"},{"datasetid":"laposte_hexasmal","recordid":"f9797b78b0a388ce650cb8569a6b6c48b45ee992","fields":{"nom_de_la_commune":"LE MONASTERE","libell_d_acheminement":"LE MONASTERE","code_postal":"12000","coordonnees_gps":[44.331592843,2.5872623881],"code_commune_insee":"12146"},"geometry":{"type":"Point","coordinates":[2.5872623881,44.331592843]},"record_timestamp":"2016-05-09T15:17:00+02:00"},{"datasetid":"laposte_hexasmal","recordid":"23c4b7f3e13e272caf4a9bc742db7630a1e059c0","fields":{"nom_de_la_commune":"MONTBAZENS","libell_d_acheminement":"MONTBAZENS","code_postal":"12220","coordonnees_gps":[44.476808221,2.21289087598],"code_commune_insee":"12148"},"geometry":{"type":"Point","coordinates":[2.21289087598,44.476808221]},"record_timestamp":"2016-05-09T15:17:00+02:00"},{"datasetid":"laposte_hexasmal","recordid":"147c626e97d26ea209b83d144d8782e3335749ec","fields":{"nom_de_la_commune":"MONTFRANC","libell_d_acheminement":"MONTFRANC","code_postal":"12380","coordonnees_gps":[43.8408623643,2.57981205316],"code_commune_insee":"12152"},"geometry":{"type":"Point","coordinates":[2.57981205316,43.8408623643]},"record_timestamp":"2016-05-09T15:17:00+02:00"},{"datasetid":"laposte_hexasmal","recordid":"f4c10950d71c8c81364c875853bd3a2d05dd469d","fields":{"nom_de_la_commune":"MORLHON LE HAUT","libell_d_acheminement":"MORLHON LE HAUT","code_postal":"12200","coordonnees_gps":[44.3218697288,2.08182819744],"code_commune_insee":"12159"},"geometry":{"type":"Point","coordinates":[2.08182819744,44.3218697288]},"record_timestamp":"2016-05-09T15:17:00+02:00"},{"datasetid":"laposte_hexasmal","recordid":"ee5babc96b5824f1c06e9d21c15cfa25e5f919fc","fields":{"nom_de_la_commune":"MOSTUEJOULS","libell_d_acheminement":"MOSTUEJOULS","code_postal":"12720","coordonnees_gps":[44.2252486217,3.18271814024],"code_commune_insee":"12160"},"geometry":{"type":"Point","coordinates":[3.18271814024,44.2252486217]},"record_timestamp":"2016-05-09T15:17:00+02:00"},{"datasetid":"laposte_hexasmal","recordid":"8c53d8a2af17f00535a218a5607946c1d8f39518","fields":{"nom_de_la_commune":"MUROLS","libell_d_acheminement":"MUROLS","code_postal":"12600","coordonnees_gps":[44.7608204119,2.5775403488],"code_commune_insee":"12166"},"geometry":{"type":"Point","coordinates":[2.5775403488,44.7608204119]},"record_timestamp":"2016-05-09T15:17:00+02:00"},{"datasetid":"laposte_hexasmal","recordid":"ed35aae9f3e213959130f6052bbf8aa0ee95a128","fields":{"nom_de_la_commune":"NAUVIALE","libell_d_acheminement":"NAUVIALE","code_postal":"12330","coordonnees_gps":[44.5133117554,2.43273501132],"code_commune_insee":"12171"},"geometry":{"type":"Point","coordinates":[2.43273501132,44.5133117554]},"record_timestamp":"2016-05-09T15:17:00+02:00"},{"datasetid":"laposte_hexasmal","recordid":"d22dc44afdbc07b7f618dc0d591726f517dff8b8","fields":{"nom_de_la_commune":"LE NAYRAC","libell_d_acheminement":"LE NAYRAC","code_postal":"12190","coordonnees_gps":[44.605562454,2.66952444111],"code_commune_insee":"12172"},"geometry":{"type":"Point","coordinates":[2.66952444111,44.605562454]},"record_timestamp":"2016-05-09T15:17:00+02:00"},{"datasetid":"laposte_hexasmal","recordid":"8e91f077f49fbc2b9387fb59ee24dd1dab6b0fd1","fields":{"nom_de_la_commune":"OLS ET RINHODES","libell_d_acheminement":"OLS ET RINHODES","code_postal":"12260","coordonnees_gps":[44.4615013525,1.94693062235],"code_commune_insee":"12175"},"geometry":{"type":"Point","coordinates":[1.94693062235,44.4615013525]},"record_timestamp":"2016-05-09T15:17:00+02:00"},{"datasetid":"laposte_hexasmal","recordid":"36ea80042be5cd635e85f6ab17b0e58ac71516ce","fields":{"code_postal":"12340","code_commune_insee":"12177","libell_d_acheminement":"PALMAS D AVEYRON","ligne_5":"CRUEJOULS","nom_de_la_commune":"PALMAS D AVEYRON","coordonnees_gps":[44.4009437729,2.84225329377]},"geometry":{"type":"Point","coordinates":[2.84225329377,44.4009437729]},"record_timestamp":"2016-05-09T15:17:00+02:00"},{"datasetid":"laposte_hexasmal","recordid":"742dca11030878f13fb040a6ed7b7941cf20a140","fields":{"nom_de_la_commune":"PAULHE","libell_d_acheminement":"PAULHE","code_postal":"12520","coordonnees_gps":[44.1486388779,3.11148254471],"code_commune_insee":"12178"},"geometry":{"type":"Point","coordinates":[3.11148254471,44.1486388779]},"record_timestamp":"2016-05-09T15:17:00+02:00"},{"datasetid":"laposte_hexasmal","recordid":"2cd908a5f0b8396ad61b060bfe8d0ed9c0f911c6","fields":{"nom_de_la_commune":"PLAISANCE","libell_d_acheminement":"PLAISANCE","code_postal":"12550","coordonnees_gps":[43.929841907,2.56266384044],"code_commune_insee":"12183"},"geometry":{"type":"Point","coordinates":[2.56266384044,43.929841907]},"record_timestamp":"2016-05-09T15:17:00+02:00"},{"datasetid":"laposte_hexasmal","recordid":"5b617fc06ea6f98f407e919ce14851b7c9b4ca57","fields":{"nom_de_la_commune":"PONT DE SALARS","libell_d_acheminement":"PONT DE SALARS","code_postal":"12290","coordonnees_gps":[44.277717255,2.70931526263],"code_commune_insee":"12185"},"geometry":{"type":"Point","coordinates":[2.70931526263,44.277717255]},"record_timestamp":"2016-05-09T15:17:00+02:00"},{"datasetid":"laposte_hexasmal","recordid":"f8f11056dd62edd0a3b0ce54fe4a69e71e1299ca","fields":{"nom_de_la_commune":"PRADES SALARS","libell_d_acheminement":"PRADES SALARS","code_postal":"12290","coordonnees_gps":[44.2493343798,2.7929953835],"code_commune_insee":"12188"},"geometry":{"type":"Point","coordinates":[2.7929953835,44.2493343798]},"record_timestamp":"2016-05-09T15:17:00+02:00"},{"datasetid":"laposte_hexasmal","recordid":"e20b1eaf23a8aa3e561589c279830d5b0ba18a33","fields":{"nom_de_la_commune":"PREVINQUIERES","libell_d_acheminement":"PREVINQUIERES","code_postal":"12350","coordonnees_gps":[44.3659665402,2.24437860842],"code_commune_insee":"12190"},"geometry":{"type":"Point","coordinates":[2.24437860842,44.3659665402]},"record_timestamp":"2016-05-09T15:17:00+02:00"},{"datasetid":"laposte_hexasmal","recordid":"e53fe305f28d21e1a6e1b512bc8654ab4e8102c2","fields":{"nom_de_la_commune":"RIVIERE SUR TARN","libell_d_acheminement":"RIVIERE SUR TARN","code_postal":"12640","coordonnees_gps":[44.2108724191,3.12758575217],"code_commune_insee":"12200"},"geometry":{"type":"Point","coordinates":[3.12758575217,44.2108724191]},"record_timestamp":"2016-05-09T15:17:00+02:00"},{"datasetid":"laposte_hexasmal","recordid":"54f1efe2037de498db112c196c3121d70a798a64","fields":{"code_postal":"12640","code_commune_insee":"12200","libell_d_acheminement":"RIVIERE SUR TARN","ligne_5":"BOYNE","nom_de_la_commune":"RIVIERE SUR TARN","coordonnees_gps":[44.2108724191,3.12758575217]},"geometry":{"type":"Point","coordinates":[3.12758575217,44.2108724191]},"record_timestamp":"2016-05-09T15:17:00+02:00"},{"datasetid":"laposte_hexasmal","recordid":"270b502b128828b02a1aca96cdbd120cd14d8ef5","fields":{"nom_de_la_commune":"LA ROUQUETTE","libell_d_acheminement":"LA ROUQUETTE","code_postal":"12200","coordonnees_gps":[44.3097319748,1.9747853664],"code_commune_insee":"12205"},"geometry":{"type":"Point","coordinates":[1.9747853664,44.3097319748]},"record_timestamp":"2016-05-09T15:17:00+02:00"},{"datasetid":"laposte_hexasmal","recordid":"3889d3cc0217ec3865f1330fd474952982dcc820","fields":{"nom_de_la_commune":"ST CHELY D AUBRAC","libell_d_acheminement":"ST CHELY D AUBRAC","code_postal":"12470","coordonnees_gps":[44.5918935634,2.94672559934],"code_commune_insee":"12214"},"geometry":{"type":"Point","coordinates":[2.94672559934,44.5918935634]},"record_timestamp":"2016-05-09T15:17:00+02:00"},{"datasetid":"laposte_hexasmal","recordid":"55c3fc67295c816bfbfc73c95009ed6db4829ef9","fields":{"code_postal":"12470","code_commune_insee":"12214","libell_d_acheminement":"ST CHELY D AUBRAC","ligne_5":"AUBRAC","nom_de_la_commune":"ST CHELY D AUBRAC","coordonnees_gps":[44.5918935634,2.94672559934]},"geometry":{"type":"Point","coordinates":[2.94672559934,44.5918935634]},"record_timestamp":"2016-05-09T15:17:00+02:00"},{"datasetid":"laposte_hexasmal","recordid":"17e079bdfb0e1912bb832411e292413e803de4ac","fields":{"nom_de_la_commune":"ST CHRISTOPHE VALLON","libell_d_acheminement":"ST CHRISTOPHE VALLON","code_postal":"12330","coordonnees_gps":[44.4799129535,2.39660455917],"code_commune_insee":"12215"},"geometry":{"type":"Point","coordinates":[2.39660455917,44.4799129535]},"record_timestamp":"2016-05-09T15:17:00+02:00"},{"datasetid":"laposte_hexasmal","recordid":"1b1dc2db837023a7eecd1738b51dbe7c619debc0","fields":{"nom_de_la_commune":"ST FELIX DE SORGUES","libell_d_acheminement":"ST FELIX DE SORGUES","code_postal":"12400","coordonnees_gps":[43.8825601072,2.98664718926],"code_commune_insee":"12222"},"geometry":{"type":"Point","coordinates":[2.98664718926,43.8825601072]},"record_timestamp":"2016-05-09T15:17:00+02:00"},{"datasetid":"laposte_hexasmal","recordid":"1d6e75223cbb4e3718671a25deb4b76dd2540bb8","fields":{"nom_de_la_commune":"ST JEAN D ALCAPIES","libell_d_acheminement":"ST JEAN D ALCAPIES","code_postal":"12250","coordonnees_gps":[43.9486517779,2.96702587366],"code_commune_insee":"12229"},"geometry":{"type":"Point","coordinates":[2.96702587366,43.9486517779]},"record_timestamp":"2016-05-09T15:17:00+02:00"},{"datasetid":"laposte_hexasmal","recordid":"8d9ff901eeb3aeacf0fbbc6e0ea435440af16d68","fields":{"nom_de_la_commune":"STE JULIETTE SUR VIAUR","libell_d_acheminement":"STE JULIETTE SUR VIAUR","code_postal":"12120","coordonnees_gps":[44.2186396438,2.50113925253],"code_commune_insee":"12234"},"geometry":{"type":"Point","coordinates":[2.50113925253,44.2186396438]},"record_timestamp":"2016-05-09T15:17:00+02:00"},{"datasetid":"laposte_hexasmal","recordid":"6a5fd36309bdd31e368099e26efc8a541498785d","fields":{"nom_de_la_commune":"ST SANTIN","libell_d_acheminement":"ST SANTIN","code_postal":"12300","coordonnees_gps":[44.6433670294,2.25787660358],"code_commune_insee":"12246"},"geometry":{"type":"Point","coordinates":[2.25787660358,44.6433670294]},"record_timestamp":"2016-05-09T15:17:00+02:00"},{"datasetid":"laposte_hexasmal","recordid":"3642d0d2ac588605c056894622b3d3df11e25323","fields":{"nom_de_la_commune":"SALLES COURBATIES","libell_d_acheminement":"SALLES COURBATIES","code_postal":"12260","coordonnees_gps":[44.4813598633,2.08513535949],"code_commune_insee":"12252"},"geometry":{"type":"Point","coordinates":[2.08513535949,44.4813598633]},"record_timestamp":"2016-05-09T15:17:00+02:00"},{"datasetid":"laposte_hexasmal","recordid":"8e19982636f3f141d25dc9a6a4d6f64c64d6f918","fields":{"nom_de_la_commune":"SALLES LA SOURCE","libell_d_acheminement":"SALLES LA SOURCE","code_postal":"12330","coordonnees_gps":[44.4437884405,2.5250957268],"code_commune_insee":"12254"},"geometry":{"type":"Point","coordinates":[2.5250957268,44.4437884405]},"record_timestamp":"2016-05-09T15:17:00+02:00"},{"datasetid":"laposte_hexasmal","recordid":"744dc8d18ae23d40b78289b624c74ab1de42ac64","fields":{"nom_de_la_commune":"LA SALVETAT PEYRALES","libell_d_acheminement":"LA SALVETAT PEYRALES","code_postal":"12440","coordonnees_gps":[44.2210453595,2.19673523902],"code_commune_insee":"12258"},"geometry":{"type":"Point","coordinates":[2.19673523902,44.2210453595]},"record_timestamp":"2016-05-09T15:17:00+02:00"},{"datasetid":"laposte_hexasmal","recordid":"62650793fdf223befa69593af4e1ee33438f98b6","fields":{"nom_de_la_commune":"SEBAZAC CONCOURES","libell_d_acheminement":"SEBAZAC CONCOURES","code_postal":"12740","coordonnees_gps":[44.4232783345,2.6111835082],"code_commune_insee":"12264"},"geometry":{"type":"Point","coordinates":[2.6111835082,44.4232783345]},"record_timestamp":"2016-05-09T15:17:00+02:00"},{"datasetid":"laposte_hexasmal","recordid":"5c13ff9b47d5994708647e1ff2d7ad758efa8e7c","fields":{"nom_de_la_commune":"SEBRAZAC","libell_d_acheminement":"SEBRAZAC","code_postal":"12190","coordonnees_gps":[44.537422675,2.65492320608],"code_commune_insee":"12265"},"geometry":{"type":"Point","coordinates":[2.65492320608,44.537422675]},"record_timestamp":"2016-05-09T15:17:00+02:00"},{"datasetid":"laposte_hexasmal","recordid":"e5e1bc55d6b712665cafdfae673d6d8c742a62db","fields":{"nom_de_la_commune":"SEGUR","libell_d_acheminement":"SEGUR","code_postal":"12290","coordonnees_gps":[44.2904669851,2.8437834647],"code_commune_insee":"12266"},"geometry":{"type":"Point","coordinates":[2.8437834647,44.2904669851]},"record_timestamp":"2016-05-09T15:17:00+02:00"},{"datasetid":"laposte_hexasmal","recordid":"25da38cf88b28415b5c922db9772c0b1c4bc6155","fields":{"nom_de_la_commune":"SEVERAC D AVEYRON","libell_d_acheminement":"SEVERAC D AVEYRON","code_postal":"12150","coordonnees_gps":[44.3000638764,3.08915100601],"code_commune_insee":"12270"},"geometry":{"type":"Point","coordinates":[3.08915100601,44.3000638764]},"record_timestamp":"2016-05-09T15:17:00+02:00"},{"datasetid":"laposte_hexasmal","recordid":"aa793a8d6d49c940e8b1ab7a14e8d130cd55e0f3","fields":{"code_postal":"12150","code_commune_insee":"12270","libell_d_acheminement":"SEVERAC D AVEYRON","ligne_5":"LAPANOUSE","nom_de_la_commune":"SEVERAC D AVEYRON","coordonnees_gps":[44.3000638764,3.08915100601]},"geometry":{"type":"Point","coordinates":[3.08915100601,44.3000638764]},"record_timestamp":"2016-05-09T15:17:00+02:00"},{"datasetid":"laposte_hexasmal","recordid":"aad026a452b7216e23484fa4fe8cfa6c23584edc","fields":{"code_postal":"12150","code_commune_insee":"12270","libell_d_acheminement":"SEVERAC D AVEYRON","ligne_5":"LAVERNHE","nom_de_la_commune":"SEVERAC D AVEYRON","coordonnees_gps":[44.3000638764,3.08915100601]},"geometry":{"type":"Point","coordinates":[3.08915100601,44.3000638764]},"record_timestamp":"2016-05-09T15:17:00+02:00"},{"datasetid":"laposte_hexasmal","recordid":"4a32208887a59968a7d5a8f491e1b379c7f79bfc","fields":{"nom_de_la_commune":"SOULAGES BONNEVAL","libell_d_acheminement":"SOULAGES BONNEVAL","code_postal":"12210","coordonnees_gps":[44.6772152529,2.77442908262],"code_commune_insee":"12273"},"geometry":{"type":"Point","coordinates":[2.77442908262,44.6772152529]},"record_timestamp":"2016-05-09T15:17:00+02:00"},{"datasetid":"laposte_hexasmal","recordid":"f407f40cc6d125eefec96a94bd0c163c4f65bd4b","fields":{"nom_de_la_commune":"TAUSSAC","libell_d_acheminement":"TAUSSAC","code_postal":"12600","coordonnees_gps":[44.8248753514,2.63587650055],"code_commune_insee":"12277"},"geometry":{"type":"Point","coordinates":[2.63587650055,44.8248753514]},"record_timestamp":"2016-05-09T15:17:00+02:00"},{"datasetid":"laposte_hexasmal","recordid":"39b787a4980731f27ed7d6ed295470ef81d9efc4","fields":{"nom_de_la_commune":"LE TRUEL","libell_d_acheminement":"LE TRUEL","code_postal":"12430","coordonnees_gps":[44.0536064205,2.74751943168],"code_commune_insee":"12284"},"geometry":{"type":"Point","coordinates":[2.74751943168,44.0536064205]},"record_timestamp":"2016-05-09T15:17:00+02:00"},{"datasetid":"laposte_hexasmal","recordid":"5bc5b9ca0797fec6c33d4ac0972bedae3e4d0a2c","fields":{"nom_de_la_commune":"VAILHOURLES","libell_d_acheminement":"VAILHOURLES","code_postal":"12200","coordonnees_gps":[44.3082129467,1.90937722563],"code_commune_insee":"12287"},"geometry":{"type":"Point","coordinates":[1.90937722563,44.3082129467]},"record_timestamp":"2016-05-09T15:17:00+02:00"},{"datasetid":"laposte_hexasmal","recordid":"fa37f470a88d704ae35917d72ca709845229de89","fields":{"nom_de_la_commune":"VERSOLS ET LAPEYRE","libell_d_acheminement":"VERSOLS ET LAPEYRE","code_postal":"12400","coordonnees_gps":[43.8998471678,2.93585871543],"code_commune_insee":"12292"},"geometry":{"type":"Point","coordinates":[2.93585871543,43.8998471678]},"record_timestamp":"2016-05-09T15:17:00+02:00"},{"datasetid":"laposte_hexasmal","recordid":"4dfabe970db93d59fd4338b61c6371e4ea854e0e","fields":{"nom_de_la_commune":"VEYREAU","libell_d_acheminement":"VEYREAU","code_postal":"12720","coordonnees_gps":[44.1818960497,3.30715443972],"code_commune_insee":"12293"},"geometry":{"type":"Point","coordinates":[3.30715443972,44.1818960497]},"record_timestamp":"2016-05-09T15:17:00+02:00"},{"datasetid":"laposte_hexasmal","recordid":"396dc9584c34bfaf31ed516bdd0594a47ef6b09c","fields":{"nom_de_la_commune":"SAUJAC","libell_d_acheminement":"SAUJAC","code_postal":"12260","coordonnees_gps":[44.4777699225,1.90179850313],"code_commune_insee":"12261"},"geometry":{"type":"Point","coordinates":[1.90179850313,44.4777699225]},"record_timestamp":"2016-05-09T15:17:00+02:00"},{"datasetid":"laposte_hexasmal","recordid":"5b4d52bd5d6053a7dde397f17a4cd22867f129cb","fields":{"nom_de_la_commune":"SYLVANES","libell_d_acheminement":"SYLVANES","code_postal":"12360","coordonnees_gps":[43.8251925157,2.95288652879],"code_commune_insee":"12274"},"geometry":{"type":"Point","coordinates":[2.95288652879,43.8251925157]},"record_timestamp":"2016-05-09T15:17:00+02:00"},{"datasetid":"laposte_hexasmal","recordid":"b837e96447805e386a817e3c0376ff59ed1f51aa","fields":{"nom_de_la_commune":"THERONDELS","libell_d_acheminement":"THERONDELS","code_postal":"12600","coordonnees_gps":[44.8944584471,2.7419390961],"code_commune_insee":"12280"},"geometry":{"type":"Point","coordinates":[2.7419390961,44.8944584471]},"record_timestamp":"2016-05-09T15:17:00+02:00"},{"datasetid":"laposte_hexasmal","recordid":"4d6e64fee95a233abe689c679ed9b671c40c7e9a","fields":{"nom_de_la_commune":"TOULONJAC","libell_d_acheminement":"TOULONJAC","code_postal":"12200","coordonnees_gps":[44.380429669,1.99865710824],"code_commune_insee":"12281"},"geometry":{"type":"Point","coordinates":[1.99865710824,44.380429669]},"record_timestamp":"2016-05-09T15:17:00+02:00"},{"datasetid":"laposte_hexasmal","recordid":"4d834d5320b46bea93f5bcf5365ecfb26bc343eb","fields":{"nom_de_la_commune":"TOURNEMIRE","libell_d_acheminement":"TOURNEMIRE","code_postal":"12250","coordonnees_gps":[43.9686808628,3.02681795473],"code_commune_insee":"12282"},"geometry":{"type":"Point","coordinates":[3.02681795473,43.9686808628]},"record_timestamp":"2016-05-09T15:17:00+02:00"},{"datasetid":"laposte_hexasmal","recordid":"7005235f2a14f6bcad6d033154987bc70645df88","fields":{"nom_de_la_commune":"TREMOUILLES","libell_d_acheminement":"TREMOUILLES","code_postal":"12290","coordonnees_gps":[44.2395334463,2.63787503677],"code_commune_insee":"12283"},"geometry":{"type":"Point","coordinates":[2.63787503677,44.2395334463]},"record_timestamp":"2016-05-09T15:17:00+02:00"},{"datasetid":"laposte_hexasmal","recordid":"fa4ace2bbbfd1af4cf6b01a7fcb4f5b69ff4bb4a","fields":{"code_postal":"12330","code_commune_insee":"12288","libell_d_acheminement":"VALADY","ligne_5":"NUCES","nom_de_la_commune":"VALADY","coordonnees_gps":[44.4471578876,2.44255701566]},"geometry":{"type":"Point","coordinates":[2.44255701566,44.4471578876]},"record_timestamp":"2016-05-09T15:17:00+02:00"},{"datasetid":"laposte_hexasmal","recordid":"3e13f9d56b60a20d2f0e9ef2612f023e0058f0fe","fields":{"nom_de_la_commune":"VILLENEUVE","libell_d_acheminement":"VILLENEUVE","code_postal":"12260","coordonnees_gps":[44.4470516334,2.0285315392],"code_commune_insee":"12301"},"geometry":{"type":"Point","coordinates":[2.0285315392,44.4470516334]},"record_timestamp":"2016-05-09T15:17:00+02:00"},{"datasetid":"laposte_hexasmal","recordid":"d5f49e463833950da563f6ef59866ee6856055af","fields":{"nom_de_la_commune":"VIMENET","libell_d_acheminement":"VIMENET","code_postal":"12310","coordonnees_gps":[44.4000547322,2.92952468147],"code_commune_insee":"12303"},"geometry":{"type":"Point","coordinates":[2.92952468147,44.4000547322]},"record_timestamp":"2016-05-09T15:17:00+02:00"},{"datasetid":"laposte_hexasmal","recordid":"e0ac744c830668603d76feedb95629b51c6ef68b","fields":{"nom_de_la_commune":"VIVIEZ","libell_d_acheminement":"VIVIEZ","code_postal":"12110","coordonnees_gps":[44.5563780482,2.22049316685],"code_commune_insee":"12305"},"geometry":{"type":"Point","coordinates":[2.22049316685,44.5563780482]},"record_timestamp":"2016-05-09T15:17:00+02:00"},{"datasetid":"laposte_hexasmal","recordid":"cf6bc0df98e58502c74cb78b4d4a083aecace196","fields":{"nom_de_la_commune":"VILLEFRANCHE DE PANAT","libell_d_acheminement":"VILLEFRANCHE DE PANAT","code_postal":"12430","coordonnees_gps":[44.0971941681,2.71527258024],"code_commune_insee":"12299"},"geometry":{"type":"Point","coordinates":[2.71527258024,44.0971941681]},"record_timestamp":"2016-05-09T15:17:00+02:00"},{"datasetid":"laposte_hexasmal","recordid":"25735857fbd921c26a3386d194453f8a79e55888","fields":{"nom_de_la_commune":"AGUESSAC","libell_d_acheminement":"AGUESSAC","code_postal":"12520","coordonnees_gps":[44.1613901609,3.06898957805],"code_commune_insee":"12002"},"geometry":{"type":"Point","coordinates":[3.06898957805,44.1613901609]},"record_timestamp":"2016-05-09T15:17:00+02:00"},{"datasetid":"laposte_hexasmal","recordid":"2bcbdb56c89dd48287763b2d6cd9361ec58a5608","fields":{"nom_de_la_commune":"ARVIEU","libell_d_acheminement":"ARVIEU","code_postal":"12120","coordonnees_gps":[44.1907834578,2.66728393102],"code_commune_insee":"12011"},"geometry":{"type":"Point","coordinates":[2.66728393102,44.1907834578]},"record_timestamp":"2016-05-09T15:17:00+02:00"},{"datasetid":"laposte_hexasmal","recordid":"4f69d9ccd1bc4ffcd3aa3ba68437eacfa9890835","fields":{"code_postal":"12200","code_commune_insee":"12021","libell_d_acheminement":"LE BAS SEGALA","ligne_5":"ST SALVADOU","nom_de_la_commune":"LE BAS SEGALA","coordonnees_gps":[44.3386235465,2.14341113213]},"geometry":{"type":"Point","coordinates":[2.14341113213,44.3386235465]},"record_timestamp":"2016-05-09T15:17:00+02:00"},{"datasetid":"laposte_hexasmal","recordid":"3cce0e30113dcc21b486fdeb2ddaa9faf97a64bf","fields":{"nom_de_la_commune":"BELMONT SUR RANCE","libell_d_acheminement":"BELMONT SUR RANCE","code_postal":"12370","coordonnees_gps":[43.8248066613,2.75112588712],"code_commune_insee":"12025"},"geometry":{"type":"Point","coordinates":[2.75112588712,43.8248066613]},"record_timestamp":"2016-05-09T15:17:00+02:00"},{"datasetid":"laposte_hexasmal","recordid":"8ad2f6b2214ca2c1cbc5f7f2cff56e24ff231acb","fields":{"nom_de_la_commune":"BOR ET BAR","libell_d_acheminement":"BOR ET BAR","code_postal":"12270","coordonnees_gps":[44.2000941717,2.08598279329],"code_commune_insee":"12029"},"geometry":{"type":"Point","coordinates":[2.08598279329,44.2000941717]},"record_timestamp":"2016-05-09T15:17:00+02:00"},{"datasetid":"laposte_hexasmal","recordid":"4edc23f99353e46f94ab65151da268ab32bbe77e","fields":{"nom_de_la_commune":"BOUILLAC","libell_d_acheminement":"BOUILLAC","code_postal":"12300","coordonnees_gps":[44.5734390459,2.17431868785],"code_commune_insee":"12030"},"geometry":{"type":"Point","coordinates":[2.17431868785,44.5734390459]},"record_timestamp":"2016-05-09T15:17:00+02:00"},{"datasetid":"laposte_hexasmal","recordid":"557b98a3e3aefb4893f309a04d57cadad54acc93","fields":{"nom_de_la_commune":"BROMMAT","libell_d_acheminement":"BROMMAT","code_postal":"12600","coordonnees_gps":[44.8284548691,2.70476777705],"code_commune_insee":"12036"},"geometry":{"type":"Point","coordinates":[2.70476777705,44.8284548691]},"record_timestamp":"2016-05-09T15:17:00+02:00"},{"datasetid":"laposte_hexasmal","recordid":"a455571c2b959c344dfd50a98d088f1a6ba6959e","fields":{"code_postal":"12450","code_commune_insee":"12043","libell_d_acheminement":"CALMONT","ligne_5":"CEIGNAC","nom_de_la_commune":"CALMONT","coordonnees_gps":[44.2590321912,2.52423447426]},"geometry":{"type":"Point","coordinates":[2.52423447426,44.2590321912]},"record_timestamp":"2016-05-09T15:17:00+02:00"},{"datasetid":"laposte_hexasmal","recordid":"d238227e524d4cece1b1f3e99ea9291f8713318a","fields":{"nom_de_la_commune":"CAMJAC","libell_d_acheminement":"CAMJAC","code_postal":"12800","coordonnees_gps":[44.1792869286,2.39518735368],"code_commune_insee":"12046"},"geometry":{"type":"Point","coordinates":[2.39518735368,44.1792869286]},"record_timestamp":"2016-05-09T15:17:00+02:00"},{"datasetid":"laposte_hexasmal","recordid":"02b67a19bf1b5359c39f35dabed93e01020b0db4","fields":{"code_postal":"12140","code_commune_insee":"12048","libell_d_acheminement":"CAMPOURIEZ","ligne_5":"BANHARS","nom_de_la_commune":"CAMPOURIEZ","coordonnees_gps":[44.6808744001,2.60936956955]},"geometry":{"type":"Point","coordinates":[2.60936956955,44.6808744001]},"record_timestamp":"2016-05-09T15:17:00+02:00"},{"datasetid":"laposte_hexasmal","recordid":"42a876e08e2ec1c09ceba27d2293efefc2fdb708","fields":{"nom_de_la_commune":"CANTOIN","libell_d_acheminement":"CANTOIN","code_postal":"12420","coordonnees_gps":[44.8387938503,2.82485729528],"code_commune_insee":"12051"},"geometry":{"type":"Point","coordinates":[2.82485729528,44.8387938503]},"record_timestamp":"2016-05-09T15:17:00+02:00"},{"datasetid":"laposte_hexasmal","recordid":"5edc5a9521b576de4095d1359a79c148bf6a63b7","fields":{"nom_de_la_commune":"LA CAPELLE BLEYS","libell_d_acheminement":"LA CAPELLE BLEYS","code_postal":"12240","coordonnees_gps":[44.3037455115,2.17927140431],"code_commune_insee":"12054"},"geometry":{"type":"Point","coordinates":[2.17927140431,44.3037455115]},"record_timestamp":"2016-05-09T15:17:00+02:00"},{"datasetid":"laposte_hexasmal","recordid":"0e1a5845d93a15911eef6047440a29c2f23ea30a","fields":{"nom_de_la_commune":"BARAQUEVILLE","libell_d_acheminement":"BARAQUEVILLE","code_postal":"12160","coordonnees_gps":[44.2810938954,2.44964862339],"code_commune_insee":"12056"},"geometry":{"type":"Point","coordinates":[2.44964862339,44.2810938954]},"record_timestamp":"2016-05-09T15:17:00+02:00"},{"datasetid":"laposte_hexasmal","recordid":"ea49f02ecf47124c45108f052bc9750b67b76819","fields":{"nom_de_la_commune":"COUBISOU","libell_d_acheminement":"COUBISOU","code_postal":"12190","coordonnees_gps":[44.5755974174,2.73237270649],"code_commune_insee":"12079"},"geometry":{"type":"Point","coordinates":[2.73237270649,44.5755974174]},"record_timestamp":"2016-05-09T15:17:00+02:00"},{"datasetid":"laposte_hexasmal","recordid":"52f391021ed6bf95663a07ad3fc191be0289a45a","fields":{"nom_de_la_commune":"COUPIAC","libell_d_acheminement":"COUPIAC","code_postal":"12550","coordonnees_gps":[43.947128591,2.59314085517],"code_commune_insee":"12080"},"geometry":{"type":"Point","coordinates":[2.59314085517,43.947128591]},"record_timestamp":"2016-05-09T15:17:00+02:00"},{"datasetid":"laposte_hexasmal","recordid":"5fa45aed697e9b909e863b1deb8865fff3846868","fields":{"nom_de_la_commune":"DECAZEVILLE","libell_d_acheminement":"DECAZEVILLE","code_postal":"12300","coordonnees_gps":[44.567273002,2.25243853064],"code_commune_insee":"12089"},"geometry":{"type":"Point","coordinates":[2.25243853064,44.567273002]},"record_timestamp":"2016-05-09T15:17:00+02:00"},{"datasetid":"laposte_hexasmal","recordid":"738c45ee20020baa29502f667d521cea158b98fa","fields":{"nom_de_la_commune":"LACROIX BARREZ","libell_d_acheminement":"LACROIX BARREZ","code_postal":"12600","coordonnees_gps":[44.7740969163,2.64249748711],"code_commune_insee":"12118"},"geometry":{"type":"Point","coordinates":[2.64249748711,44.7740969163]},"record_timestamp":"2016-05-09T15:17:00+02:00"},{"datasetid":"laposte_hexasmal","recordid":"1734b5587134b79c8cdf06305e3e76c79565939a","fields":{"nom_de_la_commune":"LAGUIOLE","libell_d_acheminement":"LAGUIOLE","code_postal":"12210","coordonnees_gps":[44.6942493054,2.86714579983],"code_commune_insee":"12119"},"geometry":{"type":"Point","coordinates":[2.86714579983,44.6942493054]},"record_timestamp":"2016-05-09T15:17:00+02:00"},{"datasetid":"laposte_hexasmal","recordid":"acc92942c5b4e68347262aa146d3e04c6c6ca33d","fields":{"nom_de_la_commune":"LEDERGUES","libell_d_acheminement":"LEDERGUES","code_postal":"12170","coordonnees_gps":[44.0802539644,2.4399944588],"code_commune_insee":"12127"},"geometry":{"type":"Point","coordinates":[2.4399944588,44.0802539644]},"record_timestamp":"2016-05-09T15:17:00+02:00"},{"datasetid":"laposte_hexasmal","recordid":"3acc0c4335f61a2f85c578ee1ca7c50fcbfee316","fields":{"nom_de_la_commune":"MALEVILLE","libell_d_acheminement":"MALEVILLE","code_postal":"12350","coordonnees_gps":[44.3999943584,2.10361790019],"code_commune_insee":"12136"},"geometry":{"type":"Point","coordinates":[2.10361790019,44.3999943584]},"record_timestamp":"2016-05-09T15:17:00+02:00"},