[{"datasetid":"laposte_hexasmal","recordid":"ea65de61fc040527f7b6f250953a4c7ceb75477b","fields":{"nom_de_la_commune":"GRANDCHAMP LE CHATEAU","libell_d_acheminement":"GRANDCHAMP LE CHATEAU","code_postal":"14140","coordonnees_gps":[49.0843788037,0.075363026467],"code_commune_insee":"14313"},"geometry":{"type":"Point","coordinates":[0.075363026467,49.0843788037]},"record_timestamp":"2016-05-09T15:17:00+02:00"},{"datasetid":"laposte_hexasmal","recordid":"9bc7e44e5de4a2c0029a209665ac04e63e258d1f","fields":{"nom_de_la_commune":"GRENTHEVILLE","libell_d_acheminement":"GRENTHEVILLE","code_postal":"14540","coordonnees_gps":[49.1460180153,-0.293578977625],"code_commune_insee":"14319"},"geometry":{"type":"Point","coordinates":[-0.293578977625,49.1460180153]},"record_timestamp":"2016-05-09T15:17:00+02:00"},{"datasetid":"laposte_hexasmal","recordid":"fbdff53f0c52b5ad7333bdfdc975432d28b1f1fd","fields":{"nom_de_la_commune":"GRIMBOSQ","libell_d_acheminement":"GRIMBOSQ","code_postal":"14220","coordonnees_gps":[49.0446792733,-0.443624384517],"code_commune_insee":"14320"},"geometry":{"type":"Point","coordinates":[-0.443624384517,49.0446792733]},"record_timestamp":"2016-05-09T15:17:00+02:00"},{"datasetid":"laposte_hexasmal","recordid":"2cd2cffc110128e288a1734121ddfaeb94a75709","fields":{"nom_de_la_commune":"HEULAND","libell_d_acheminement":"HEULAND","code_postal":"14430","coordonnees_gps":[49.2648018759,-0.00106358427932],"code_commune_insee":"14329"},"geometry":{"type":"Point","coordinates":[-0.00106358427932,49.2648018759]},"record_timestamp":"2016-05-09T15:17:00+02:00"},{"datasetid":"laposte_hexasmal","recordid":"1f30eb89c93712a2801795a5ed2df2d4d8efdd0c","fields":{"nom_de_la_commune":"HOULGATE","libell_d_acheminement":"HOULGATE","code_postal":"14510","coordonnees_gps":[49.2974071263,-0.0677562139709],"code_commune_insee":"14338"},"geometry":{"type":"Point","coordinates":[-0.0677562139709,49.2974071263]},"record_timestamp":"2016-05-09T15:17:00+02:00"},{"datasetid":"laposte_hexasmal","recordid":"af91acc85ea177fea1f99af54b08565049ec2fcd","fields":{"nom_de_la_commune":"LES ISLES BARDEL","libell_d_acheminement":"LES ISLES BARDEL","code_postal":"14690","coordonnees_gps":[48.837428826,-0.349054919014],"code_commune_insee":"14343"},"geometry":{"type":"Point","coordinates":[-0.349054919014,48.837428826]},"record_timestamp":"2016-05-09T15:17:00+02:00"},{"datasetid":"laposte_hexasmal","recordid":"3dab096ea5e3a1d1bafcabcc705e6599d028e363","fields":{"nom_de_la_commune":"JANVILLE","libell_d_acheminement":"JANVILLE","code_postal":"14670","coordonnees_gps":[49.1637989299,-0.16374713319],"code_commune_insee":"14344"},"geometry":{"type":"Point","coordinates":[-0.16374713319,49.1637989299]},"record_timestamp":"2016-05-09T15:17:00+02:00"},{"datasetid":"laposte_hexasmal","recordid":"e90cb1f240331d833309fb6b405bd59d29d99002","fields":{"nom_de_la_commune":"LA LANDE SUR DROME","libell_d_acheminement":"LA LANDE SUR DROME","code_postal":"14240","coordonnees_gps":[49.0732578587,-0.860019640388],"code_commune_insee":"14350"},"geometry":{"type":"Point","coordinates":[-0.860019640388,49.0732578587]},"record_timestamp":"2016-05-09T15:17:00+02:00"},{"datasetid":"laposte_hexasmal","recordid":"eec0bf5fa6c82f77f77d711acab70c4cdf39bb1c","fields":{"nom_de_la_commune":"LANDELLES ET COUPIGNY","libell_d_acheminement":"LANDELLES ET COUPIGNY","code_postal":"14380","coordonnees_gps":[48.8983991959,-1.00295458631],"code_commune_insee":"14352"},"geometry":{"type":"Point","coordinates":[-1.00295458631,48.8983991959]},"record_timestamp":"2016-05-09T15:17:00+02:00"},{"datasetid":"laposte_hexasmal","recordid":"e3c7dc07c4763435e06dbd819d0dc76b151415b3","fields":{"code_postal":"14380","code_commune_insee":"14352","libell_d_acheminement":"LANDELLES ET COUPIGNY","ligne_5":"ANNEBECQ","nom_de_la_commune":"LANDELLES ET COUPIGNY","coordonnees_gps":[48.8983991959,-1.00295458631]},"geometry":{"type":"Point","coordinates":[-1.00295458631,48.8983991959]},"record_timestamp":"2016-05-09T15:17:00+02:00"},{"datasetid":"laposte_hexasmal","recordid":"0dbe64348a2afa4d12aaa3c56639b4ff08e053b1","fields":{"nom_de_la_commune":"LION SUR MER","libell_d_acheminement":"LION SUR MER","code_postal":"14780","coordonnees_gps":[49.3007695684,-0.333954811691],"code_commune_insee":"14365"},"geometry":{"type":"Point","coordinates":[-0.333954811691,49.3007695684]},"record_timestamp":"2016-05-09T15:17:00+02:00"},{"datasetid":"laposte_hexasmal","recordid":"28c5a6da784acfb75bea48fc81de4a8c9f9292c4","fields":{"nom_de_la_commune":"LISIEUX","libell_d_acheminement":"LISIEUX","code_postal":"14100","coordonnees_gps":[49.1466628463,0.238274840452],"code_commune_insee":"14366"},"geometry":{"type":"Point","coordinates":[0.238274840452,49.1466628463]},"record_timestamp":"2016-05-09T15:17:00+02:00"},{"datasetid":"laposte_hexasmal","recordid":"892c0ad439a3f946640b79f2b04a29969bee16cd","fields":{"nom_de_la_commune":"LITTEAU","libell_d_acheminement":"LITTEAU","code_postal":"14490","coordonnees_gps":[49.1530752731,-0.909894193512],"code_commune_insee":"14369"},"geometry":{"type":"Point","coordinates":[-0.909894193512,49.1530752731]},"record_timestamp":"2016-05-09T15:17:00+02:00"},{"datasetid":"laposte_hexasmal","recordid":"6f494c4adf68593edf1708364cb8acd85fe35d91","fields":{"code_postal":"14140","code_commune_insee":"14371","libell_d_acheminement":"LIVAROT PAYS D AUGE","ligne_5":"LE MESNIL BACLEY","nom_de_la_commune":"LIVAROT PAYS D AUGE","coordonnees_gps":[49.005159699,0.165980940625]},"geometry":{"type":"Point","coordinates":[0.165980940625,49.005159699]},"record_timestamp":"2016-05-09T15:17:00+02:00"},{"datasetid":"laposte_hexasmal","recordid":"6b385367a51d76a9c3239330e9908d1cbff439c1","fields":{"code_postal":"14140","code_commune_insee":"14371","libell_d_acheminement":"LIVAROT PAYS D AUGE","ligne_5":"LE MESNIL DURAND","nom_de_la_commune":"LIVAROT PAYS D AUGE","coordonnees_gps":[49.005159699,0.165980940625]},"geometry":{"type":"Point","coordinates":[0.165980940625,49.005159699]},"record_timestamp":"2016-05-09T15:17:00+02:00"},{"datasetid":"laposte_hexasmal","recordid":"8971e629d5649ebd44769946739c8c1a5679b36e","fields":{"nom_de_la_commune":"LE LOCHEUR","libell_d_acheminement":"LE LOCHEUR","code_postal":"14210","coordonnees_gps":[49.1052367253,-0.556085514135],"code_commune_insee":"14373"},"geometry":{"type":"Point","coordinates":[-0.556085514135,49.1052367253]},"record_timestamp":"2016-05-09T15:17:00+02:00"},{"datasetid":"laposte_hexasmal","recordid":"766cb6c7af32ed0dd5d31495b992d978f7cab2d5","fields":{"nom_de_la_commune":"MAGNY EN BESSIN","libell_d_acheminement":"MAGNY EN BESSIN","code_postal":"14400","coordonnees_gps":[49.311643762,-0.666479750788],"code_commune_insee":"14385"},"geometry":{"type":"Point","coordinates":[-0.666479750788,49.311643762]},"record_timestamp":"2016-05-09T15:17:00+02:00"},{"datasetid":"laposte_hexasmal","recordid":"cae8dc26fcb27d46620503dece5ef189535962b7","fields":{"nom_de_la_commune":"MANNEVILLE LA PIPARD","libell_d_acheminement":"MANNEVILLE LA PIPARD","code_postal":"14130","coordonnees_gps":[49.2652939412,0.228360552544],"code_commune_insee":"14399"},"geometry":{"type":"Point","coordinates":[0.228360552544,49.2652939412]},"record_timestamp":"2016-05-09T15:17:00+02:00"},{"datasetid":"laposte_hexasmal","recordid":"115e99a38363f59af6820214c8389ddf3f571276","fields":{"nom_de_la_commune":"MAY SUR ORNE","libell_d_acheminement":"MAY SUR ORNE","code_postal":"14320","coordonnees_gps":[49.0966958599,-0.379270597736],"code_commune_insee":"14408"},"geometry":{"type":"Point","coordinates":[-0.379270597736,49.0966958599]},"record_timestamp":"2016-05-09T15:17:00+02:00"},{"datasetid":"laposte_hexasmal","recordid":"43d157163cec1e39542ce960ad5bea8e0e7ac3a6","fields":{"nom_de_la_commune":"MERY CORBON","libell_d_acheminement":"MERY CORBON","code_postal":"14370","coordonnees_gps":[49.1315507489,-0.0746479739995],"code_commune_insee":"14410"},"geometry":{"type":"Point","coordinates":[-0.0746479739995,49.1315507489]},"record_timestamp":"2016-05-09T15:17:00+02:00"},{"datasetid":"laposte_hexasmal","recordid":"bb6bb9bb309c5cc27b349a6ab24b06709574ffdd","fields":{"nom_de_la_commune":"LE MESNIL AU GRAIN","libell_d_acheminement":"LE MESNIL AU GRAIN","code_postal":"14260","coordonnees_gps":[49.0467992669,-0.606121307613],"code_commune_insee":"14412"},"geometry":{"type":"Point","coordinates":[-0.606121307613,49.0467992669]},"record_timestamp":"2016-05-09T15:17:00+02:00"},{"datasetid":"laposte_hexasmal","recordid":"0b00f6731ea3c4d2dd35d8ac5c0b3b2a956e2fed","fields":{"nom_de_la_commune":"LE MESNIL CAUSSOIS","libell_d_acheminement":"LE MESNIL CAUSSOIS","code_postal":"14380","coordonnees_gps":[48.855084438,-1.01089419215],"code_commune_insee":"14416"},"geometry":{"type":"Point","coordinates":[-1.01089419215,48.855084438]},"record_timestamp":"2016-05-09T15:17:00+02:00"},{"datasetid":"laposte_hexasmal","recordid":"773700b2c7fe02a4a91be94bd9d6cf252142d85b","fields":{"nom_de_la_commune":"LE MESNIL EUDES","libell_d_acheminement":"LE MESNIL EUDES","code_postal":"14100","coordonnees_gps":[49.0931243426,0.174720146197],"code_commune_insee":"14419"},"geometry":{"type":"Point","coordinates":[0.174720146197,49.0931243426]},"record_timestamp":"2016-05-09T15:17:00+02:00"},{"datasetid":"laposte_hexasmal","recordid":"8cb859ff257703c57200ee6ec9268ff8913c6ab0","fields":{"nom_de_la_commune":"LE MESNIL GUILLAUME","libell_d_acheminement":"LE MESNIL GUILLAUME","code_postal":"14100","coordonnees_gps":[49.1048879579,0.282566648467],"code_commune_insee":"14421"},"geometry":{"type":"Point","coordinates":[0.282566648467,49.1048879579]},"record_timestamp":"2016-05-09T15:17:00+02:00"},{"datasetid":"laposte_hexasmal","recordid":"8e1e5c75003815a5119b37b43c0fee312fadccf7","fields":{"nom_de_la_commune":"LE MESNIL PATRY","libell_d_acheminement":"LE MESNIL PATRY","code_postal":"14740","coordonnees_gps":[49.1924874522,-0.543334121014],"code_commune_insee":"14423"},"geometry":{"type":"Point","coordinates":[-0.543334121014,49.1924874522]},"record_timestamp":"2016-05-09T15:17:00+02:00"},{"datasetid":"laposte_hexasmal","recordid":"c15afbf2ceaea48953e6b309c0bc50ce26427af1","fields":{"nom_de_la_commune":"MONTFIQUET","libell_d_acheminement":"MONTFIQUET","code_postal":"14490","coordonnees_gps":[49.1850644814,-0.888869892598],"code_commune_insee":"14445"},"geometry":{"type":"Point","coordinates":[-0.888869892598,49.1850644814]},"record_timestamp":"2016-05-09T15:17:00+02:00"},{"datasetid":"laposte_hexasmal","recordid":"119e97dfaad3d307a275bbffd055098e87d02a2b","fields":{"nom_de_la_commune":"MOULT","libell_d_acheminement":"MOULT","code_postal":"14370","coordonnees_gps":[49.1127187184,-0.165293838791],"code_commune_insee":"14456"},"geometry":{"type":"Point","coordinates":[-0.165293838791,49.1127187184]},"record_timestamp":"2016-05-09T15:17:00+02:00"},{"datasetid":"laposte_hexasmal","recordid":"2346ae82b6d736e3eb9fb401eb8ed2830f811d43","fields":{"nom_de_la_commune":"NOTRE DAME DE LIVAYE","libell_d_acheminement":"NOTRE DAME DE LIVAYE","code_postal":"14340","coordonnees_gps":[49.1178873364,0.0412832698412],"code_commune_insee":"14473"},"geometry":{"type":"Point","coordinates":[0.0412832698412,49.1178873364]},"record_timestamp":"2016-05-09T15:17:00+02:00"},{"datasetid":"laposte_hexasmal","recordid":"5b7047f93eb9515398f9a7d9884c467eb0eb12bb","fields":{"code_postal":"14210","code_commune_insee":"14475","libell_d_acheminement":"NOYERS MISSY","ligne_5":"MISSY","nom_de_la_commune":"NOYERS MISSY","coordonnees_gps":[49.1241683725,-0.575352839603]},"geometry":{"type":"Point","coordinates":[-0.575352839603,49.1241683725]},"record_timestamp":"2016-05-09T15:17:00+02:00"},{"datasetid":"laposte_hexasmal","recordid":"5df6de86199f07f0bbdc6b22834eb9b5adbdec89","fields":{"nom_de_la_commune":"OLENDON","libell_d_acheminement":"OLENDON","code_postal":"14170","coordonnees_gps":[48.9685764486,-0.173141593521],"code_commune_insee":"14476"},"geometry":{"type":"Point","coordinates":[-0.173141593521,48.9685764486]},"record_timestamp":"2016-05-09T15:17:00+02:00"},{"datasetid":"laposte_hexasmal","recordid":"fd7ddbd30de7b7d6e7e582d4c86c2b375a1d19e6","fields":{"nom_de_la_commune":"OSMANVILLE","libell_d_acheminement":"OSMANVILLE","code_postal":"14230","coordonnees_gps":[49.3339813037,-1.08866221246],"code_commune_insee":"14480"},"geometry":{"type":"Point","coordinates":[-1.08866221246,49.3339813037]},"record_timestamp":"2016-05-09T15:17:00+02:00"},{"datasetid":"laposte_hexasmal","recordid":"9a96a61867b455d45861cbff49ab5e6b54e0b250","fields":{"nom_de_la_commune":"LES OUBEAUX","libell_d_acheminement":"LES OUBEAUX","code_postal":"14230","coordonnees_gps":[49.2846754884,-1.05251610264],"code_commune_insee":"14481"},"geometry":{"type":"Point","coordinates":[-1.05251610264,49.2846754884]},"record_timestamp":"2016-05-09T15:17:00+02:00"},{"datasetid":"laposte_hexasmal","recordid":"7dc69624736410da5d75ba1a927e7334e828f900","fields":{"nom_de_la_commune":"PARFOURU SUR ODON","libell_d_acheminement":"PARFOURU SUR ODON","code_postal":"14310","coordonnees_gps":[49.0889824331,-0.608826965285],"code_commune_insee":"14491"},"geometry":{"type":"Point","coordinates":[-0.608826965285,49.0889824331]},"record_timestamp":"2016-05-09T15:17:00+02:00"},{"datasetid":"laposte_hexasmal","recordid":"344ba33f6639b724a9a62c7ba48a8a63c04cf193","fields":{"nom_de_la_commune":"PIERREFITTE EN AUGE","libell_d_acheminement":"PIERREFITTE EN AUGE","code_postal":"14130","coordonnees_gps":[49.254911944,0.200274296558],"code_commune_insee":"14500"},"geometry":{"type":"Point","coordinates":[0.200274296558,49.254911944]},"record_timestamp":"2016-05-09T15:17:00+02:00"},{"datasetid":"laposte_hexasmal","recordid":"74e456be4a0488e3a08438a7eea0f71855f273e9","fields":{"nom_de_la_commune":"PLANQUERY","libell_d_acheminement":"PLANQUERY","code_postal":"14490","coordonnees_gps":[49.1624080403,-0.826461213535],"code_commune_insee":"14506"},"geometry":{"type":"Point","coordinates":[-0.826461213535,49.1624080403]},"record_timestamp":"2016-05-09T15:17:00+02:00"},{"datasetid":"laposte_hexasmal","recordid":"44ad0a4ffc0bcbeeb3246c1d253cfa790edf0ce8","fields":{"nom_de_la_commune":"LA POMMERAYE","libell_d_acheminement":"LA POMMERAYE","code_postal":"14690","coordonnees_gps":[48.9094040854,-0.41548285835],"code_commune_insee":"14510"},"geometry":{"type":"Point","coordinates":[-0.41548285835,48.9094040854]},"record_timestamp":"2016-05-09T15:17:00+02:00"},{"datasetid":"laposte_hexasmal","recordid":"db731ca1d7797f8bef7ba6c3518c23e98992f9c8","fields":{"nom_de_la_commune":"PONT FARCY","libell_d_acheminement":"PONT FARCY","code_postal":"14380","coordonnees_gps":[48.9436924113,-1.03671909686],"code_commune_insee":"14513"},"geometry":{"type":"Point","coordinates":[-1.03671909686,48.9436924113]},"record_timestamp":"2016-05-09T15:17:00+02:00"},{"datasetid":"laposte_hexasmal","recordid":"89914afc25b9db595cd25982f8451671d80999be","fields":{"nom_de_la_commune":"PORT EN BESSIN HUPPAIN","libell_d_acheminement":"PORT EN BESSIN HUPPAIN","code_postal":"14520","coordonnees_gps":[49.3396014282,-0.772708434394],"code_commune_insee":"14515"},"geometry":{"type":"Point","coordinates":[-0.772708434394,49.3396014282]},"record_timestamp":"2016-05-09T15:17:00+02:00"},{"datasetid":"laposte_hexasmal","recordid":"6c9e7cc850cac46875772ae25e243226d4ad20e9","fields":{"nom_de_la_commune":"QUETTEVILLE","libell_d_acheminement":"QUETTEVILLE","code_postal":"14130","coordonnees_gps":[49.3419911166,0.300133346216],"code_commune_insee":"14528"},"geometry":{"type":"Point","coordinates":[0.300133346216,49.3419911166]},"record_timestamp":"2016-05-09T15:17:00+02:00"},{"datasetid":"laposte_hexasmal","recordid":"8bb6320c8f3bab37b4f8a1f6c6f66bfbb4257184","fields":{"nom_de_la_commune":"RAPILLY","libell_d_acheminement":"RAPILLY","code_postal":"14690","coordonnees_gps":[48.8569781675,-0.343804758393],"code_commune_insee":"14531"},"geometry":{"type":"Point","coordinates":[-0.343804758393,48.8569781675]},"record_timestamp":"2016-05-09T15:17:00+02:00"},{"datasetid":"laposte_hexasmal","recordid":"75aac15d6b6ee7e76e7f5bf428b8e89b9eb85413","fields":{"nom_de_la_commune":"REPENTIGNY","libell_d_acheminement":"REPENTIGNY","code_postal":"14340","coordonnees_gps":[49.1990064413,0.0426897498545],"code_commune_insee":"14533"},"geometry":{"type":"Point","coordinates":[0.0426897498545,49.1990064413]},"record_timestamp":"2016-05-09T15:17:00+02:00"},{"datasetid":"laposte_hexasmal","recordid":"eb399e0d16f23d5b8327169eab09e447f5f575b2","fields":{"nom_de_la_commune":"REVIERS","libell_d_acheminement":"REVIERS","code_postal":"14470","coordonnees_gps":[49.2984627336,-0.465691637716],"code_commune_insee":"14535"},"geometry":{"type":"Point","coordinates":[-0.465691637716,49.2984627336]},"record_timestamp":"2016-05-09T15:17:00+02:00"},{"datasetid":"laposte_hexasmal","recordid":"9fd7a15dfe365e8c65b4d9ca10536f902cbba9eb","fields":{"nom_de_la_commune":"ROCQUES","libell_d_acheminement":"ROCQUES","code_postal":"14100","coordonnees_gps":[49.1686946525,0.249417574053],"code_commune_insee":"14540"},"geometry":{"type":"Point","coordinates":[0.249417574053,49.1686946525]},"record_timestamp":"2016-05-09T15:17:00+02:00"},{"datasetid":"laposte_hexasmal","recordid":"1fb3d3085bc254acd7700cb81b6ee7bc67e6ec88","fields":{"nom_de_la_commune":"ROSEL","libell_d_acheminement":"ROSEL","code_postal":"14740","coordonnees_gps":[49.2216532191,-0.450027445398],"code_commune_insee":"14542"},"geometry":{"type":"Point","coordinates":[-0.450027445398,49.2216532191]},"record_timestamp":"2016-05-09T15:17:00+02:00"},{"datasetid":"laposte_hexasmal","recordid":"751402dca7d203918c9600f2c19236c4907e6b03","fields":{"code_postal":"14740","code_commune_insee":"14543","libell_d_acheminement":"ROTS","ligne_5":"SECQUEVILLE EN BESSIN","nom_de_la_commune":"ROTS","coordonnees_gps":[49.2060587409,-0.474725507611]},"geometry":{"type":"Point","coordinates":[-0.474725507611,49.2060587409]},"record_timestamp":"2016-05-09T15:17:00+02:00"},{"datasetid":"laposte_hexasmal","recordid":"3ca75d86d0630b0c0cf60ccddeeee98c7846efc0","fields":{"nom_de_la_commune":"ROTS","libell_d_acheminement":"ROTS","code_postal":"14980","coordonnees_gps":[49.2060587409,-0.474725507611],"code_commune_insee":"14543"},"geometry":{"type":"Point","coordinates":[-0.474725507611,49.2060587409]},"record_timestamp":"2016-05-09T15:17:00+02:00"},{"datasetid":"laposte_hexasmal","recordid":"ed81fc3c0d954c4f04be20a9832cc69f12ac83b8","fields":{"nom_de_la_commune":"ST CONTEST","libell_d_acheminement":"ST CONTEST","code_postal":"14280","coordonnees_gps":[49.2154597119,-0.400916151699],"code_commune_insee":"14566"},"geometry":{"type":"Point","coordinates":[-0.400916151699,49.2154597119]},"record_timestamp":"2016-05-09T15:17:00+02:00"},{"datasetid":"laposte_hexasmal","recordid":"df9888e2bb53d24a1ecb88f6d7945bd7e55054e2","fields":{"nom_de_la_commune":"STE CROIX GRAND TONNE","libell_d_acheminement":"STE CROIX GRAND TONNE","code_postal":"14740","coordonnees_gps":[49.2337047582,-0.556033226741],"code_commune_insee":"14568"},"geometry":{"type":"Point","coordinates":[-0.556033226741,49.2337047582]},"record_timestamp":"2016-05-09T15:17:00+02:00"},{"datasetid":"laposte_hexasmal","recordid":"5ab66ae3c050d6a0b86ed15366ac1d7bccaa1a7d","fields":{"nom_de_la_commune":"ST DENIS DE MERE","libell_d_acheminement":"ST DENIS DE MERE","code_postal":"14110","coordonnees_gps":[48.8648108622,-0.503133289019],"code_commune_insee":"14572"},"geometry":{"type":"Point","coordinates":[-0.503133289019,48.8648108622]},"record_timestamp":"2016-05-09T15:17:00+02:00"},{"datasetid":"laposte_hexasmal","recordid":"93883d7982e3bc80b6e9db4cb2f0c3fe96b2d2ee","fields":{"nom_de_la_commune":"ST GERMAIN LA BLANCHE HERBE","libell_d_acheminement":"ST GERMAIN LA BLANCHE HERBE","code_postal":"14280","coordonnees_gps":[49.195598359,-0.421595824393],"code_commune_insee":"14587"},"geometry":{"type":"Point","coordinates":[-0.421595824393,49.195598359]},"record_timestamp":"2016-05-09T15:17:00+02:00"},{"datasetid":"laposte_hexasmal","recordid":"2e2974a09cddbaf7e8c408453bb0981311e5d66d","fields":{"nom_de_la_commune":"STE HONORINE DU FAY","libell_d_acheminement":"STE HONORINE DU FAY","code_postal":"14210","coordonnees_gps":[49.0700697986,-0.491095883025],"code_commune_insee":"14592"},"geometry":{"type":"Point","coordinates":[-0.491095883025,49.0700697986]},"record_timestamp":"2016-05-09T15:17:00+02:00"},{"datasetid":"laposte_hexasmal","recordid":"37b4b7a9aed7631b11c38a8bb52fa1351b413107","fields":{"nom_de_la_commune":"ST JEAN DE LIVET","libell_d_acheminement":"ST JEAN DE LIVET","code_postal":"14100","coordonnees_gps":[49.0933846739,0.242347762493],"code_commune_insee":"14595"},"geometry":{"type":"Point","coordinates":[0.242347762493,49.0933846739]},"record_timestamp":"2016-05-09T15:17:00+02:00"},{"datasetid":"laposte_hexasmal","recordid":"8b1fecf2f0a152a788529d13d9513ee3e9560bc0","fields":{"code_postal":"14740","code_commune_insee":"14610","libell_d_acheminement":"ST MANVIEU NORREY","ligne_5":"NORREY EN BESSIN","nom_de_la_commune":"ST MANVIEU NORREY","coordonnees_gps":[49.1866187514,-0.500649105973]},"geometry":{"type":"Point","coordinates":[-0.500649105973,49.1866187514]},"record_timestamp":"2016-05-09T15:17:00+02:00"},{"datasetid":"laposte_hexasmal","recordid":"65ed996b3c7fe88a1554ad5bef2f69cdb10ce1e5","fields":{"nom_de_la_commune":"ST MANVIEU BOCAGE","libell_d_acheminement":"ST MANVIEU BOCAGE","code_postal":"14380","coordonnees_gps":[48.8216812111,-0.964918933862],"code_commune_insee":"14611"},"geometry":{"type":"Point","coordinates":[-0.964918933862,48.8216812111]},"record_timestamp":"2016-05-09T15:17:00+02:00"},{"datasetid":"laposte_hexasmal","recordid":"1a9bbacfdec41a1dc623f89109418aa1859b7155","fields":{"nom_de_la_commune":"STE MARGUERITE D ELLE","libell_d_acheminement":"STE MARGUERITE D ELLE","code_postal":"14330","coordonnees_gps":[49.2157426905,-0.986867595216],"code_commune_insee":"14614"},"geometry":{"type":"Point","coordinates":[-0.986867595216,49.2157426905]},"record_timestamp":"2016-05-09T15:17:00+02:00"},{"datasetid":"laposte_hexasmal","recordid":"13ae5d68977a77d10b1e6b64d2bbabc9eeaaec99","fields":{"nom_de_la_commune":"ST PIERRE DU JONQUET","libell_d_acheminement":"ST PIERRE DU JONQUET","code_postal":"14670","coordonnees_gps":[49.1658152003,-0.139476122836],"code_commune_insee":"14651"},"geometry":{"type":"Point","coordinates":[-0.139476122836,49.1658152003]},"record_timestamp":"2016-05-09T15:17:00+02:00"},{"datasetid":"laposte_hexasmal","recordid":"478930c7e8158c52ab2f1e1109ad5c8e81be569f","fields":{"nom_de_la_commune":"ST VAAST SUR SEULLES","libell_d_acheminement":"ST VAAST SUR SEULLES","code_postal":"14250","coordonnees_gps":[49.136191031,-0.630172493075],"code_commune_insee":"14661"},"geometry":{"type":"Point","coordinates":[-0.630172493075,49.136191031]},"record_timestamp":"2016-05-09T15:17:00+02:00"},{"datasetid":"laposte_hexasmal","recordid":"4d4ef27bc0b16c64fb0bc0b624d6acfca4647020","fields":{"nom_de_la_commune":"SEPT VENTS","libell_d_acheminement":"SEPT VENTS","code_postal":"14240","coordonnees_gps":[49.0662712858,-0.837770438371],"code_commune_insee":"14672"},"geometry":{"type":"Point","coordinates":[-0.837770438371,49.0662712858]},"record_timestamp":"2016-05-09T15:17:00+02:00"},{"datasetid":"laposte_hexasmal","recordid":"38382fc7c80558ecaec0cb56660d2f1429f51ca7","fields":{"nom_de_la_commune":"SURVILLE","libell_d_acheminement":"SURVILLE","code_postal":"14130","coordonnees_gps":[49.3028988613,0.223364343411],"code_commune_insee":"14682"},"geometry":{"type":"Point","coordinates":[0.223364343411,49.3028988613]},"record_timestamp":"2016-05-09T15:17:00+02:00"},{"datasetid":"laposte_hexasmal","recordid":"71bab00486e57fc1159df976990f7aca8611ebe6","fields":{"nom_de_la_commune":"LE THEIL EN AUGE","libell_d_acheminement":"LE THEIL EN AUGE","code_postal":"14130","coordonnees_gps":[49.346810194,0.250984349315],"code_commune_insee":"14687"},"geometry":{"type":"Point","coordinates":[0.250984349315,49.346810194]},"record_timestamp":"2016-05-09T15:17:00+02:00"},{"datasetid":"laposte_hexasmal","recordid":"5c65be5f5031845a2b4a23465a4ec8a874454cc4","fields":{"code_postal":"14220","code_commune_insee":"14689","libell_d_acheminement":"LE HOM","ligne_5":"HAMARS","nom_de_la_commune":"LE HOM","coordonnees_gps":[48.9864514562,-0.485109067102]},"geometry":{"type":"Point","coordinates":[-0.485109067102,48.9864514562]},"record_timestamp":"2016-05-09T15:17:00+02:00"},{"datasetid":"laposte_hexasmal","recordid":"48e4ccdddcb7215d8d1abddf73fc26a02c4605b8","fields":{"nom_de_la_commune":"TILLY SUR SEULLES","libell_d_acheminement":"TILLY SUR SEULLES","code_postal":"14250","coordonnees_gps":[49.1718691291,-0.62341766889],"code_commune_insee":"14692"},"geometry":{"type":"Point","coordinates":[-0.62341766889,49.1718691291]},"record_timestamp":"2016-05-09T15:17:00+02:00"},{"datasetid":"laposte_hexasmal","recordid":"2682c2307cf4209d374d4af69802a3ee1fbbc99b","fields":{"nom_de_la_commune":"TORTEVAL QUESNAY","libell_d_acheminement":"TORTEVAL QUESNAY","code_postal":"14240","coordonnees_gps":[49.1498130853,-0.730039004181],"code_commune_insee":"14695"},"geometry":{"type":"Point","coordinates":[-0.730039004181,49.1498130853]},"record_timestamp":"2016-05-09T15:17:00+02:00"},{"datasetid":"laposte_hexasmal","recordid":"713a01b058f195ca68e637a08c09d042eae9855f","fields":{"code_postal":"14170","code_commune_insee":"14697","libell_d_acheminement":"L OUDON","ligne_5":"BERVILLE","nom_de_la_commune":"L OUDON","coordonnees_gps":[48.9626128498,0.0329429977996]},"geometry":{"type":"Point","coordinates":[0.0329429977996,48.9626128498]},"record_timestamp":"2016-05-09T15:17:00+02:00"},{"datasetid":"laposte_hexasmal","recordid":"bdb44241d40dd97ec82235d0330f38cbc7eee5f8","fields":{"code_postal":"14170","code_commune_insee":"14697","libell_d_acheminement":"L OUDON","ligne_5":"ST MARTIN DE FRESNAY","nom_de_la_commune":"L OUDON","coordonnees_gps":[48.9626128498,0.0329429977996]},"geometry":{"type":"Point","coordinates":[0.0329429977996,48.9626128498]},"record_timestamp":"2016-05-09T15:17:00+02:00"},{"datasetid":"laposte_hexasmal","recordid":"051871c737b6f577c3cb1cd7b247ff139478eabb","fields":{"code_postal":"14170","code_commune_insee":"14697","libell_d_acheminement":"L OUDON","ligne_5":"TOTES","nom_de_la_commune":"L OUDON","coordonnees_gps":[48.9626128498,0.0329429977996]},"geometry":{"type":"Point","coordinates":[0.0329429977996,48.9626128498]},"record_timestamp":"2016-05-09T15:17:00+02:00"},{"datasetid":"laposte_hexasmal","recordid":"75e8448534e6c792d2e81457d7da2ec6e5d1024d","fields":{"nom_de_la_commune":"TOURNEBU","libell_d_acheminement":"TOURNEBU","code_postal":"14220","coordonnees_gps":[48.9633348663,-0.326299876801],"code_commune_insee":"14703"},"geometry":{"type":"Point","coordinates":[-0.326299876801,48.9633348663]},"record_timestamp":"2016-05-09T15:17:00+02:00"},{"datasetid":"laposte_hexasmal","recordid":"e8b5ccccce8f59091170ba6995450efb606d5076","fields":{"nom_de_la_commune":"USSY","libell_d_acheminement":"USSY","code_postal":"14420","coordonnees_gps":[48.9460697102,-0.290005556569],"code_commune_insee":"14720"},"geometry":{"type":"Point","coordinates":[-0.290005556569,48.9460697102]},"record_timestamp":"2016-05-09T15:17:00+02:00"},{"datasetid":"laposte_hexasmal","recordid":"ba6a462489593aff57f7edd1fd23aa5c287ecccd","fields":{"code_postal":"14210","code_commune_insee":"14721","libell_d_acheminement":"VACOGNES NEUILLY","ligne_5":"NEUILLY LE MALHERBE","nom_de_la_commune":"VACOGNES NEUILLY","coordonnees_gps":[49.085434169,-0.534237961822]},"geometry":{"type":"Point","coordinates":[-0.534237961822,49.085434169]},"record_timestamp":"2016-05-09T15:17:00+02:00"},{"datasetid":"laposte_hexasmal","recordid":"4d1ec36b21911a6953511005d6f1cc0a17cc8a95","fields":{"code_postal":"14350","code_commune_insee":"14726","libell_d_acheminement":"VALDALLIERE","ligne_5":"ST CHARLES DE PERCY","nom_de_la_commune":"VALDALLIERE","coordonnees_gps":[48.8636010778,-0.658303472061]},"geometry":{"type":"Point","coordinates":[-0.658303472061,48.8636010778]},"record_timestamp":"2016-05-09T15:17:00+02:00"},{"datasetid":"laposte_hexasmal","recordid":"24a57c399e1e389148f6697b9c96e8449a146ec1","fields":{"code_postal":"14410","code_commune_insee":"14726","libell_d_acheminement":"VALDALLIERE","ligne_5":"ESTRY","nom_de_la_commune":"VALDALLIERE","coordonnees_gps":[48.8636010778,-0.658303472061]},"geometry":{"type":"Point","coordinates":[-0.658303472061,48.8636010778]},"record_timestamp":"2016-05-09T15:17:00+02:00"},{"datasetid":"laposte_hexasmal","recordid":"69c6afa9c6fd7f18adaadffd0faf0248a3f41d91","fields":{"code_postal":"14410","code_commune_insee":"14726","libell_d_acheminement":"VALDALLIERE","ligne_5":"LA ROCQUE","nom_de_la_commune":"VALDALLIERE","coordonnees_gps":[48.8636010778,-0.658303472061]},"geometry":{"type":"Point","coordinates":[-0.658303472061,48.8636010778]},"record_timestamp":"2016-05-09T15:17:00+02:00"},{"datasetid":"laposte_hexasmal","recordid":"f2a4aaf1996226ce408fe7fbbaaa2cf0381be119","fields":{"nom_de_la_commune":"VERSON","libell_d_acheminement":"VERSON","code_postal":"14790","coordonnees_gps":[49.1637623946,-0.463308814178],"code_commune_insee":"14738"},"geometry":{"type":"Point","coordinates":[-0.463308814178,49.1637623946]},"record_timestamp":"2016-05-09T15:17:00+02:00"},{"datasetid":"laposte_hexasmal","recordid":"dbf70dcdc03485b1f1bfbd32b3e644d7c7ce4e86","fields":{"nom_de_la_commune":"LA VESPIERE FRIARDEL","libell_d_acheminement":"LA VESPIERE FRIARDEL","code_postal":"14290","coordonnees_gps":[49.0111903523,0.424749958219],"code_commune_insee":"14740"},"geometry":{"type":"Point","coordinates":[0.424749958219,49.0111903523]},"record_timestamp":"2016-05-09T15:17:00+02:00"},{"datasetid":"laposte_hexasmal","recordid":"ef5078d56d6c43aedd8cb9042f905e2663da5465","fields":{"nom_de_la_commune":"VILLIERS LE SEC","libell_d_acheminement":"VILLIERS LE SEC","code_postal":"14480","coordonnees_gps":[49.292941046,-0.565610877314],"code_commune_insee":"14757"},"geometry":{"type":"Point","coordinates":[-0.565610877314,49.292941046]},"record_timestamp":"2016-05-09T15:17:00+02:00"},{"datasetid":"laposte_hexasmal","recordid":"fbbdf8fd6c09b411939bc4d8556f50ebce306760","fields":{"nom_de_la_commune":"VILLY LEZ FALAISE","libell_d_acheminement":"VILLY LEZ FALAISE","code_postal":"14700","coordonnees_gps":[48.9003361872,-0.136145311949],"code_commune_insee":"14759"},"geometry":{"type":"Point","coordinates":[-0.136145311949,48.9003361872]},"record_timestamp":"2016-05-09T15:17:00+02:00"},{"datasetid":"laposte_hexasmal","recordid":"531dfd81cf7890ea8f4e515175f0552fb46533bd","fields":{"nom_de_la_commune":"VILLY BOCAGE","libell_d_acheminement":"VILLY BOCAGE","code_postal":"14310","coordonnees_gps":[49.1039219543,-0.641975562637],"code_commune_insee":"14760"},"geometry":{"type":"Point","coordinates":[-0.641975562637,49.1039219543]},"record_timestamp":"2016-05-09T15:17:00+02:00"},{"datasetid":"laposte_hexasmal","recordid":"7b2eba8a9f1dcca6d4b8f05a2cbf8fed0d231f5c","fields":{"nom_de_la_commune":"VIMONT","libell_d_acheminement":"VIMONT","code_postal":"14370","coordonnees_gps":[49.1416235427,-0.194706905612],"code_commune_insee":"14761"},"geometry":{"type":"Point","coordinates":[-0.194706905612,49.1416235427]},"record_timestamp":"2016-05-09T15:17:00+02:00"},{"datasetid":"laposte_hexasmal","recordid":"cf5ef34fce49620273caa34a6deaa63ca25819a6","fields":{"code_postal":"14500","code_commune_insee":"14762","libell_d_acheminement":"VIRE NORMANDIE","ligne_5":"MAISONCELLES LA JOURDAN","nom_de_la_commune":"VIRE NORMANDIE","coordonnees_gps":[48.8512498219,-0.889601911342]},"geometry":{"type":"Point","coordinates":[-0.889601911342,48.8512498219]},"record_timestamp":"2016-05-09T15:17:00+02:00"},{"datasetid":"laposte_hexasmal","recordid":"4f52ed82ffd355c3d6fabe185fa2d77cff1241ff","fields":{"code_postal":"14500","code_commune_insee":"14762","libell_d_acheminement":"VIRE NORMANDIE","ligne_5":"ROULLOURS","nom_de_la_commune":"VIRE NORMANDIE","coordonnees_gps":[48.8512498219,-0.889601911342]},"geometry":{"type":"Point","coordinates":[-0.889601911342,48.8512498219]},"record_timestamp":"2016-05-09T15:17:00+02:00"},{"datasetid":"laposte_hexasmal","recordid":"817140c1ebd5aac8bd3d096d06a5015533cd7519","fields":{"nom_de_la_commune":"PONT D OUILLY","libell_d_acheminement":"PONT D OUILLY","code_postal":"14690","coordonnees_gps":[48.8768624805,-0.409034326859],"code_commune_insee":"14764"},"geometry":{"type":"Point","coordinates":[-0.409034326859,48.8768624805]},"record_timestamp":"2016-05-09T15:17:00+02:00"},{"datasetid":"laposte_hexasmal","recordid":"f42db8c8ab90b6d5975a644c22a588baae576c16","fields":{"nom_de_la_commune":"ABLON","libell_d_acheminement":"ABLON","code_postal":"14600","coordonnees_gps":[49.3942506112,0.286767648584],"code_commune_insee":"14001"},"geometry":{"type":"Point","coordinates":[0.286767648584,49.3942506112]},"record_timestamp":"2016-05-09T15:17:00+02:00"},{"datasetid":"laposte_hexasmal","recordid":"044a7762067e2eabdb961c69b758f318af03d7a1","fields":{"nom_de_la_commune":"AGY","libell_d_acheminement":"AGY","code_postal":"14400","coordonnees_gps":[49.2376795165,-0.779194569684],"code_commune_insee":"14003"},"geometry":{"type":"Point","coordinates":[-0.779194569684,49.2376795165]},"record_timestamp":"2016-05-09T15:17:00+02:00"},{"datasetid":"laposte_hexasmal","recordid":"9658ac06940aa399023002bcd40434db0bd35f60","fields":{"code_postal":"14240","code_commune_insee":"14011","libell_d_acheminement":"ANCTOVILLE","ligne_5":"FEUGUEROLLES SUR SEULLES","nom_de_la_commune":"ANCTOVILLE","coordonnees_gps":[49.1129887811,-0.690829418472]},"geometry":{"type":"Point","coordinates":[-0.690829418472,49.1129887811]},"record_timestamp":"2016-05-09T15:17:00+02:00"},{"datasetid":"laposte_hexasmal","recordid":"dad30cc64e78ad3e2ab16872d0610395b71bd8ba","fields":{"nom_de_la_commune":"ASNELLES","libell_d_acheminement":"ASNELLES","code_postal":"14960","coordonnees_gps":[49.3336519158,-0.584632970661],"code_commune_insee":"14022"},"geometry":{"type":"Point","coordinates":[-0.584632970661,49.3336519158]},"record_timestamp":"2016-05-09T15:17:00+02:00"},{"datasetid":"laposte_hexasmal","recordid":"64bf3adeb5da09aaa972052b7f8681b6779e475f","fields":{"nom_de_la_commune":"AUBERVILLE","libell_d_acheminement":"AUBERVILLE","code_postal":"14640","coordonnees_gps":[49.311097988,-0.0268928739803],"code_commune_insee":"14024"},"geometry":{"type":"Point","coordinates":[-0.0268928739803,49.311097988]},"record_timestamp":"2016-05-09T15:17:00+02:00"},{"datasetid":"laposte_hexasmal","recordid":"7ca12e9c40f2c705e7a638776cde5298168e26c3","fields":{"nom_de_la_commune":"AUNAY SUR ODON","libell_d_acheminement":"AUNAY SUR ODON","code_postal":"14260","coordonnees_gps":[49.0144785445,-0.633929762668],"code_commune_insee":"14027"},"geometry":{"type":"Point","coordinates":[-0.633929762668,49.0144785445]},"record_timestamp":"2016-05-09T15:17:00+02:00"},{"datasetid":"laposte_hexasmal","recordid":"14ef17a6d7501e84606987d88e208c8da7bd5585","fields":{"nom_de_la_commune":"LES AUTHIEUX SUR CALONNE","libell_d_acheminement":"LES AUTHIEUX SUR CALONNE","code_postal":"14130","coordonnees_gps":[49.284118224,0.275543466655],"code_commune_insee":"14032"},"geometry":{"type":"Point","coordinates":[0.275543466655,49.284118224]},"record_timestamp":"2016-05-09T15:17:00+02:00"},{"datasetid":"laposte_hexasmal","recordid":"1e1136f45469a78a9353aacc930eb31c1dfca1b8","fields":{"nom_de_la_commune":"BANNEVILLE LA CAMPAGNE","libell_d_acheminement":"BANNEVILLE LA CAMPAGNE","code_postal":"14940","coordonnees_gps":[49.1686883347,-0.224327204511],"code_commune_insee":"14036"},"geometry":{"type":"Point","coordinates":[-0.224327204511,49.1686883347]},"record_timestamp":"2016-05-09T15:17:00+02:00"},{"datasetid":"laposte_hexasmal","recordid":"b3cd917e0af418a00908c5e92bc45ea42d440a72","fields":{"code_postal":"14260","code_commune_insee":"14037","libell_d_acheminement":"MALHERBE SUR AJON","ligne_5":"BANNEVILLE SUR AJON","nom_de_la_commune":"MALHERBE SUR AJON","coordonnees_gps":[49.0615972046,-0.567996392999]},"geometry":{"type":"Point","coordinates":[-0.567996392999,49.0615972046]},"record_timestamp":"2016-05-09T15:17:00+02:00"},{"datasetid":"laposte_hexasmal","recordid":"5e0babab943d424edbefeb2575b9f4323d7c8b4b","fields":{"code_postal":"14260","code_commune_insee":"14037","libell_d_acheminement":"MALHERBE SUR AJON","ligne_5":"ST AGNAN LE MALHERBE","nom_de_la_commune":"MALHERBE SUR AJON","coordonnees_gps":[49.0615972046,-0.567996392999]},"geometry":{"type":"Point","coordinates":[-0.567996392999,49.0615972046]},"record_timestamp":"2016-05-09T15:17:00+02:00"},{"datasetid":"laposte_hexasmal","recordid":"d66541e5e9a8f104d27da3c2550485304074fb7f","fields":{"nom_de_la_commune":"BARNEVILLE LA BERTRAN","libell_d_acheminement":"BARNEVILLE LA BERTRAN","code_postal":"14600","coordonnees_gps":[49.3913668809,0.182164681877],"code_commune_insee":"14041"},"geometry":{"type":"Point","coordinates":[0.182164681877,49.3913668809]},"record_timestamp":"2016-05-09T15:17:00+02:00"},{"datasetid":"laposte_hexasmal","recordid":"155a091fdc64474eb19fb135872b783d0fb9265b","fields":{"nom_de_la_commune":"BAROU EN AUGE","libell_d_acheminement":"BAROU EN AUGE","code_postal":"14620","coordonnees_gps":[48.9297518504,-0.0386142732111],"code_commune_insee":"14043"},"geometry":{"type":"Point","coordinates":[-0.0386142732111,48.9297518504]},"record_timestamp":"2016-05-09T15:17:00+02:00"},{"datasetid":"laposte_hexasmal","recordid":"d9e387d817236c35628e26e45e2f80543baa97b3","fields":{"nom_de_la_commune":"BASLY","libell_d_acheminement":"BASLY","code_postal":"14610","coordonnees_gps":[49.2759084631,-0.426109621277],"code_commune_insee":"14044"},"geometry":{"type":"Point","coordinates":[-0.426109621277,49.2759084631]},"record_timestamp":"2016-05-09T15:17:00+02:00"},{"datasetid":"laposte_hexasmal","recordid":"8da2bb8750f462e59957c1fe86ff8a3e05cbdb15","fields":{"nom_de_la_commune":"BAYEUX","libell_d_acheminement":"BAYEUX","code_postal":"14400","coordonnees_gps":[49.2776559195,-0.704625495378],"code_commune_insee":"14047"},"geometry":{"type":"Point","coordinates":[-0.704625495378,49.2776559195]},"record_timestamp":"2016-05-09T15:17:00+02:00"},{"datasetid":"laposte_hexasmal","recordid":"79871586fb8e3a9e22e5972cb7a11b25c8c370e8","fields":{"nom_de_la_commune":"BAZENVILLE","libell_d_acheminement":"BAZENVILLE","code_postal":"14480","coordonnees_gps":[49.3006069672,-0.584555830953],"code_commune_insee":"14049"},"geometry":{"type":"Point","coordinates":[-0.584555830953,49.3006069672]},"record_timestamp":"2016-05-09T15:17:00+02:00"},{"datasetid":"laposte_hexasmal","recordid":"99668e75776d869194124638cdeba3b8cf076b2c","fields":{"nom_de_la_commune":"BAUQUAY","libell_d_acheminement":"BAUQUAY","code_postal":"14260","coordonnees_gps":[49.0338854492,-0.620210148364],"code_commune_insee":"14056"},"geometry":{"type":"Point","coordinates":[-0.620210148364,49.0338854492]},"record_timestamp":"2016-05-09T15:17:00+02:00"},{"datasetid":"laposte_hexasmal","recordid":"b5bae46c72937c4ddad70618480cb04d523a8090","fields":{"code_postal":"14350","code_commune_insee":"14061","libell_d_acheminement":"SOULEUVRE EN BOCAGE","ligne_5":"BEAULIEU","nom_de_la_commune":"SOULEUVRE EN BOCAGE","coordonnees_gps":[48.9311056012,-0.829700488318]},"geometry":{"type":"Point","coordinates":[-0.829700488318,48.9311056012]},"record_timestamp":"2016-05-09T15:17:00+02:00"},{"datasetid":"laposte_hexasmal","recordid":"37414a793e7fcfefc43da0fe54680987bb5e7ac8","fields":{"code_postal":"14350","code_commune_insee":"14061","libell_d_acheminement":"SOULEUVRE EN BOCAGE","ligne_5":"BURES LES MONTS","nom_de_la_commune":"SOULEUVRE EN BOCAGE","coordonnees_gps":[48.9311056012,-0.829700488318]},"geometry":{"type":"Point","coordinates":[-0.829700488318,48.9311056012]},"record_timestamp":"2016-05-09T15:17:00+02:00"},{"datasetid":"laposte_hexasmal","recordid":"47124dfb41e5af1d2247c37313bd81f5ee09cb86","fields":{"code_postal":"14350","code_commune_insee":"14061","libell_d_acheminement":"SOULEUVRE EN BOCAGE","ligne_5":"CARVILLE","nom_de_la_commune":"SOULEUVRE EN BOCAGE","coordonnees_gps":[48.9311056012,-0.829700488318]},"geometry":{"type":"Point","coordinates":[-0.829700488318,48.9311056012]},"record_timestamp":"2016-05-09T15:17:00+02:00"},{"datasetid":"laposte_hexasmal","recordid":"4e4869cc4a80e0848c6343d24349a366a3433c68","fields":{"code_postal":"14350","code_commune_insee":"14061","libell_d_acheminement":"SOULEUVRE EN BOCAGE","ligne_5":"LE BENY BOCAGE","nom_de_la_commune":"SOULEUVRE EN BOCAGE","coordonnees_gps":[48.9311056012,-0.829700488318]},"geometry":{"type":"Point","coordinates":[-0.829700488318,48.9311056012]},"record_timestamp":"2016-05-09T15:17:00+02:00"},{"datasetid":"laposte_hexasmal","recordid":"95ff645474fb06a0f2e95b29e92d67a88e5e540c","fields":{"code_postal":"14350","code_commune_insee":"14061","libell_d_acheminement":"SOULEUVRE EN BOCAGE","ligne_5":"MALLOUE","nom_de_la_commune":"SOULEUVRE EN BOCAGE","coordonnees_gps":[48.9311056012,-0.829700488318]},"geometry":{"type":"Point","coordinates":[-0.829700488318,48.9311056012]},"record_timestamp":"2016-05-09T15:17:00+02:00"},{"datasetid":"laposte_hexasmal","recordid":"70d0959e6cabddb3de3dcceacf17f2922f7c8233","fields":{"code_postal":"14350","code_commune_insee":"14061","libell_d_acheminement":"SOULEUVRE EN BOCAGE","ligne_5":"ST MARTIN DON","nom_de_la_commune":"SOULEUVRE EN BOCAGE","coordonnees_gps":[48.9311056012,-0.829700488318]},"geometry":{"type":"Point","coordinates":[-0.829700488318,48.9311056012]},"record_timestamp":"2016-05-09T15:17:00+02:00"},{"datasetid":"laposte_hexasmal","recordid":"1ec9552a2e141b3b188a09c0f802e8bbbc63f802","fields":{"nom_de_la_commune":"BERNIERES D AILLY","libell_d_acheminement":"BERNIERES D AILLY","code_postal":"14170","coordonnees_gps":[48.9474636631,-0.102286178069],"code_commune_insee":"14064"},"geometry":{"type":"Point","coordinates":[-0.102286178069,48.9474636631]},"record_timestamp":"2016-05-09T15:17:00+02:00"},{"datasetid":"laposte_hexasmal","recordid":"345f56e273302c169a176763fa7d835bd53b23be","fields":{"code_postal":"14112","code_commune_insee":"14068","libell_d_acheminement":"BIEVILLE BEUVILLE","ligne_5":"BIEVILLE SUR ORNE","nom_de_la_commune":"BIEVILLE BEUVILLE","coordonnees_gps":[49.2394857474,-0.336897222292]},"geometry":{"type":"Point","coordinates":[-0.336897222292,49.2394857474]},"record_timestamp":"2016-05-09T15:17:00+02:00"},{"datasetid":"laposte_hexasmal","recordid":"91c51139775515730c0f2c62910c65d63c51aaec","fields":{"nom_de_la_commune":"LA BIGNE","libell_d_acheminement":"LA BIGNE","code_postal":"14260","coordonnees_gps":[49.0113181173,-0.717996157351],"code_commune_insee":"14073"},"geometry":{"type":"Point","coordinates":[-0.717996157351,49.0113181173]},"record_timestamp":"2016-05-09T15:17:00+02:00"},{"datasetid":"laposte_hexasmal","recordid":"814ae591ab8ddfa41cac7ff351666cf4f6f7a8c3","fields":{"nom_de_la_commune":"BLONVILLE SUR MER","libell_d_acheminement":"BLONVILLE SUR MER","code_postal":"14910","coordonnees_gps":[49.322264685,0.0322391996049],"code_commune_insee":"14079"},"geometry":{"type":"Point","coordinates":[0.0322391996049,49.322264685]},"record_timestamp":"2016-05-09T15:17:00+02:00"},{"datasetid":"laposte_hexasmal","recordid":"faa0e5791470362c35c33ebebdef0e46dc8c4333","fields":{"nom_de_la_commune":"LE BO","libell_d_acheminement":"LE BO","code_postal":"14690","coordonnees_gps":[48.9063561928,-0.441664417518],"code_commune_insee":"14080"},"geometry":{"type":"Point","coordinates":[-0.441664417518,48.9063561928]},"record_timestamp":"2016-05-09T15:17:00+02:00"},{"datasetid":"laposte_hexasmal","recordid":"bfd21cef083a47ee65137aefd009d18de24f13ce","fields":{"nom_de_la_commune":"BOISSEY","libell_d_acheminement":"BOISSEY","code_postal":"14170","coordonnees_gps":[49.0197538694,0.0500632254083],"code_commune_insee":"14081"},"geometry":{"type":"Point","coordinates":[0.0500632254083,49.0197538694]},"record_timestamp":"2016-05-09T15:17:00+02:00"},{"datasetid":"laposte_hexasmal","recordid":"a8226ce741536e704905398f7298ffe43603ca1c","fields":{"nom_de_la_commune":"BONNEMAISON","libell_d_acheminement":"BONNEMAISON","code_postal":"14260","coordonnees_gps":[49.0036461584,-0.58574099643],"code_commune_insee":"14084"},"geometry":{"type":"Point","coordinates":[-0.58574099643,49.0036461584]},"record_timestamp":"2016-05-09T15:17:00+02:00"},{"datasetid":"laposte_hexasmal","recordid":"5f4a26d391fad0e87ebbac83488867ba5ec693e4","fields":{"nom_de_la_commune":"BRETTEVILLE L ORGUEILLEUSE","libell_d_acheminement":"BRETTEVILLE L ORGUEILLEUSE","code_postal":"14740","coordonnees_gps":[49.2151517714,-0.51673661621],"code_commune_insee":"14098"},"geometry":{"type":"Point","coordinates":[-0.51673661621,49.2151517714]},"record_timestamp":"2016-05-09T15:17:00+02:00"},{"datasetid":"laposte_hexasmal","recordid":"dd71e30ff66a7c3344c8870bfb37818cf40914a7","fields":{"nom_de_la_commune":"LE BREUIL EN BESSIN","libell_d_acheminement":"LE BREUIL EN BESSIN","code_postal":"14330","coordonnees_gps":[49.2546153237,-0.855456824722],"code_commune_insee":"14103"},"geometry":{"type":"Point","coordinates":[-0.855456824722,49.2546153237]},"record_timestamp":"2016-05-09T15:17:00+02:00"},{"datasetid":"laposte_hexasmal","recordid":"32bd518b80fb1b0f5dee9532ab665fe5724797af","fields":{"nom_de_la_commune":"CAEN","libell_d_acheminement":"CAEN","code_postal":"14000","coordonnees_gps":[49.1847936737,-0.369801713036],"code_commune_insee":"14118"},"geometry":{"type":"Point","coordinates":[-0.369801713036,49.1847936737]},"record_timestamp":"2016-05-09T15:17:00+02:00"},{"datasetid":"laposte_hexasmal","recordid":"dca35dd6d3ad6b829daf69fceb33edb205e7e2dd","fields":{"code_postal":"14340","code_commune_insee":"14126","libell_d_acheminement":"CAMBREMER","ligne_5":"GRANDOUET","nom_de_la_commune":"CAMBREMER","coordonnees_gps":[49.1466063945,0.0539056758479]},"geometry":{"type":"Point","coordinates":[0.0539056758479,49.1466063945]},"record_timestamp":"2016-05-09T15:17:00+02:00"},{"datasetid":"laposte_hexasmal","recordid":"fd91567c6e00d75f6d1bf07cfaca923fb7f72f54","fields":{"nom_de_la_commune":"CAMPAGNOLLES","libell_d_acheminement":"CAMPAGNOLLES","code_postal":"14500","coordonnees_gps":[48.8893011028,-0.935281266873],"code_commune_insee":"14127"},"geometry":{"type":"Point","coordinates":[-0.935281266873,48.8893011028]},"record_timestamp":"2016-05-09T15:17:00+02:00"},{"datasetid":"laposte_hexasmal","recordid":"4fcb50c26f6f7a5fea9a852eddfbda8a8214bc00","fields":{"nom_de_la_commune":"CAMPANDRE VALCONGRAIN","libell_d_acheminement":"CAMPANDRE VALCONGRAIN","code_postal":"14260","coordonnees_gps":[48.98135248,-0.58496345565],"code_commune_insee":"14128"},"geometry":{"type":"Point","coordinates":[-0.58496345565,48.98135248]},"record_timestamp":"2016-05-09T15:17:00+02:00"},{"datasetid":"laposte_hexasmal","recordid":"2d2544875c55c5461f74fe5dbdc21235c9eeab38","fields":{"nom_de_la_commune":"CERNAY","libell_d_acheminement":"CERNAY","code_postal":"14290","coordonnees_gps":[49.0163802116,0.323907540392],"code_commune_insee":"14147"},"geometry":{"type":"Point","coordinates":[0.323907540392,49.0163802116]},"record_timestamp":"2016-05-09T15:17:00+02:00"},{"datasetid":"laposte_hexasmal","recordid":"e7078affe56c9feaf282e8b212cc7185681e9070","fields":{"nom_de_la_commune":"CESNY BOIS HALBOUT","libell_d_acheminement":"CESNY BOIS HALBOUT","code_postal":"14220","coordonnees_gps":[48.9853267914,-0.394469235831],"code_commune_insee":"14150"},"geometry":{"type":"Point","coordinates":[-0.394469235831,48.9853267914]},"record_timestamp":"2016-05-09T15:17:00+02:00"},{"datasetid":"laposte_hexasmal","recordid":"436be2052080d0e3f2c80570ac9050d1505c0943","fields":{"nom_de_la_commune":"CHEUX","libell_d_acheminement":"CHEUX","code_postal":"14210","coordonnees_gps":[49.169230558,-0.529372523327],"code_commune_insee":"14157"},"geometry":{"type":"Point","coordinates":[-0.529372523327,49.169230558]},"record_timestamp":"2016-05-09T15:17:00+02:00"},{"datasetid":"laposte_hexasmal","recordid":"b2215cb24ea94fa41cb3ded0b760fec4f29b82ed","fields":{"nom_de_la_commune":"CINTHEAUX","libell_d_acheminement":"CINTHEAUX","code_postal":"14680","coordonnees_gps":[49.0657733566,-0.283693859149],"code_commune_insee":"14160"},"geometry":{"type":"Point","coordinates":[-0.283693859149,49.0657733566]},"record_timestamp":"2016-05-09T15:17:00+02:00"},{"datasetid":"laposte_hexasmal","recordid":"68235195b2ac54eb11242c9a21eb80faac5cd5ae","fields":{"nom_de_la_commune":"CLECY","libell_d_acheminement":"CLECY","code_postal":"14570","coordonnees_gps":[48.9025554763,-0.493582660892],"code_commune_insee":"14162"},"geometry":{"type":"Point","coordinates":[-0.493582660892,48.9025554763]},"record_timestamp":"2016-05-09T15:17:00+02:00"},{"datasetid":"laposte_hexasmal","recordid":"a35ba5b021759238fc68a1662d731b98b12b056a","fields":{"nom_de_la_commune":"CLINCHAMPS SUR ORNE","libell_d_acheminement":"CLINCHAMPS SUR ORNE","code_postal":"14320","coordonnees_gps":[49.0827905311,-0.403970928177],"code_commune_insee":"14164"},"geometry":{"type":"Point","coordinates":[-0.403970928177,49.0827905311]},"record_timestamp":"2016-05-09T15:17:00+02:00"},{"datasetid":"laposte_hexasmal","recordid":"07594752a6926f825c93e0a790769094ed1c3eec","fields":{"code_postal":"14110","code_commune_insee":"14174","libell_d_acheminement":"CONDE EN NORMANDIE","ligne_5":"PROUSSY","nom_de_la_commune":"CONDE EN NORMANDIE","coordonnees_gps":[48.8496985115,-0.562504676497]},"geometry":{"type":"Point","coordinates":[-0.562504676497,48.8496985115]},"record_timestamp":"2016-05-09T15:17:00+02:00"},{"datasetid":"laposte_hexasmal","recordid":"3e0915fb81fdf40a47dc4ad67fa1ccfc0fdd0deb","fields":{"nom_de_la_commune":"CONTEVILLE","libell_d_acheminement":"CONTEVILLE","code_postal":"14540","coordonnees_gps":[49.0890900332,-0.245186821417],"code_commune_insee":"14176"},"geometry":{"type":"Point","coordinates":[-0.245186821417,49.0890900332]},"record_timestamp":"2016-05-09T15:17:00+02:00"},{"datasetid":"laposte_hexasmal","recordid":"52b4791b0cf408744cb4e48a4a177bcd7b4ee54d","fields":{"nom_de_la_commune":"COQUAINVILLIERS","libell_d_acheminement":"COQUAINVILLIERS","code_postal":"14130","coordonnees_gps":[49.2024600046,0.197315117058],"code_commune_insee":"14177"},"geometry":{"type":"Point","coordinates":[0.197315117058,49.2024600046]},"record_timestamp":"2016-05-09T15:17:00+02:00"},{"datasetid":"laposte_hexasmal","recordid":"5d36d3c31b75a00b4cfb914048227bf47b9e9758","fields":{"nom_de_la_commune":"CORDEBUGLE","libell_d_acheminement":"CORDEBUGLE","code_postal":"14100","coordonnees_gps":[49.1134254456,0.379835846184],"code_commune_insee":"14179"},"geometry":{"type":"Point","coordinates":[0.379835846184,49.1134254456]},"record_timestamp":"2016-05-09T15:17:00+02:00"},{"datasetid":"laposte_hexasmal","recordid":"95dc3189f9b2f9071c46528151f16abfc0aae302","fields":{"nom_de_la_commune":"CORMOLAIN","libell_d_acheminement":"CORMOLAIN","code_postal":"14240","coordonnees_gps":[49.1293685393,-0.863042429184],"code_commune_insee":"14182"},"geometry":{"type":"Point","coordinates":[-0.863042429184,49.1293685393]},"record_timestamp":"2016-05-09T15:17:00+02:00"},{"datasetid":"laposte_hexasmal","recordid":"8b7f4cafbb52590eac15c6e0c98defc60f490309","fields":{"nom_de_la_commune":"COURTONNE LA MEURDRAC","libell_d_acheminement":"COURTONNE LA MEURDRAC","code_postal":"14100","coordonnees_gps":[49.1202461329,0.329059637996],"code_commune_insee":"14193"},"geometry":{"type":"Point","coordinates":[0.329059637996,49.1202461329]},"record_timestamp":"2016-05-09T15:17:00+02:00"},{"datasetid":"laposte_hexasmal","recordid":"28e699c208eabecbb6c9c85f7efde58465129006","fields":{"code_postal":"14290","code_commune_insee":"14194","libell_d_acheminement":"COURTONNE LES DEUX EGLISES","ligne_5":"ST PAUL DE COURTONNE","nom_de_la_commune":"COURTONNE LES DEUX EGLISES","coordonnees_gps":[49.0888311326,0.37808461753]},"geometry":{"type":"Point","coordinates":[0.37808461753,49.0888311326]},"record_timestamp":"2016-05-09T15:17:00+02:00"},{"datasetid":"laposte_hexasmal","recordid":"b44089b44d35e3f0050c26c57bf8744eb49b84cb","fields":{"nom_de_la_commune":"CREPON","libell_d_acheminement":"CREPON","code_postal":"14480","coordonnees_gps":[49.314511496,-0.545657702381],"code_commune_insee":"14196"},"geometry":{"type":"Point","coordinates":[-0.545657702381,49.314511496]},"record_timestamp":"2016-05-09T15:17:00+02:00"},{"datasetid":"laposte_hexasmal","recordid":"dd464ba8ad9b6d62763127c7db27b47ed5707304","fields":{"nom_de_la_commune":"CRICQUEBOEUF","libell_d_acheminement":"CRICQUEBOEUF","code_postal":"14113","coordonnees_gps":[49.3965340563,0.139094735146],"code_commune_insee":"14202"},"geometry":{"type":"Point","coordinates":[0.139094735146,49.3965340563]},"record_timestamp":"2016-05-09T15:17:00+02:00"},{"datasetid":"laposte_hexasmal","recordid":"81191b7c1b09ed8a3b358daaae5db328bd1b9e0e","fields":{"nom_de_la_commune":"DANESTAL","libell_d_acheminement":"DANESTAL","code_postal":"14430","coordonnees_gps":[49.2435804635,0.0329636078608],"code_commune_insee":"14218"},"geometry":{"type":"Point","coordinates":[0.0329636078608,49.2435804635]},"record_timestamp":"2016-05-09T15:17:00+02:00"},{"datasetid":"laposte_hexasmal","recordid":"2e56e1ba0d8ea71a8722103966ca47041484dc4d","fields":{"code_postal":"14770","code_commune_insee":"14219","libell_d_acheminement":"DANVOU LA FERRIERE","ligne_5":"LA FERRIERE DUVAL","nom_de_la_commune":"DANVOU LA FERRIERE","coordonnees_gps":[48.963907646,-0.679740681534]},"geometry":{"type":"Point","coordinates":[-0.679740681534,48.963907646]},"record_timestamp":"2016-05-09T15:17:00+02:00"},{"datasetid":"laposte_hexasmal","recordid":"d28397da91d7be71a9786e21e944a1af07e52125","fields":{"nom_de_la_commune":"DEAUVILLE","libell_d_acheminement":"DEAUVILLE","code_postal":"14800","coordonnees_gps":[49.3543800887,0.0744665786308],"code_commune_insee":"14220"},"geometry":{"type":"Point","coordinates":[0.0744665786308,49.3543800887]},"record_timestamp":"2016-05-09T15:17:00+02:00"},{"datasetid":"laposte_hexasmal","recordid":"6f4b33485a4e983d81d0657fba3ab646e874c9ff","fields":{"code_postal":"14340","code_commune_insee":"14231","libell_d_acheminement":"BEAUFOUR DRUVAL","ligne_5":"ST AUBIN LEBIZAY","nom_de_la_commune":"BEAUFOUR DRUVAL","coordonnees_gps":[49.21417643,0.0234847434149]},"geometry":{"type":"Point","coordinates":[0.0234847434149,49.21417643]},"record_timestamp":"2016-05-09T15:17:00+02:00"},{"datasetid":"laposte_hexasmal","recordid":"bfa1cf9b161d62df3aac6bec19ccb6a8da262d32","fields":{"nom_de_la_commune":"ERAINES","libell_d_acheminement":"ERAINES","code_postal":"14700","coordonnees_gps":[48.9048554681,-0.157109731827],"code_commune_insee":"14244"},"geometry":{"type":"Point","coordinates":[-0.157109731827,48.9048554681]},"record_timestamp":"2016-05-09T15:17:00+02:00"},{"datasetid":"laposte_hexasmal","recordid":"0ed5c8baba23760473a577af036c7e6f19e0525c","fields":{"nom_de_la_commune":"ERNES","libell_d_acheminement":"ERNES","code_postal":"14270","coordonnees_gps":[49.0114314442,-0.125222684946],"code_commune_insee":"14245"},"geometry":{"type":"Point","coordinates":[-0.125222684946,49.0114314442]},"record_timestamp":"2016-05-09T15:17:00+02:00"},{"datasetid":"laposte_hexasmal","recordid":"1a6ab581d44d203c0730d6e72e057ac14028f76c","fields":{"nom_de_la_commune":"ESTREES LA CAMPAGNE","libell_d_acheminement":"ESTREES LA CAMPAGNE","code_postal":"14190","coordonnees_gps":[49.0079918917,-0.243058159151],"code_commune_insee":"14252"},"geometry":{"type":"Point","coordinates":[-0.243058159151,49.0079918917]},"record_timestamp":"2016-05-09T15:17:00+02:00"},{"datasetid":"laposte_hexasmal","recordid":"f5c17977ec87bb6e4b9ff94b5bbb2ce8b9b34cc1","fields":{"nom_de_la_commune":"ETERVILLE","libell_d_acheminement":"ETERVILLE","code_postal":"14930","coordonnees_gps":[49.1478744808,-0.428813516348],"code_commune_insee":"14254"},"geometry":{"type":"Point","coordinates":[-0.428813516348,49.1478744808]},"record_timestamp":"2016-05-09T15:17:00+02:00"},{"datasetid":"laposte_hexasmal","recordid":"33dfd29b7c08d64d4806e5a981bd3d8edfb1863a","fields":{"nom_de_la_commune":"FEUGUEROLLES BULLY","libell_d_acheminement":"FEUGUEROLLES BULLY","code_postal":"14320","coordonnees_gps":[49.1119321886,-0.407584971568],"code_commune_insee":"14266"},"geometry":{"type":"Point","coordinates":[-0.407584971568,49.1119321886]},"record_timestamp":"2016-05-09T15:17:00+02:00"},{"datasetid":"laposte_hexasmal","recordid":"cbecbe5810db0dbce2d519762689cfdd890a10d2","fields":{"nom_de_la_commune":"FIERVILLE BRAY","libell_d_acheminement":"FIERVILLE BRAY","code_postal":"14190","coordonnees_gps":[49.0647146044,-0.179594065485],"code_commune_insee":"14268"},"geometry":{"type":"Point","coordinates":[-0.179594065485,49.0647146044]},"record_timestamp":"2016-05-09T15:17:00+02:00"},{"datasetid":"laposte_hexasmal","recordid":"ab7818f33d0033114ff709cfb20c65da458b7241","fields":{"code_postal":"14190","code_commune_insee":"14268","libell_d_acheminement":"FIERVILLE BRAY","ligne_5":"BRAY LA CAMPAGNE","nom_de_la_commune":"FIERVILLE BRAY","coordonnees_gps":[49.0647146044,-0.179594065485]},"geometry":{"type":"Point","coordinates":[-0.179594065485,49.0647146044]},"record_timestamp":"2016-05-09T15:17:00+02:00"},{"datasetid":"laposte_hexasmal","recordid":"0198b25e2ab56213bbff3458d05229e473d62dc3","fields":{"nom_de_la_commune":"FORMIGNY","libell_d_acheminement":"FORMIGNY","code_postal":"14710","coordonnees_gps":[49.3358463072,-0.896417546016],"code_commune_insee":"14281"},"geometry":{"type":"Point","coordinates":[-0.896417546016,49.3358463072]},"record_timestamp":"2016-05-09T15:17:00+02:00"},{"datasetid":"laposte_hexasmal","recordid":"64ac795f132ec3a25272702b28bb54f5fc482277","fields":{"nom_de_la_commune":"FOURCHES","libell_d_acheminement":"FOURCHES","code_postal":"14620","coordonnees_gps":[48.8585273495,-0.0742432451781],"code_commune_insee":"14283"},"geometry":{"type":"Point","coordinates":[-0.0742432451781,48.8585273495]},"record_timestamp":"2016-05-09T15:17:00+02:00"},{"datasetid":"laposte_hexasmal","recordid":"7fffc2ea657a5521407545e63bf9cae89bf9c41a","fields":{"nom_de_la_commune":"FOURNEVILLE","libell_d_acheminement":"FOURNEVILLE","code_postal":"14600","coordonnees_gps":[49.3575079529,0.232481397585],"code_commune_insee":"14286"},"geometry":{"type":"Point","coordinates":[0.232481397585,49.3575079529]},"record_timestamp":"2016-05-09T15:17:00+02:00"},{"datasetid":"laposte_hexasmal","recordid":"4590ca31821e669e6b8027a41e8b6d7a29f0951c","fields":{"nom_de_la_commune":"FRESNEY LE VIEUX","libell_d_acheminement":"FRESNEY LE VIEUX","code_postal":"14220","coordonnees_gps":[49.0051029939,-0.38627329445],"code_commune_insee":"14291"},"geometry":{"type":"Point","coordinates":[-0.38627329445,49.0051029939]},"record_timestamp":"2016-05-09T15:17:00+02:00"},{"datasetid":"laposte_hexasmal","recordid":"ee8530dbf72f0e54129788c0563d8d3e0ed71999","fields":{"nom_de_la_commune":"GARCELLES SECQUEVILLE","libell_d_acheminement":"GARCELLES SECQUEVILLE","code_postal":"14540","coordonnees_gps":[49.096717576,-0.28075370018],"code_commune_insee":"14294"},"geometry":{"type":"Point","coordinates":[-0.28075370018,49.096717576]},"record_timestamp":"2016-05-09T15:17:00+02:00"},{"datasetid":"laposte_hexasmal","recordid":"2fb261c2f9de97c43702b9d85b1817d06d2c6eb7","fields":{"nom_de_la_commune":"GENNEVILLE","libell_d_acheminement":"GENNEVILLE","code_postal":"14600","coordonnees_gps":[49.3598603886,0.273712320272],"code_commune_insee":"14299"},"geometry":{"type":"Point","coordinates":[0.273712320272,49.3598603886]},"record_timestamp":"2016-05-09T15:17:00+02:00"},{"datasetid":"laposte_hexasmal","recordid":"190c6f790a65ec11931e381cc7c87e02d04f67e7","fields":{"nom_de_la_commune":"GIBERVILLE","libell_d_acheminement":"GIBERVILLE","code_postal":"14730","coordonnees_gps":[49.1781576948,-0.285160708636],"code_commune_insee":"14301"},"geometry":{"type":"Point","coordinates":[-0.285160708636,49.1781576948]},"record_timestamp":"2016-05-09T15:17:00+02:00"},{"datasetid":"laposte_hexasmal","recordid":"bd54f9c7f9787326a2ff0984f659b53ab98cf7f6","fields":{"nom_de_la_commune":"GLANVILLE","libell_d_acheminement":"GLANVILLE","code_postal":"14950","coordonnees_gps":[49.2767710581,0.0750189891546],"code_commune_insee":"14302"},"geometry":{"type":"Point","coordinates":[0.0750189891546,49.2767710581]},"record_timestamp":"2016-05-09T15:17:00+02:00"},{"datasetid":"laposte_hexasmal","recordid":"d99102ee2b171732ec6cf7a77785836786288a31","fields":{"nom_de_la_commune":"GONNEVILLE SUR MER","libell_d_acheminement":"GONNEVILLE SUR MER","code_postal":"14510","coordonnees_gps":[49.2895459348,-0.0363153826405],"code_commune_insee":"14305"},"geometry":{"type":"Point","coordinates":[-0.0363153826405,49.2895459348]},"record_timestamp":"2016-05-09T15:17:00+02:00"},{"datasetid":"laposte_hexasmal","recordid":"3c36a6ba5d3532ac1c9ebef355e8e6afad4a9c71","fields":{"nom_de_la_commune":"GONNEVILLE EN AUGE","libell_d_acheminement":"GONNEVILLE EN AUGE","code_postal":"14810","coordonnees_gps":[49.2592446922,-0.188358824575],"code_commune_insee":"14306"},"geometry":{"type":"Point","coordinates":[-0.188358824575,49.2592446922]},"record_timestamp":"2016-05-09T15:17:00+02:00"},{"datasetid":"laposte_hexasmal","recordid":"acf1629facb3e5da0d5a96a12354fb7c4b788fe4","fields":{"nom_de_la_commune":"GRAINVILLE LANGANNERIE","libell_d_acheminement":"GRAINVILLE LANGANNERIE","code_postal":"14190","coordonnees_gps":[49.009033334,-0.271865445173],"code_commune_insee":"14310"},"geometry":{"type":"Point","coordinates":[-0.271865445173,49.009033334]},"record_timestamp":"2016-05-09T15:17:00+02:00"},{"datasetid":"laposte_hexasmal","recordid":"af84b3029010b3599be88ab3e075e6c825ab574f","fields":{"nom_de_la_commune":"GRAINVILLE SUR ODON","libell_d_acheminement":"GRAINVILLE SUR ODON","code_postal":"14210","coordonnees_gps":[49.1386270116,-0.531672189444],"code_commune_insee":"14311"},"geometry":{"type":"Point","coordinates":[-0.531672189444,49.1386270116]},"record_timestamp":"2016-05-09T15:17:00+02:00"},{"datasetid":"laposte_hexasmal","recordid":"3125c9669bc3b0f0b47a4ae0c3ff64e25ede9c12","fields":{"nom_de_la_commune":"GRANDCAMP MAISY","libell_d_acheminement":"GRANDCAMP MAISY","code_postal":"14450","coordonnees_gps":[49.3754390087,-1.04464900141],"code_commune_insee":"14312"},"geometry":{"type":"Point","coordinates":[-1.04464900141,49.3754390087]},"record_timestamp":"2016-05-09T15:17:00+02:00"},{"datasetid":"laposte_hexasmal","recordid":"1c36e941439b3fc0352bda086d80facd1d46d281","fields":{"nom_de_la_commune":"GRAYE SUR MER","libell_d_acheminement":"GRAYE SUR MER","code_postal":"14470","coordonnees_gps":[49.3293694096,-0.486683718791],"code_commune_insee":"14318"},"geometry":{"type":"Point","coordinates":[-0.486683718791,49.3293694096]},"record_timestamp":"2016-05-09T15:17:00+02:00"},{"datasetid":"laposte_hexasmal","recordid":"874b250d3b4855d8062459f2feb1bf2c00ceff0a","fields":{"nom_de_la_commune":"HEROUVILLETTE","libell_d_acheminement":"HEROUVILLETTE","code_postal":"14850","coordonnees_gps":[49.2140427905,-0.260172250622],"code_commune_insee":"14328"},"geometry":{"type":"Point","coordinates":[-0.260172250622,49.2140427905]},"record_timestamp":"2016-05-09T15:17:00+02:00"},{"datasetid":"laposte_hexasmal","recordid":"d61442d186a737f4548ea7957919c30e69f2d604","fields":{"nom_de_la_commune":"LESSARD ET LE CHENE","libell_d_acheminement":"LESSARD ET LE CHENE","code_postal":"14140","coordonnees_gps":[49.0709184093,0.13127569904],"code_commune_insee":"14362"},"geometry":{"type":"Point","coordinates":[0.13127569904,49.0709184093]},"record_timestamp":"2016-05-09T15:17:00+02:00"},{"datasetid":"laposte_hexasmal","recordid":"84e2090e3fe430c23d2c14939a80e93c9ad345c0","fields":{"code_postal":"14140","code_commune_insee":"14371","libell_d_acheminement":"LIVAROT PAYS D AUGE","ligne_5":"AUQUAINVILLE","nom_de_la_commune":"LIVAROT PAYS D AUGE","coordonnees_gps":[49.005159699,0.165980940625]},"geometry":{"type":"Point","coordinates":[0.165980940625,49.005159699]},"record_timestamp":"2016-05-09T15:17:00+02:00"},{"datasetid":"laposte_hexasmal","recordid":"865cdcd69f710a285e94d34d03e5b65a4ad59a38","fields":{"code_postal":"14140","code_commune_insee":"14371","libell_d_acheminement":"LIVAROT PAYS D AUGE","ligne_5":"HEURTEVENT","nom_de_la_commune":"LIVAROT PAYS D AUGE","coordonnees_gps":[49.005159699,0.165980940625]},"geometry":{"type":"Point","coordinates":[0.165980940625,49.005159699]},"record_timestamp":"2016-05-09T15:17:00+02:00"},{"datasetid":"laposte_hexasmal","recordid":"7c0282637e8afdd45967c62f8a275f74bf25865f","fields":{"nom_de_la_commune":"LONGRAYE","libell_d_acheminement":"LONGRAYE","code_postal":"14250","coordonnees_gps":[49.1553645742,-0.700865082734],"code_commune_insee":"14376"},"geometry":{"type":"Point","coordinates":[-0.700865082734,49.1553645742]},"record_timestamp":"2016-05-09T15:17:00+02:00"},{"datasetid":"laposte_hexasmal","recordid":"a2ab32087d25f59bd147b4528d27420cc22ecbd2","fields":{"nom_de_la_commune":"LOUVAGNY","libell_d_acheminement":"LOUVAGNY","code_postal":"14170","coordonnees_gps":[48.9501421231,-0.0465642056704],"code_commune_insee":"14381"},"geometry":{"type":"Point","coordinates":[-0.0465642056704,48.9501421231]},"record_timestamp":"2016-05-09T15:17:00+02:00"},{"datasetid":"laposte_hexasmal","recordid":"e29be8786cf3a7881d37645c458584696b65f6db","fields":{"nom_de_la_commune":"MAISONCELLES PELVEY","libell_d_acheminement":"MAISONCELLES PELVEY","code_postal":"14310","coordonnees_gps":[49.059284458,-0.672639126991],"code_commune_insee":"14389"},"geometry":{"type":"Point","coordinates":[-0.672639126991,49.059284458]},"record_timestamp":"2016-05-09T15:17:00+02:00"},{"datasetid":"laposte_hexasmal","recordid":"2d58dea5a2d45409038fac1985b6e298d8ecbbc3","fields":{"nom_de_la_commune":"MANVIEUX","libell_d_acheminement":"MANVIEUX","code_postal":"14117","coordonnees_gps":[49.337721845,-0.658662548383],"code_commune_insee":"14401"},"geometry":{"type":"Point","coordinates":[-0.658662548383,49.337721845]},"record_timestamp":"2016-05-09T15:17:00+02:00"},{"datasetid":"laposte_hexasmal","recordid":"b8a9a68f137df98a91795fa2b19b0bdfadc62ceb","fields":{"nom_de_la_commune":"MARTRAGNY","libell_d_acheminement":"MARTRAGNY","code_postal":"14740","coordonnees_gps":[49.2486390509,-0.60137367329],"code_commune_insee":"14406"},"geometry":{"type":"Point","coordinates":[-0.60137367329,49.2486390509]},"record_timestamp":"2016-05-09T15:17:00+02:00"},{"datasetid":"laposte_hexasmal","recordid":"845689b1b0536fa80dec18bbd78fddfbd124a229","fields":{"nom_de_la_commune":"MATHIEU","libell_d_acheminement":"MATHIEU","code_postal":"14920","coordonnees_gps":[49.2562339956,-0.366730572403],"code_commune_insee":"14407"},"geometry":{"type":"Point","coordinates":[-0.366730572403,49.2562339956]},"record_timestamp":"2016-05-09T15:17:00+02:00"},{"datasetid":"laposte_hexasmal","recordid":"680e968efb30f260200cf56df7f50f1160786f2a","fields":{"nom_de_la_commune":"MESLAY","libell_d_acheminement":"MESLAY","code_postal":"14220","coordonnees_gps":[48.9539488574,-0.392456343862],"code_commune_insee":"14411"},"geometry":{"type":"Point","coordinates":[-0.392456343862,48.9539488574]},"record_timestamp":"2016-05-09T15:17:00+02:00"},{"datasetid":"laposte_hexasmal","recordid":"d5ec26eff4a8f413d83939dbc09461829ad63d25","fields":{"code_postal":"14270","code_commune_insee":"14422","libell_d_acheminement":"LE MESNIL MAUGER","ligne_5":"ECAJEUL","nom_de_la_commune":"LE MESNIL MAUGER","coordonnees_gps":[49.0767957339,0.0108836841983]},"geometry":{"type":"Point","coordinates":[0.0108836841983,49.0767957339]},"record_timestamp":"2016-05-09T15:17:00+02:00"},{"datasetid":"laposte_hexasmal","recordid":"26283aebd6fca1c6822421c2f470b33eb7118c7e","fields":{"nom_de_la_commune":"MONDRAINVILLE","libell_d_acheminement":"MONDRAINVILLE","code_postal":"14210","coordonnees_gps":[49.1419945444,-0.512296020857],"code_commune_insee":"14438"},"geometry":{"type":"Point","coordinates":[-0.512296020857,49.1419945444]},"record_timestamp":"2016-05-09T15:17:00+02:00"},{"datasetid":"laposte_hexasmal","recordid":"c696c2eedb04ab78a05de5891ad33f1bce5ff877","fields":{"nom_de_la_commune":"MONTVIETTE","libell_d_acheminement":"MONTVIETTE","code_postal":"14140","coordonnees_gps":[48.9903291551,0.0966905733575],"code_commune_insee":"14450"},"geometry":{"type":"Point","coordinates":[0.0966905733575,48.9903291551]},"record_timestamp":"2016-05-09T15:17:00+02:00"},{"datasetid":"laposte_hexasmal","recordid":"ef23db5d84918f276c62c83c16176dd3a3afe543","fields":{"nom_de_la_commune":"NORON LA POTERIE","libell_d_acheminement":"NORON LA POTERIE","code_postal":"14490","coordonnees_gps":[49.2239444771,-0.775339384776],"code_commune_insee":"14468"},"geometry":{"type":"Point","coordinates":[-0.775339384776,49.2239444771]},"record_timestamp":"2016-05-09T15:17:00+02:00"},{"datasetid":"laposte_hexasmal","recordid":"9ef5b0e468c408195d85323c4f0df7af9ef3a7d9","fields":{"code_postal":"14340","code_commune_insee":"14474","libell_d_acheminement":"NOTRE DAME D ESTREES CORBON","ligne_5":"CORBON","nom_de_la_commune":"NOTRE DAME D ESTREES CORBON","coordonnees_gps":[49.1354583044,-0.00148553423555]},"geometry":{"type":"Point","coordinates":[-0.00148553423555,49.1354583044]},"record_timestamp":"2016-05-09T15:17:00+02:00"},{"datasetid":"laposte_hexasmal","recordid":"005178efa49190265e6ee2e3c791e98021019684","fields":{"nom_de_la_commune":"NOYERS MISSY","libell_d_acheminement":"NOYERS MISSY","code_postal":"14210","coordonnees_gps":[49.1241683725,-0.575352839603],"code_commune_insee":"14475"},"geometry":{"type":"Point","coordinates":[-0.575352839603,49.1241683725]},"record_timestamp":"2016-05-09T15:17:00+02:00"},{"datasetid":"laposte_hexasmal","recordid":"e3ed37dc72fe06eb1780d837fe0c9232abc5615d","fields":{"nom_de_la_commune":"OUISTREHAM","libell_d_acheminement":"OUISTREHAM","code_postal":"14150","coordonnees_gps":[49.2745280107,-0.257718317859],"code_commune_insee":"14488"},"geometry":{"type":"Point","coordinates":[-0.257718317859,49.2745280107]},"record_timestamp":"2016-05-09T15:17:00+02:00"},{"datasetid":"laposte_hexasmal","recordid":"ddae4643fba9db1a6349fa3843ea35680a0b36e1","fields":{"code_postal":"14520","code_commune_insee":"14515","libell_d_acheminement":"PORT EN BESSIN HUPPAIN","ligne_5":"HUPPAIN","nom_de_la_commune":"PORT EN BESSIN HUPPAIN","coordonnees_gps":[49.3396014282,-0.772708434394]},"geometry":{"type":"Point","coordinates":[-0.772708434394,49.3396014282]},"record_timestamp":"2016-05-09T15:17:00+02:00"},{"datasetid":"laposte_hexasmal","recordid":"b1c6d6a65a0ee0a858f150c2c563ef89054c0629","fields":{"nom_de_la_commune":"LE PRE D AUGE","libell_d_acheminement":"LE PRE D AUGE","code_postal":"14340","coordonnees_gps":[49.1496506404,0.145754077347],"code_commune_insee":"14520"},"geometry":{"type":"Point","coordinates":[0.145754077347,49.1496506404]},"record_timestamp":"2016-05-09T15:17:00+02:00"},{"datasetid":"laposte_hexasmal","recordid":"9b12d028ad48b8e56af93db31d0438052c674570","fields":{"nom_de_la_commune":"PRETREVILLE","libell_d_acheminement":"PRETREVILLE","code_postal":"14140","coordonnees_gps":[49.0722122018,0.25860530707],"code_commune_insee":"14522"},"geometry":{"type":"Point","coordinates":[0.25860530707,49.0722122018]},"record_timestamp":"2016-05-09T15:17:00+02:00"},{"datasetid":"laposte_hexasmal","recordid":"5f262433200b0ff9d053461035409d34baf9645d","fields":{"code_postal":"14270","code_commune_insee":"14527","libell_d_acheminement":"BIEVILLE QUETIEVILLE","ligne_5":"BIEVILLE EN AUGE","nom_de_la_commune":"BIEVILLE QUETIEVILLE","coordonnees_gps":[49.116121463,-0.0357079622156]},"geometry":{"type":"Point","coordinates":[-0.0357079622156,49.116121463]},"record_timestamp":"2016-05-09T15:17:00+02:00"},{"datasetid":"laposte_hexasmal","recordid":"9370dac7fcc64cfbaa094391a2ea2c32b37eb1ab","fields":{"nom_de_la_commune":"RANCHY","libell_d_acheminement":"RANCHY","code_postal":"14400","coordonnees_gps":[49.2552732659,-0.763716555064],"code_commune_insee":"14529"},"geometry":{"type":"Point","coordinates":[-0.763716555064,49.2552732659]},"record_timestamp":"2016-05-09T15:17:00+02:00"},{"datasetid":"laposte_hexasmal","recordid":"bdd013ffa02abef4af5505be2fbb05a8a83939a7","fields":{"nom_de_la_commune":"ROCQUANCOURT","libell_d_acheminement":"ROCQUANCOURT","code_postal":"14540","coordonnees_gps":[49.0957571442,-0.317250308981],"code_commune_insee":"14538"},"geometry":{"type":"Point","coordinates":[-0.317250308981,49.0957571442]},"record_timestamp":"2016-05-09T15:17:00+02:00"},{"datasetid":"laposte_hexasmal","recordid":"00f22a574862aee54e3ea09c57c56c790186c209","fields":{"nom_de_la_commune":"RUBERCY","libell_d_acheminement":"RUBERCY","code_postal":"14710","coordonnees_gps":[49.2852909859,-0.886321608466],"code_commune_insee":"14547"},"geometry":{"type":"Point","coordinates":[-0.886321608466,49.2852909859]},"record_timestamp":"2016-05-09T15:17:00+02:00"},{"datasetid":"laposte_hexasmal","recordid":"49d24882174426c0b966ff45be94d8b3051179c7","fields":{"nom_de_la_commune":"RUMESNIL","libell_d_acheminement":"RUMESNIL","code_postal":"14340","coordonnees_gps":[49.1862090569,0.0220779097884],"code_commune_insee":"14550"},"geometry":{"type":"Point","coordinates":[0.0220779097884,49.1862090569]},"record_timestamp":"2016-05-09T15:17:00+02:00"},{"datasetid":"laposte_hexasmal","recordid":"e44870e401e0483f4280335d74f43a0f9284b400","fields":{"nom_de_la_commune":"ST COME DE FRESNE","libell_d_acheminement":"ST COME DE FRESNE","code_postal":"14960","coordonnees_gps":[49.3265345546,-0.602210066475],"code_commune_insee":"14565"},"geometry":{"type":"Point","coordinates":[-0.602210066475,49.3265345546]},"record_timestamp":"2016-05-09T15:17:00+02:00"},{"datasetid":"laposte_hexasmal","recordid":"b2fafd3509dde7aebdd79004b55d21335fed3f19","fields":{"code_postal":"14290","code_commune_insee":"14570","libell_d_acheminement":"VALORBIQUET","ligne_5":"LA CHAPELLE YVON","nom_de_la_commune":"VALORBIQUET","coordonnees_gps":[49.0508380133,0.301847275517]},"geometry":{"type":"Point","coordinates":[0.301847275517,49.0508380133]},"record_timestamp":"2016-05-09T15:17:00+02:00"},{"datasetid":"laposte_hexasmal","recordid":"615c8a15c2eb949cc2cb668c6055e0e076d58a84","fields":{"code_postal":"14290","code_commune_insee":"14570","libell_d_acheminement":"VALORBIQUET","ligne_5":"ST JULIEN DE MAILLOC","nom_de_la_commune":"VALORBIQUET","coordonnees_gps":[49.0508380133,0.301847275517]},"geometry":{"type":"Point","coordinates":[0.301847275517,49.0508380133]},"record_timestamp":"2016-05-09T15:17:00+02:00"},{"datasetid":"laposte_hexasmal","recordid":"8d46d3a148cfe87b15f68c2e8d9a052ccc75e8f0","fields":{"nom_de_la_commune":"ST ETIENNE LA THILLAYE","libell_d_acheminement":"ST ETIENNE LA THILLAYE","code_postal":"14950","coordonnees_gps":[49.2916915945,0.117829362713],"code_commune_insee":"14575"},"geometry":{"type":"Point","coordinates":[0.117829362713,49.2916915945]},"record_timestamp":"2016-05-09T15:17:00+02:00"},{"datasetid":"laposte_hexasmal","recordid":"8d9104056b86494c0cfd1be4cbd32536b217d611","fields":{"code_postal":"14140","code_commune_insee":"14576","libell_d_acheminement":"VAL DE VIE","ligne_5":"LA BREVIERE","nom_de_la_commune":"VAL DE VIE","coordonnees_gps":[48.9587088015,0.163639221018]},"geometry":{"type":"Point","coordinates":[0.163639221018,48.9587088015]},"record_timestamp":"2016-05-09T15:17:00+02:00"},{"datasetid":"laposte_hexasmal","recordid":"9e8032c75be53a397dced638976b1a24fb5419a7","fields":{"code_postal":"14140","code_commune_insee":"14576","libell_d_acheminement":"VAL DE VIE","ligne_5":"LA CHAPELLE HAUTE GRUE","nom_de_la_commune":"VAL DE VIE","coordonnees_gps":[48.9587088015,0.163639221018]},"geometry":{"type":"Point","coordinates":[0.163639221018,48.9587088015]},"record_timestamp":"2016-05-09T15:17:00+02:00"},{"datasetid":"laposte_hexasmal","recordid":"dd03d97e8fb63db7f3fc27657efb3052d475ae2b","fields":{"nom_de_la_commune":"ST GATIEN DES BOIS","libell_d_acheminement":"ST GATIEN DES BOIS","code_postal":"14130","coordonnees_gps":[49.3508650728,0.186845848605],"code_commune_insee":"14578"},"geometry":{"type":"Point","coordinates":[0.186845848605,49.3508650728]},"record_timestamp":"2016-05-09T15:17:00+02:00"},{"datasetid":"laposte_hexasmal","recordid":"b4401e09078c2b366376519c3993187c99987053","fields":{"code_postal":"14310","code_commune_insee":"14579","libell_d_acheminement":"SEULLINE","ligne_5":"COULVAIN","nom_de_la_commune":"SEULLINE","coordonnees_gps":[49.0267772033,-0.688629006888]},"geometry":{"type":"Point","coordinates":[-0.688629006888,49.0267772033]},"record_timestamp":"2016-05-09T15:17:00+02:00"},{"datasetid":"laposte_hexasmal","recordid":"5da98824c4344a25414a752f1df3463f296aafb8","fields":{"nom_de_la_commune":"ST GEORGES EN AUGE","libell_d_acheminement":"ST GEORGES EN AUGE","code_postal":"14140","coordonnees_gps":[48.9884638353,0.0708706526618],"code_commune_insee":"14580"},"geometry":{"type":"Point","coordinates":[0.0708706526618,48.9884638353]},"record_timestamp":"2016-05-09T15:17:00+02:00"},{"datasetid":"laposte_hexasmal","recordid":"224456dd3c3475e30add5901286f48f05b2b1a74","fields":{"nom_de_la_commune":"ST GERMAIN D ECTOT","libell_d_acheminement":"ST GERMAIN D ECTOT","code_postal":"14240","coordonnees_gps":[49.1192443801,-0.715560792439],"code_commune_insee":"14581"},"geometry":{"type":"Point","coordinates":[-0.715560792439,49.1192443801]},"record_timestamp":"2016-05-09T15:17:00+02:00"},{"datasetid":"laposte_hexasmal","recordid":"56e75f011b17f0f4f930c0f4a087c0452a46a620","fields":{"nom_de_la_commune":"STE HONORINE DES PERTES","libell_d_acheminement":"STE HONORINE DES PERTES","code_postal":"14520","coordonnees_gps":[49.346789785,-0.810432609525],"code_commune_insee":"14591"},"geometry":{"type":"Point","coordinates":[-0.810432609525,49.346789785]},"record_timestamp":"2016-05-09T15:17:00+02:00"},{"datasetid":"laposte_hexasmal","recordid":"f7649164b50ebebb30eafaaf3fcffc916b7cb51a","fields":{"nom_de_la_commune":"ST JOUIN","libell_d_acheminement":"ST JOUIN","code_postal":"14430","coordonnees_gps":[49.2175501244,-0.0129782416911],"code_commune_insee":"14598"},"geometry":{"type":"Point","coordinates":[-0.0129782416911,49.2175501244]},"record_timestamp":"2016-05-09T15:17:00+02:00"},{"datasetid":"laposte_hexasmal","recordid":"4666a01ea8baa5932f04f527bb9a43c2947a0010","fields":{"nom_de_la_commune":"ST LAURENT DU MONT","libell_d_acheminement":"ST LAURENT DU MONT","code_postal":"14340","coordonnees_gps":[49.1404300823,0.0272509600156],"code_commune_insee":"14604"},"geometry":{"type":"Point","coordinates":[0.0272509600156,49.1404300823]},"record_timestamp":"2016-05-09T15:17:00+02:00"},{"datasetid":"laposte_hexasmal","recordid":"06397d21a387ae7608035f789c09abcf7192a0df","fields":{"code_postal":"14290","code_commune_insee":"14621","libell_d_acheminement":"ST MARTIN BIENFAITE CRESSONNIERE","ligne_5":"LA CRESSONNIERE","nom_de_la_commune":"ST MARTIN DE BIENFAITE LA CRESSONNIERE","coordonnees_gps":[49.0328920711,0.352774402255]},"geometry":{"type":"Point","coordinates":[0.352774402255,49.0328920711]},"record_timestamp":"2016-05-09T15:17:00+02:00"},{"datasetid":"laposte_hexasmal","recordid":"3a23ae2742175a4bf2e20b1a803c38bde111d509","fields":{"nom_de_la_commune":"ST MARTIN DE FONTENAY","libell_d_acheminement":"ST MARTIN DE FONTENAY","code_postal":"14320","coordonnees_gps":[49.1146147135,-0.351793766031],"code_commune_insee":"14623"},"geometry":{"type":"Point","coordinates":[-0.351793766031,49.1146147135]},"record_timestamp":"2016-05-09T15:17:00+02:00"},{"datasetid":"laposte_hexasmal","recordid":"fad8c0b698ad9e0fe9a9fe43b43828ed523b5607","fields":{"nom_de_la_commune":"ST MARTIN DE MAILLOC","libell_d_acheminement":"ST MARTIN DE MAILLOC","code_postal":"14100","coordonnees_gps":[49.088406569,0.286444688377],"code_commune_insee":"14626"},"geometry":{"type":"Point","coordinates":[0.286444688377,49.088406569]},"record_timestamp":"2016-05-09T15:17:00+02:00"},{"datasetid":"laposte_hexasmal","recordid":"fb9e09b35adc7d2cc97f6f2ba59b2c114868d6ac","fields":{"nom_de_la_commune":"ST MARTIN DES ENTREES","libell_d_acheminement":"ST MARTIN DES ENTREES","code_postal":"14400","coordonnees_gps":[49.2574506991,-0.664949215648],"code_commune_insee":"14630"},"geometry":{"type":"Point","coordinates":[-0.664949215648,49.2574506991]},"record_timestamp":"2016-05-09T15:17:00+02:00"},{"datasetid":"laposte_hexasmal","recordid":"26e1e86afe6b7b5e1d0c80205f370bed8605ab25","fields":{"nom_de_la_commune":"ST PIERRE DES IFS","libell_d_acheminement":"ST PIERRE DES IFS","code_postal":"14100","coordonnees_gps":[49.1146186654,0.161876822628],"code_commune_insee":"14648"},"geometry":{"type":"Point","coordinates":[0.161876822628,49.1146186654]},"record_timestamp":"2016-05-09T15:17:00+02:00"},{"datasetid":"laposte_hexasmal","recordid":"419b4e701714639c614e28507a45d659e8420a88","fields":{"nom_de_la_commune":"ST PIERRE DU BU","libell_d_acheminement":"ST PIERRE DU BU","code_postal":"14700","coordonnees_gps":[48.8646040738,-0.204189427047],"code_commune_insee":"14649"},"geometry":{"type":"Point","coordinates":[-0.204189427047,48.8646040738]},"record_timestamp":"2016-05-09T15:17:00+02:00"},{"datasetid":"laposte_hexasmal","recordid":"83d38a6aa82736e69b9f0aa7eb0263f351741cfb","fields":{"nom_de_la_commune":"ST PIERRE DU MONT","libell_d_acheminement":"ST PIERRE DU MONT","code_postal":"14450","coordonnees_gps":[49.3811236375,-0.975198693862],"code_commune_insee":"14652"},"geometry":{"type":"Point","coordinates":[-0.975198693862,49.3811236375]},"record_timestamp":"2016-05-09T15:17:00+02:00"},{"datasetid":"laposte_hexasmal","recordid":"84010f4a8a5c098a981bd07f16fc77b720cb1ef7","fields":{"nom_de_la_commune":"ST PIERRE SUR DIVES","libell_d_acheminement":"ST PIERRE SUR DIVES","code_postal":"14170","coordonnees_gps":[49.0158504483,-0.0407749520168],"code_commune_insee":"14654"},"geometry":{"type":"Point","coordinates":[-0.0407749520168,49.0158504483]},"record_timestamp":"2016-05-09T15:17:00+02:00"},{"datasetid":"laposte_hexasmal","recordid":"1929e52b2875c4b016553ebc10901a36094325b3","fields":{"nom_de_la_commune":"ST VIGOR DES MEZERETS","libell_d_acheminement":"ST VIGOR DES MEZERETS","code_postal":"14770","coordonnees_gps":[48.9033619946,-0.633433708602],"code_commune_insee":"14662"},"geometry":{"type":"Point","coordinates":[-0.633433708602,48.9033619946]},"record_timestamp":"2016-05-09T15:17:00+02:00"},{"datasetid":"laposte_hexasmal","recordid":"b8b257f80f6b30ed1fe9d0f8f6a0531733f1556b","fields":{"nom_de_la_commune":"ST VIGOR LE GRAND","libell_d_acheminement":"ST VIGOR LE GRAND","code_postal":"14400","coordonnees_gps":[49.2877194467,-0.676858813101],"code_commune_insee":"14663"},"geometry":{"type":"Point","coordinates":[-0.676858813101,49.2877194467]},"record_timestamp":"2016-05-09T15:17:00+02:00"},{"datasetid":"laposte_hexasmal","recordid":"7ee64c2d23b64382ccad653ecbb532dc0417ca63","fields":{"nom_de_la_commune":"SAON","libell_d_acheminement":"SAON","code_postal":"14330","coordonnees_gps":[49.2713788041,-0.863001782916],"code_commune_insee":"14667"},"geometry":{"type":"Point","coordinates":[-0.863001782916,49.2713788041]},"record_timestamp":"2016-05-09T15:17:00+02:00"},{"datasetid":"laposte_hexasmal","recordid":"4ce7558605cdb4695386a5720398294f551ebc32","fields":{"nom_de_la_commune":"SAONNET","libell_d_acheminement":"SAONNET","code_postal":"14330","coordonnees_gps":[49.2721933862,-0.880981294808],"code_commune_insee":"14668"},"geometry":{"type":"Point","coordinates":[-0.880981294808,49.2721933862]},"record_timestamp":"2016-05-09T15:17:00+02:00"},{"datasetid":"laposte_hexasmal","recordid":"7078bc89c84ec145370ef0dda8600c63eec63d34","fields":{"nom_de_la_commune":"SEPT FRERES","libell_d_acheminement":"SEPT FRERES","code_postal":"14380","coordonnees_gps":[48.8642009505,-1.04020263222],"code_commune_insee":"14671"},"geometry":{"type":"Point","coordinates":[-1.04020263222,48.8642009505]},"record_timestamp":"2016-05-09T15:17:00+02:00"},{"datasetid":"laposte_hexasmal","recordid":"80425679ccc064c7f0ccfcfa4a31862d1753a132","fields":{"nom_de_la_commune":"SOIGNOLLES","libell_d_acheminement":"SOIGNOLLES","code_postal":"14190","coordonnees_gps":[49.0293562485,-0.216616984997],"code_commune_insee":"14674"},"geometry":{"type":"Point","coordinates":[-0.216616984997,49.0293562485]},"record_timestamp":"2016-05-09T15:17:00+02:00"},{"datasetid":"laposte_hexasmal","recordid":"005b95eb576b3d0b0b5e5246be38bf73b34a8297","fields":{"nom_de_la_commune":"SOULANGY","libell_d_acheminement":"SOULANGY","code_postal":"14700","coordonnees_gps":[48.9404810595,-0.213994560503],"code_commune_insee":"14677"},"geometry":{"type":"Point","coordinates":[-0.213994560503,48.9404810595]},"record_timestamp":"2016-05-09T15:17:00+02:00"},{"datasetid":"laposte_hexasmal","recordid":"6e00b4f7f1ca3d432e632ed4c5014ea38a646a73","fields":{"nom_de_la_commune":"SOUMONT ST QUENTIN","libell_d_acheminement":"SOUMONT ST QUENTIN","code_postal":"14420","coordonnees_gps":[48.979239508,-0.234726368793],"code_commune_insee":"14678"},"geometry":{"type":"Point","coordinates":[-0.234726368793,48.979239508]},"record_timestamp":"2016-05-09T15:17:00+02:00"},{"datasetid":"laposte_hexasmal","recordid":"011ecc26e3f3cf1b1e4ff3ab822dd4727be63375","fields":{"nom_de_la_commune":"SULLY","libell_d_acheminement":"SULLY","code_postal":"14400","coordonnees_gps":[49.3003989779,-0.741732815376],"code_commune_insee":"14680"},"geometry":{"type":"Point","coordinates":[-0.741732815376,49.3003989779]},"record_timestamp":"2016-05-09T15:17:00+02:00"},{"datasetid":"laposte_hexasmal","recordid":"7ef9863c0bc61b02a5547c93161d7d5c56d33287","fields":{"nom_de_la_commune":"THIEVILLE","libell_d_acheminement":"THIEVILLE","code_postal":"14170","coordonnees_gps":[49.0367142903,-0.0442398501483],"code_commune_insee":"14688"},"geometry":{"type":"Point","coordinates":[-0.0442398501483,49.0367142903]},"record_timestamp":"2016-05-09T15:17:00+02:00"},{"datasetid":"laposte_hexasmal","recordid":"e128eb8c0b68ba75c26f878ff41ba320c1ea697f","fields":{"code_postal":"14240","code_commune_insee":"14695","libell_d_acheminement":"TORTEVAL QUESNAY","ligne_5":"QUESNAY GUESNON","nom_de_la_commune":"TORTEVAL QUESNAY","coordonnees_gps":[49.1498130853,-0.730039004181]},"geometry":{"type":"Point","coordinates":[-0.730039004181,49.1498130853]},"record_timestamp":"2016-05-09T15:17:00+02:00"},{"datasetid":"laposte_hexasmal","recordid":"f852e37ef0a39b2cd2ee40297d4acf912e8fd491","fields":{"nom_de_la_commune":"L OUDON","libell_d_acheminement":"L OUDON","code_postal":"14170","coordonnees_gps":[48.9626128498,0.0329429977996],"code_commune_insee":"14697"},"geometry":{"type":"Point","coordinates":[0.0329429977996,48.9626128498]},"record_timestamp":"2016-05-09T15:17:00+02:00"},{"datasetid":"laposte_hexasmal","recordid":"3853784bf4a5d8c9cbd88acfa4318ffe2ee72a6d","fields":{"code_postal":"14170","code_commune_insee":"14697","libell_d_acheminement":"L OUDON","ligne_5":"ECOTS","nom_de_la_commune":"L OUDON","coordonnees_gps":[48.9626128498,0.0329429977996]},"geometry":{"type":"Point","coordinates":[0.0329429977996,48.9626128498]},"record_timestamp":"2016-05-09T15:17:00+02:00"},{"datasetid":"laposte_hexasmal","recordid":"bec1c55ba46668997c171f79324570ef2f148d58","fields":{"code_postal":"14170","code_commune_insee":"14697","libell_d_acheminement":"L OUDON","ligne_5":"GARNETOT","nom_de_la_commune":"L OUDON","coordonnees_gps":[48.9626128498,0.0329429977996]},"geometry":{"type":"Point","coordinates":[0.0329429977996,48.9626128498]},"record_timestamp":"2016-05-09T15:17:00+02:00"},{"datasetid":"laposte_hexasmal","recordid":"253c2699609af9a8c92d5db58aaa3c40e444462f","fields":{"code_postal":"14170","code_commune_insee":"14697","libell_d_acheminement":"L OUDON","ligne_5":"LIEURY","nom_de_la_commune":"L OUDON","coordonnees_gps":[48.9626128498,0.0329429977996]},"geometry":{"type":"Point","coordinates":[0.0329429977996,48.9626128498]},"record_timestamp":"2016-05-09T15:17:00+02:00"},{"datasetid":"laposte_hexasmal","recordid":"bbc1c989b76edc19be47aa2fa8029ac29cac0535","fields":{"nom_de_la_commune":"TOURGEVILLE","libell_d_acheminement":"TOURGEVILLE","code_postal":"14800","coordonnees_gps":[49.3179026019,0.0798157742255],"code_commune_insee":"14701"},"geometry":{"type":"Point","coordinates":[0.0798157742255,49.3179026019]},"record_timestamp":"2016-05-09T15:17:00+02:00"},{"datasetid":"laposte_hexasmal","recordid":"f9dfc8604d6a217beb33c04340e355e04dc60c80","fields":{"nom_de_la_commune":"TOURVILLE SUR ODON","libell_d_acheminement":"TOURVILLE SUR ODON","code_postal":"14210","coordonnees_gps":[49.1370651902,-0.500682712982],"code_commune_insee":"14707"},"geometry":{"type":"Point","coordinates":[-0.500682712982,49.1370651902]},"record_timestamp":"2016-05-09T15:17:00+02:00"},{"datasetid":"laposte_hexasmal","recordid":"b5558e59918dbbf5851a25435bc0fa785105b7ad","fields":{"nom_de_la_commune":"TRACY BOCAGE","libell_d_acheminement":"TRACY BOCAGE","code_postal":"14310","coordonnees_gps":[49.0726320347,-0.689428412856],"code_commune_insee":"14708"},"geometry":{"type":"Point","coordinates":[-0.689428412856,49.0726320347]},"record_timestamp":"2016-05-09T15:17:00+02:00"},{"datasetid":"laposte_hexasmal","recordid":"6bffbc1b5be3351bf01533dbe43859c338e0bc08","fields":{"nom_de_la_commune":"TRUNGY","libell_d_acheminement":"TRUNGY","code_postal":"14490","coordonnees_gps":[49.1936866317,-0.722397448796],"code_commune_insee":"14716"},"geometry":{"type":"Point","coordinates":[-0.722397448796,49.1936866317]},"record_timestamp":"2016-05-09T15:17:00+02:00"},{"datasetid":"laposte_hexasmal","recordid":"4255c9bf11e19413d73415fa19ff74f2c1bc19ed","fields":{"nom_de_la_commune":"URVILLE","libell_d_acheminement":"URVILLE","code_postal":"14190","coordonnees_gps":[49.025159713,-0.29441724721],"code_commune_insee":"14719"},"geometry":{"type":"Point","coordinates":[-0.29441724721,49.025159713]},"record_timestamp":"2016-05-09T15:17:00+02:00"},{"datasetid":"laposte_hexasmal","recordid":"99ffa9ae1b28f353126948ef3e5cf92436a0c9d4","fields":{"code_postal":"14410","code_commune_insee":"14726","libell_d_acheminement":"VALDALLIERE","ligne_5":"LE THEIL BOCAGE","nom_de_la_commune":"VALDALLIERE","coordonnees_gps":[48.8636010778,-0.658303472061]},"geometry":{"type":"Point","coordinates":[-0.658303472061,48.8636010778]},"record_timestamp":"2016-05-09T15:17:00+02:00"},{"datasetid":"laposte_hexasmal","recordid":"b3e7703f7cf18304e5d3906c322f3af494d5cf44","fields":{"code_postal":"14410","code_commune_insee":"14726","libell_d_acheminement":"VALDALLIERE","ligne_5":"PRESLES","nom_de_la_commune":"VALDALLIERE","coordonnees_gps":[48.8636010778,-0.658303472061]},"geometry":{"type":"Point","coordinates":[-0.658303472061,48.8636010778]},"record_timestamp":"2016-05-09T15:17:00+02:00"},{"datasetid":"laposte_hexasmal","recordid":"6a6477d84da6bb866d53012de39b8c10bb80ba05","fields":{"code_postal":"14410","code_commune_insee":"14726","libell_d_acheminement":"VALDALLIERE","ligne_5":"RULLY","nom_de_la_commune":"VALDALLIERE","coordonnees_gps":[48.8636010778,-0.658303472061]},"geometry":{"type":"Point","coordinates":[-0.658303472061,48.8636010778]},"record_timestamp":"2016-05-09T15:17:00+02:00"},{"datasetid":"laposte_hexasmal","recordid":"4e4cf8f913633f08ceb4f9cfd5cef21eeb6d6711","fields":{"code_postal":"14410","code_commune_insee":"14726","libell_d_acheminement":"VALDALLIERE","ligne_5":"VASSY","nom_de_la_commune":"VALDALLIERE","coordonnees_gps":[48.8636010778,-0.658303472061]},"geometry":{"type":"Point","coordinates":[-0.658303472061,48.8636010778]},"record_timestamp":"2016-05-09T15:17:00+02:00"},{"datasetid":"laposte_hexasmal","recordid":"179521ba46f0ed48ae7c29e32bf34e1947b7cba2","fields":{"nom_de_la_commune":"VAUCELLES","libell_d_acheminement":"VAUCELLES","code_postal":"14400","coordonnees_gps":[49.2838991523,-0.735454508917],"code_commune_insee":"14728"},"geometry":{"type":"Point","coordinates":[-0.735454508917,49.2838991523]},"record_timestamp":"2016-05-09T15:17:00+02:00"},{"datasetid":"laposte_hexasmal","recordid":"6184a22138c8f057b2a23c1fe2023fe69a1f5ad6","fields":{"nom_de_la_commune":"VAUX SUR SEULLES","libell_d_acheminement":"VAUX SUR SEULLES","code_postal":"14400","coordonnees_gps":[49.2615529375,-0.627652636172],"code_commune_insee":"14733"},"geometry":{"type":"Point","coordinates":[-0.627652636172,49.2615529375]},"record_timestamp":"2016-05-09T15:17:00+02:00"},{"datasetid":"laposte_hexasmal","recordid":"9cf6a50af38e44ba6ebbbc7ca0e26904501498f0","fields":{"nom_de_la_commune":"VIENNE EN BESSIN","libell_d_acheminement":"VIENNE EN BESSIN","code_postal":"14400","coordonnees_gps":[49.2812059817,-0.627760995032],"code_commune_insee":"14744"},"geometry":{"type":"Point","coordinates":[-0.627760995032,49.2812059817]},"record_timestamp":"2016-05-09T15:17:00+02:00"},{"datasetid":"laposte_hexasmal","recordid":"d6039097f1a3f3a25cd7b221ac35691fb0815325","fields":{"nom_de_la_commune":"VIEUX FUME","libell_d_acheminement":"VIEUX FUME","code_postal":"14270","coordonnees_gps":[49.0611126926,-0.12942772433],"code_commune_insee":"14749"},"geometry":{"type":"Point","coordinates":[-0.12942772433,49.0611126926]},"record_timestamp":"2016-05-09T15:17:00+02:00"},{"datasetid":"laposte_hexasmal","recordid":"2db856d6de42303b8a578075d88ca2a5f14e6d27","fields":{"nom_de_la_commune":"VIGNATS","libell_d_acheminement":"VIGNATS","code_postal":"14700","coordonnees_gps":[48.8540077803,-0.102407702289],"code_commune_insee":"14751"},"geometry":{"type":"Point","coordinates":[-0.102407702289,48.8540077803]},"record_timestamp":"2016-05-09T15:17:00+02:00"},{"datasetid":"laposte_hexasmal","recordid":"99ac4b389532697ce6b1abd764a77d689e458251","fields":{"nom_de_la_commune":"VILLERS BOCAGE","libell_d_acheminement":"VILLERS BOCAGE","code_postal":"14310","coordonnees_gps":[49.0782420975,-0.652664428102],"code_commune_insee":"14752"},"geometry":{"type":"Point","coordinates":[-0.652664428102,49.0782420975]},"record_timestamp":"2016-05-09T15:17:00+02:00"},{"datasetid":"laposte_hexasmal","recordid":"e64df7550ae11b6e2f1417c4c4d80f8b943520c2","fields":{"nom_de_la_commune":"VILLERVILLE","libell_d_acheminement":"VILLERVILLE","code_postal":"14113","coordonnees_gps":[49.3908763153,0.123148235679],"code_commune_insee":"14755"},"geometry":{"type":"Point","coordinates":[0.123148235679,49.3908763153]},"record_timestamp":"2016-05-09T15:17:00+02:00"},{"datasetid":"laposte_hexasmal","recordid":"8ecbcc82fbc91cdea927d20226413faa4acc8fd0","fields":{"nom_de_la_commune":"AIGNERVILLE","libell_d_acheminement":"AIGNERVILLE","code_postal":"14710","coordonnees_gps":[49.3261867283,-0.918465184477],"code_commune_insee":"14004"},"geometry":{"type":"Point","coordinates":[-0.918465184477,49.3261867283]},"record_timestamp":"2016-05-09T15:17:00+02:00"},{"datasetid":"laposte_hexasmal","recordid":"518eb70dcddc60441e5c99ae2a02644f19bd3146","fields":{"nom_de_la_commune":"AIRAN","libell_d_acheminement":"AIRAN","code_postal":"14370","coordonnees_gps":[49.0953124219,-0.145440484479],"code_commune_insee":"14005"},"geometry":{"type":"Point","coordinates":[-0.145440484479,49.0953124219]},"record_timestamp":"2016-05-09T15:17:00+02:00"},{"datasetid":"laposte_hexasmal","recordid":"382142a7a1031d3e16f64f7a8bf74cd16b0aa67b","fields":{"nom_de_la_commune":"AMAYE SUR SEULLES","libell_d_acheminement":"AMAYE SUR SEULLES","code_postal":"14310","coordonnees_gps":[49.0820646121,-0.717699539626],"code_commune_insee":"14007"},"geometry":{"type":"Point","coordinates":[-0.717699539626,49.0820646121]},"record_timestamp":"2016-05-09T15:17:00+02:00"},{"datasetid":"laposte_hexasmal","recordid":"c9dae27ca0803c62f145e5f349c99c6a5ce12949","fields":{"code_postal":"14240","code_commune_insee":"14011","libell_d_acheminement":"ANCTOVILLE","ligne_5":"SERMENTOT","nom_de_la_commune":"ANCTOVILLE","coordonnees_gps":[49.1129887811,-0.690829418472]},"geometry":{"type":"Point","coordinates":[-0.690829418472,49.1129887811]},"record_timestamp":"2016-05-09T15:17:00+02:00"},{"datasetid":"laposte_hexasmal","recordid":"cef70021e84079b06603efe7ab3244e872d0053a","fields":{"nom_de_la_commune":"AUBIGNY","libell_d_acheminement":"AUBIGNY","code_postal":"14700","coordonnees_gps":[48.9145772293,-0.215543424215],"code_commune_insee":"14025"},"geometry":{"type":"Point","coordinates":[-0.215543424215,48.9145772293]},"record_timestamp":"2016-05-09T15:17:00+02:00"},{"datasetid":"laposte_hexasmal","recordid":"701c7a55bb13c4355eb09dfc8b0221b06173d50e","fields":{"nom_de_la_commune":"BAVENT","libell_d_acheminement":"BAVENT","code_postal":"14860","coordonnees_gps":[49.2260268215,-0.182663216453],"code_commune_insee":"14046"},"geometry":{"type":"Point","coordinates":[-0.182663216453,49.2260268215]},"record_timestamp":"2016-05-09T15:17:00+02:00"},{"datasetid":"laposte_hexasmal","recordid":"149680778ba7bce784bff062609adf7dbd820288","fields":{"nom_de_la_commune":"LA BAZOQUE","libell_d_acheminement":"LA BAZOQUE","code_postal":"14490","coordonnees_gps":[49.1535081338,-0.877591469858],"code_commune_insee":"14050"},"geometry":{"type":"Point","coordinates":[-0.877591469858,49.1535081338]},"record_timestamp":"2016-05-09T15:17:00+02:00"},{"datasetid":"laposte_hexasmal","recordid":"65eb05adaf6655a026445c0f98a2e814c437ee58","fields":{"nom_de_la_commune":"BEAUMESNIL","libell_d_acheminement":"BEAUMESNIL","code_postal":"14380","coordonnees_gps":[48.8967676433,-0.968365915831],"code_commune_insee":"14054"},"geometry":{"type":"Point","coordinates":[-0.968365915831,48.8967676433]},"record_timestamp":"2016-05-09T15:17:00+02:00"},{"datasetid":"laposte_hexasmal","recordid":"25431a3c131b9557ad11bba4fbe5dc21222859b8","fields":{"nom_de_la_commune":"BENERVILLE SUR MER","libell_d_acheminement":"BENERVILLE SUR MER","code_postal":"14910","coordonnees_gps":[49.3390106956,0.0477938566692],"code_commune_insee":"14059"},"geometry":{"type":"Point","coordinates":[0.0477938566692,49.3390106956]},"record_timestamp":"2016-05-09T15:17:00+02:00"},{"datasetid":"laposte_hexasmal","recordid":"4273f11d866fd7c6527afddc0f3fa8394b50bee6","fields":{"code_postal":"14260","code_commune_insee":"14061","libell_d_acheminement":"SOULEUVRE EN BOCAGE","ligne_5":"MONTAMY","nom_de_la_commune":"SOULEUVRE EN BOCAGE","coordonnees_gps":[48.9311056012,-0.829700488318]},"geometry":{"type":"Point","coordinates":[-0.829700488318,48.9311056012]},"record_timestamp":"2016-05-09T15:17:00+02:00"},{"datasetid":"laposte_hexasmal","recordid":"ccf8d8f36c057b3bb2bba186c5885abc436591da","fields":{"code_postal":"14350","code_commune_insee":"14061","libell_d_acheminement":"SOULEUVRE EN BOCAGE","ligne_5":"ETOUVY","nom_de_la_commune":"SOULEUVRE EN BOCAGE","coordonnees_gps":[48.9311056012,-0.829700488318]},"geometry":{"type":"Point","coordinates":[-0.829700488318,48.9311056012]},"record_timestamp":"2016-05-09T15:17:00+02:00"},{"datasetid":"laposte_hexasmal","recordid":"6008757001b398cc1feefeb03031700d721f34d2","fields":{"code_postal":"14350","code_commune_insee":"14061","libell_d_acheminement":"SOULEUVRE EN BOCAGE","ligne_5":"LA GRAVERIE","nom_de_la_commune":"SOULEUVRE EN BOCAGE","coordonnees_gps":[48.9311056012,-0.829700488318]},"geometry":{"type":"Point","coordinates":[-0.829700488318,48.9311056012]},"record_timestamp":"2016-05-09T15:17:00+02:00"},{"datasetid":"laposte_hexasmal","recordid":"c62e8f75aed274372dc8d275c2e05becccd8fae9","fields":{"nom_de_la_commune":"BERNIERES SUR MER","libell_d_acheminement":"BERNIERES SUR MER","code_postal":"14990","coordonnees_gps":[49.3194698748,-0.417743184424],"code_commune_insee":"14066"},"geometry":{"type":"Point","coordinates":[-0.417743184424,49.3194698748]},"record_timestamp":"2016-05-09T15:17:00+02:00"},{"datasetid":"laposte_hexasmal","recordid":"79bc701751141da0007dea0b850392037461d5b6","fields":{"nom_de_la_commune":"BISSIERES","libell_d_acheminement":"BISSIERES","code_postal":"14370","coordonnees_gps":[49.1136628313,-0.0896981022455],"code_commune_insee":"14075"},"geometry":{"type":"Point","coordinates":[-0.0896981022455,49.1136628313]},"record_timestamp":"2016-05-09T15:17:00+02:00"},{"datasetid":"laposte_hexasmal","recordid":"e3098187127ea47d86e8b9deef8d59b0aced126c","fields":{"nom_de_la_commune":"LA BOISSIERE","libell_d_acheminement":"LA BOISSIERE","code_postal":"14340","coordonnees_gps":[49.129950391,0.132026565149],"code_commune_insee":"14082"},"geometry":{"type":"Point","coordinates":[0.132026565149,49.129950391]},"record_timestamp":"2016-05-09T15:17:00+02:00"},