[{"datasetid":"laposte_hexasmal","recordid":"2e7c45dfa461a46a90ea45ca8b814a92a9eda411","fields":{"nom_de_la_commune":"LES ADJOTS","libell_d_acheminement":"LES ADJOTS","code_postal":"16700","coordonnees_gps":[46.0787550512,0.203143435799],"code_commune_insee":"16002"},"geometry":{"type":"Point","coordinates":[0.203143435799,46.0787550512]},"record_timestamp":"2016-05-09T15:17:00+02:00"},{"datasetid":"laposte_hexasmal","recordid":"94b7684dfb6ccff2721fb9f35f1d3d6f888e7a67","fields":{"nom_de_la_commune":"ANGEAC CHAMPAGNE","libell_d_acheminement":"ANGEAC CHAMPAGNE","code_postal":"16130","coordonnees_gps":[45.6137559506,-0.289585740498],"code_commune_insee":"16012"},"geometry":{"type":"Point","coordinates":[-0.289585740498,45.6137559506]},"record_timestamp":"2016-05-09T15:17:00+02:00"},{"datasetid":"laposte_hexasmal","recordid":"612f89fa74403ad701dff1002ffd5e993e442c20","fields":{"nom_de_la_commune":"ARS","libell_d_acheminement":"ARS","code_postal":"16130","coordonnees_gps":[45.6370134609,-0.402334253854],"code_commune_insee":"16018"},"geometry":{"type":"Point","coordinates":[-0.402334253854,45.6370134609]},"record_timestamp":"2016-05-09T15:17:00+02:00"},{"datasetid":"laposte_hexasmal","recordid":"f3f9755c029db8dbe496105606ee979c454d1e2d","fields":{"nom_de_la_commune":"AUNAC","libell_d_acheminement":"AUNAC","code_postal":"16460","coordonnees_gps":[45.9151202066,0.255788080504],"code_commune_insee":"16023"},"geometry":{"type":"Point","coordinates":[0.255788080504,45.9151202066]},"record_timestamp":"2016-05-09T15:17:00+02:00"},{"datasetid":"laposte_hexasmal","recordid":"30bf37955891c4688e0bf8800ba787d6d8fc9747","fields":{"code_postal":"16300","code_commune_insee":"16028","libell_d_acheminement":"BARBEZIEUX ST HILAIRE","ligne_5":"ST HILAIRE","nom_de_la_commune":"BARBEZIEUX ST HILAIRE","coordonnees_gps":[45.4780382344,-0.157746079718]},"geometry":{"type":"Point","coordinates":[-0.157746079718,45.4780382344]},"record_timestamp":"2016-05-09T15:17:00+02:00"},{"datasetid":"laposte_hexasmal","recordid":"806882408fa69b51f0b4e5eea91f4218e85dcd93","fields":{"nom_de_la_commune":"BARDENAC","libell_d_acheminement":"BARDENAC","code_postal":"16210","coordonnees_gps":[45.3005902681,-0.0148493213262],"code_commune_insee":"16029"},"geometry":{"type":"Point","coordinates":[-0.0148493213262,45.3005902681]},"record_timestamp":"2016-05-09T15:17:00+02:00"},{"datasetid":"laposte_hexasmal","recordid":"bb5dcb7a0cb382be276e5fb996617fb3c3cbed62","fields":{"nom_de_la_commune":"BARRO","libell_d_acheminement":"BARRO","code_postal":"16700","coordonnees_gps":[46.0050083194,0.235825640846],"code_commune_insee":"16031"},"geometry":{"type":"Point","coordinates":[0.235825640846,46.0050083194]},"record_timestamp":"2016-05-09T15:17:00+02:00"},{"datasetid":"laposte_hexasmal","recordid":"01056742a0b318a17dc331d03a7a8dc06ebe4e3d","fields":{"nom_de_la_commune":"BESSE","libell_d_acheminement":"BESSE","code_postal":"16140","coordonnees_gps":[45.9581333221,0.0818571588343],"code_commune_insee":"16042"},"geometry":{"type":"Point","coordinates":[0.0818571588343,45.9581333221]},"record_timestamp":"2016-05-09T15:17:00+02:00"},{"datasetid":"laposte_hexasmal","recordid":"dbc561132cae7b02bbcd4be87f4f03efe9fbf4b5","fields":{"nom_de_la_commune":"BONNES","libell_d_acheminement":"BONNES","code_postal":"16390","coordonnees_gps":[45.2363248091,0.143594569626],"code_commune_insee":"16049"},"geometry":{"type":"Point","coordinates":[0.143594569626,45.2363248091]},"record_timestamp":"2016-05-09T15:17:00+02:00"},{"datasetid":"laposte_hexasmal","recordid":"f3eb3974c377286d459f968f28a8699baac73c06","fields":{"nom_de_la_commune":"BORS DE MONTMOREAU","libell_d_acheminement":"BORS DE MONTMOREAU","code_postal":"16190","coordonnees_gps":[45.3401040524,0.147879846098],"code_commune_insee":"16052"},"geometry":{"type":"Point","coordinates":[0.147879846098,45.3401040524]},"record_timestamp":"2016-05-09T15:17:00+02:00"},{"datasetid":"laposte_hexasmal","recordid":"8ee0243cc2514b46fa95f4ac5e4d6949c91e2e77","fields":{"nom_de_la_commune":"BORS DE BAIGNES","libell_d_acheminement":"BORS DE BAIGNES","code_postal":"16360","coordonnees_gps":[45.3263203716,-0.199610560993],"code_commune_insee":"16053"},"geometry":{"type":"Point","coordinates":[-0.199610560993,45.3263203716]},"record_timestamp":"2016-05-09T15:17:00+02:00"},{"datasetid":"laposte_hexasmal","recordid":"fbacfdb28ea3e192e883a1f7c5f6a8253d278f24","fields":{"nom_de_la_commune":"BRETTES","libell_d_acheminement":"BRETTES","code_postal":"16240","coordonnees_gps":[45.9974723832,0.029182060624],"code_commune_insee":"16059"},"geometry":{"type":"Point","coordinates":[0.029182060624,45.9974723832]},"record_timestamp":"2016-05-09T15:17:00+02:00"},{"datasetid":"laposte_hexasmal","recordid":"3070d9853fcbc54a815277f7a651cc7eb5535292","fields":{"nom_de_la_commune":"BRILLAC","libell_d_acheminement":"BRILLAC","code_postal":"16500","coordonnees_gps":[46.067503903,0.776760494264],"code_commune_insee":"16065"},"geometry":{"type":"Point","coordinates":[0.776760494264,46.067503903]},"record_timestamp":"2016-05-09T15:17:00+02:00"},{"datasetid":"laposte_hexasmal","recordid":"3c583cb808ca8fa9c11da2dfc8d8a40215afb754","fields":{"nom_de_la_commune":"CHAMPAGNE VIGNY","libell_d_acheminement":"CHAMPAGNE VIGNY","code_postal":"16250","coordonnees_gps":[45.507125249,0.0414709267054],"code_commune_insee":"16075"},"geometry":{"type":"Point","coordinates":[0.0414709267054,45.507125249]},"record_timestamp":"2016-05-09T15:17:00+02:00"},{"datasetid":"laposte_hexasmal","recordid":"97d1220252bc7db844e36083586e98288b44be12","fields":{"nom_de_la_commune":"CHAMPAGNE MOUTON","libell_d_acheminement":"CHAMPAGNE MOUTON","code_postal":"16350","coordonnees_gps":[45.993087674,0.412273153255],"code_commune_insee":"16076"},"geometry":{"type":"Point","coordinates":[0.412273153255,45.993087674]},"record_timestamp":"2016-05-09T15:17:00+02:00"},{"datasetid":"laposte_hexasmal","recordid":"97d62435178510511cfe9b22e314e93af8905d90","fields":{"nom_de_la_commune":"CHAMPNIERS","libell_d_acheminement":"CHAMPNIERS","code_postal":"16430","coordonnees_gps":[45.7166708711,0.196450542402],"code_commune_insee":"16078"},"geometry":{"type":"Point","coordinates":[0.196450542402,45.7166708711]},"record_timestamp":"2016-05-09T15:17:00+02:00"},{"datasetid":"laposte_hexasmal","recordid":"1e5ec5768249fa22aa20152e0d05728881bc0daf","fields":{"nom_de_la_commune":"CHASSENON","libell_d_acheminement":"CHASSENON","code_postal":"16150","coordonnees_gps":[45.8513916699,0.773197167344],"code_commune_insee":"16086"},"geometry":{"type":"Point","coordinates":[0.773197167344,45.8513916699]},"record_timestamp":"2016-05-09T15:17:00+02:00"},{"datasetid":"laposte_hexasmal","recordid":"5ec4928b6b69f24a8b6d87bc7c3fedce1376f04c","fields":{"nom_de_la_commune":"CHATEAUNEUF SUR CHARENTE","libell_d_acheminement":"CHATEAUNEUF SUR CHARENTE","code_postal":"16120","coordonnees_gps":[45.5961486354,-0.0514205671468],"code_commune_insee":"16090"},"geometry":{"type":"Point","coordinates":[-0.0514205671468,45.5961486354]},"record_timestamp":"2016-05-09T15:17:00+02:00"},{"datasetid":"laposte_hexasmal","recordid":"a5003247d7a4fa26574818ea01c041135270c259","fields":{"nom_de_la_commune":"CHATIGNAC","libell_d_acheminement":"CHATIGNAC","code_postal":"16480","coordonnees_gps":[45.3484001611,-0.00433406647489],"code_commune_insee":"16091"},"geometry":{"type":"Point","coordinates":[-0.00433406647489,45.3484001611]},"record_timestamp":"2016-05-09T15:17:00+02:00"},{"datasetid":"laposte_hexasmal","recordid":"21409a64e35bcaf71af9a56643e5adf6b7d10eb6","fields":{"nom_de_la_commune":"CHERVES RICHEMONT","libell_d_acheminement":"CHERVES RICHEMONT","code_postal":"16370","coordonnees_gps":[45.7450738873,-0.337808012724],"code_commune_insee":"16097"},"geometry":{"type":"Point","coordinates":[-0.337808012724,45.7450738873]},"record_timestamp":"2016-05-09T15:17:00+02:00"},{"datasetid":"laposte_hexasmal","recordid":"d8072647a4fcdcb10143106e58738f8c3c086345","fields":{"code_postal":"16370","code_commune_insee":"16097","libell_d_acheminement":"CHERVES RICHEMONT","ligne_5":"RICHEMONT","nom_de_la_commune":"CHERVES RICHEMONT","coordonnees_gps":[45.7450738873,-0.337808012724]},"geometry":{"type":"Point","coordinates":[-0.337808012724,45.7450738873]},"record_timestamp":"2016-05-09T15:17:00+02:00"},{"datasetid":"laposte_hexasmal","recordid":"7b522f4467fe425951344e35e5d4258e94c59595","fields":{"nom_de_la_commune":"COGNAC","libell_d_acheminement":"COGNAC","code_postal":"16100","coordonnees_gps":[45.6962326551,-0.33507941815],"code_commune_insee":"16102"},"geometry":{"type":"Point","coordinates":[-0.33507941815,45.6962326551]},"record_timestamp":"2016-05-09T15:17:00+02:00"},{"datasetid":"laposte_hexasmal","recordid":"a0fb2b34553fe62de58af7290b1cc75ae123fcbb","fields":{"nom_de_la_commune":"CONDAC","libell_d_acheminement":"CONDAC","code_postal":"16700","coordonnees_gps":[46.028495802,0.227925503689],"code_commune_insee":"16104"},"geometry":{"type":"Point","coordinates":[0.227925503689,46.028495802]},"record_timestamp":"2016-05-09T15:17:00+02:00"},{"datasetid":"laposte_hexasmal","recordid":"29459d4fd370a7091ce5595d35f8d89ee3b63bda","fields":{"code_postal":"16250","code_commune_insee":"16115","libell_d_acheminement":"CRESSAC ST GENIS","ligne_5":"ST GENIS DE BLANZAC","nom_de_la_commune":"CRESSAC ST GENIS","coordonnees_gps":[45.4399527809,0.0196605456773]},"geometry":{"type":"Point","coordinates":[0.0196605456773,45.4399527809]},"record_timestamp":"2016-05-09T15:17:00+02:00"},{"datasetid":"laposte_hexasmal","recordid":"3577e6f84e96505282b5b9c7dec8c233d37022e1","fields":{"nom_de_la_commune":"DOUZAT","libell_d_acheminement":"DOUZAT","code_postal":"16290","coordonnees_gps":[45.7009983146,-0.00261844248273],"code_commune_insee":"16121"},"geometry":{"type":"Point","coordinates":[-0.00261844248273,45.7009983146]},"record_timestamp":"2016-05-09T15:17:00+02:00"},{"datasetid":"laposte_hexasmal","recordid":"967f578f7986f3ad3237c264d48b437d716aef6b","fields":{"nom_de_la_commune":"LA FAYE","libell_d_acheminement":"LA FAYE","code_postal":"16700","coordonnees_gps":[46.0198359959,0.159355852391],"code_commune_insee":"16136"},"geometry":{"type":"Point","coordinates":[0.159355852391,46.0198359959]},"record_timestamp":"2016-05-09T15:17:00+02:00"},{"datasetid":"laposte_hexasmal","recordid":"6ee254d94bc9571e375fed66c766335abe702979","fields":{"nom_de_la_commune":"GARDES LE PONTAROUX","libell_d_acheminement":"GARDES LE PONTAROUX","code_postal":"16320","coordonnees_gps":[45.5102605309,0.309516332026],"code_commune_insee":"16147"},"geometry":{"type":"Point","coordinates":[0.309516332026,45.5102605309]},"record_timestamp":"2016-05-09T15:17:00+02:00"},{"datasetid":"laposte_hexasmal","recordid":"6890a064a8e8964f1eb74836744f15e17569f09d","fields":{"nom_de_la_commune":"GIMEUX","libell_d_acheminement":"GIMEUX","code_postal":"16130","coordonnees_gps":[45.6414379624,-0.36669079786],"code_commune_insee":"16152"},"geometry":{"type":"Point","coordinates":[-0.36669079786,45.6414379624]},"record_timestamp":"2016-05-09T15:17:00+02:00"},{"datasetid":"laposte_hexasmal","recordid":"24a5583b0557cf8da8543b1f353552ff76a2f6a9","fields":{"nom_de_la_commune":"HIERSAC","libell_d_acheminement":"HIERSAC","code_postal":"16290","coordonnees_gps":[45.6755505146,0.00754154202178],"code_commune_insee":"16163"},"geometry":{"type":"Point","coordinates":[0.00754154202178,45.6755505146]},"record_timestamp":"2016-05-09T15:17:00+02:00"},{"datasetid":"laposte_hexasmal","recordid":"8c935f84198e89ea0cea8806c3e0733053794301","fields":{"nom_de_la_commune":"HIESSE","libell_d_acheminement":"HIESSE","code_postal":"16490","coordonnees_gps":[46.0498472746,0.581727816732],"code_commune_insee":"16164"},"geometry":{"type":"Point","coordinates":[0.581727816732,46.0498472746]},"record_timestamp":"2016-05-09T15:17:00+02:00"},{"datasetid":"laposte_hexasmal","recordid":"8b7600d4d6b46aa1ae3789dfd2c98cb412c48761","fields":{"nom_de_la_commune":"JARNAC","libell_d_acheminement":"JARNAC","code_postal":"16200","coordonnees_gps":[45.6865355311,-0.164780604405],"code_commune_insee":"16167"},"geometry":{"type":"Point","coordinates":[-0.164780604405,45.6865355311]},"record_timestamp":"2016-05-09T15:17:00+02:00"},{"datasetid":"laposte_hexasmal","recordid":"6541dc4143e0d7a794cc959cb4f9ae829d525747","fields":{"code_postal":"16250","code_commune_insee":"16175","libell_d_acheminement":"VAL DES VIGNES","ligne_5":"JURIGNAC","nom_de_la_commune":"VAL DES VIGNES","coordonnees_gps":[45.5351688008,-0.0353997702364]},"geometry":{"type":"Point","coordinates":[-0.0353997702364,45.5351688008]},"record_timestamp":"2016-05-09T15:17:00+02:00"},{"datasetid":"laposte_hexasmal","recordid":"c8c887db533fd76aee245bbf424da049d3f3b066","fields":{"nom_de_la_commune":"LESIGNAC DURAND","libell_d_acheminement":"LESIGNAC DURAND","code_postal":"16310","coordonnees_gps":[45.8150582723,0.6446900761],"code_commune_insee":"16183"},"geometry":{"type":"Point","coordinates":[0.6446900761,45.8150582723]},"record_timestamp":"2016-05-09T15:17:00+02:00"},{"datasetid":"laposte_hexasmal","recordid":"3cef46ddfc3ab99599dc4108e112b8b7ff3e28bb","fields":{"nom_de_la_commune":"LIGNE","libell_d_acheminement":"LIGNE","code_postal":"16140","coordonnees_gps":[45.9156691196,0.10397491034],"code_commune_insee":"16185"},"geometry":{"type":"Point","coordinates":[0.10397491034,45.9156691196]},"record_timestamp":"2016-05-09T15:17:00+02:00"},{"datasetid":"laposte_hexasmal","recordid":"202bb27791dadcb319b332594edf2a865023f1c4","fields":{"nom_de_la_commune":"LE LINDOIS","libell_d_acheminement":"LE LINDOIS","code_postal":"16310","coordonnees_gps":[45.7508746711,0.590773518888],"code_commune_insee":"16188"},"geometry":{"type":"Point","coordinates":[0.590773518888,45.7508746711]},"record_timestamp":"2016-05-09T15:17:00+02:00"},{"datasetid":"laposte_hexasmal","recordid":"265c6825e34df4fab1a786e3822c521d8dc4fe13","fields":{"nom_de_la_commune":"LONDIGNY","libell_d_acheminement":"LONDIGNY","code_postal":"16700","coordonnees_gps":[46.0846035892,0.140380117543],"code_commune_insee":"16189"},"geometry":{"type":"Point","coordinates":[0.140380117543,46.0846035892]},"record_timestamp":"2016-05-09T15:17:00+02:00"},{"datasetid":"laposte_hexasmal","recordid":"cca1b0f67085fb83cdc296272f7ede3503cd22b1","fields":{"nom_de_la_commune":"MAINZAC","libell_d_acheminement":"MAINZAC","code_postal":"16380","coordonnees_gps":[45.5538600835,0.476645844368],"code_commune_insee":"16203"},"geometry":{"type":"Point","coordinates":[0.476645844368,45.5538600835]},"record_timestamp":"2016-05-09T15:17:00+02:00"},{"datasetid":"laposte_hexasmal","recordid":"2510bf045b5019c520cdb97c117abbf60bc06b24","fields":{"nom_de_la_commune":"MARSAC","libell_d_acheminement":"MARSAC","code_postal":"16570","coordonnees_gps":[45.7432168829,0.075225440865],"code_commune_insee":"16210"},"geometry":{"type":"Point","coordinates":[0.075225440865,45.7432168829]},"record_timestamp":"2016-05-09T15:17:00+02:00"},{"datasetid":"laposte_hexasmal","recordid":"171b4e0ab73ffb26f9c62b4b6bc6bad3e156b031","fields":{"nom_de_la_commune":"MAZEROLLES","libell_d_acheminement":"MAZEROLLES","code_postal":"16310","coordonnees_gps":[45.740251316,0.520413334007],"code_commune_insee":"16213"},"geometry":{"type":"Point","coordinates":[0.520413334007,45.740251316]},"record_timestamp":"2016-05-09T15:17:00+02:00"},{"datasetid":"laposte_hexasmal","recordid":"bb686aa145ae97627c0e8bd07c20e268740a5020","fields":{"nom_de_la_commune":"MEDILLAC","libell_d_acheminement":"MEDILLAC","code_postal":"16210","coordonnees_gps":[45.2160430243,0.0140572392305],"code_commune_insee":"16215"},"geometry":{"type":"Point","coordinates":[0.0140572392305,45.2160430243]},"record_timestamp":"2016-05-09T15:17:00+02:00"},{"datasetid":"laposte_hexasmal","recordid":"0137714644af92c35a9eff5a16d6e0cf21c2204a","fields":{"nom_de_la_commune":"MERPINS","libell_d_acheminement":"MERPINS","code_postal":"16100","coordonnees_gps":[45.6698268314,-0.371814331652],"code_commune_insee":"16217"},"geometry":{"type":"Point","coordinates":[-0.371814331652,45.6698268314]},"record_timestamp":"2016-05-09T15:17:00+02:00"},{"datasetid":"laposte_hexasmal","recordid":"1b4249b1342d5f7e80feba0086b5f107c82f9b2b","fields":{"nom_de_la_commune":"MONS","libell_d_acheminement":"MONS","code_postal":"16140","coordonnees_gps":[45.874585555,-0.0332855724322],"code_commune_insee":"16221"},"geometry":{"type":"Point","coordinates":[-0.0332855724322,45.874585555]},"record_timestamp":"2016-05-09T15:17:00+02:00"},{"datasetid":"laposte_hexasmal","recordid":"c7cce722e06532fbdbe7cd3c1295240042672aed","fields":{"nom_de_la_commune":"MONTBOYER","libell_d_acheminement":"MONTBOYER","code_postal":"16620","coordonnees_gps":[45.3315158314,0.0690097423513],"code_commune_insee":"16222"},"geometry":{"type":"Point","coordinates":[0.0690097423513,45.3315158314]},"record_timestamp":"2016-05-09T15:17:00+02:00"},{"datasetid":"laposte_hexasmal","recordid":"e241e8df8b226ca46693da025e8ba4cc449bc472","fields":{"nom_de_la_commune":"MONTEMBOEUF","libell_d_acheminement":"MONTEMBOEUF","code_postal":"16310","coordonnees_gps":[45.7738787675,0.551136998408],"code_commune_insee":"16225"},"geometry":{"type":"Point","coordinates":[0.551136998408,45.7738787675]},"record_timestamp":"2016-05-09T15:17:00+02:00"},{"datasetid":"laposte_hexasmal","recordid":"d7998f3da163459fe42d78c50067860c2017c8a7","fields":{"nom_de_la_commune":"MONTIGNAC CHARENTE","libell_d_acheminement":"MONTIGNAC CHARENTE","code_postal":"16330","coordonnees_gps":[45.7802147183,0.10266574824],"code_commune_insee":"16226"},"geometry":{"type":"Point","coordinates":[0.10266574824,45.7802147183]},"record_timestamp":"2016-05-09T15:17:00+02:00"},{"datasetid":"laposte_hexasmal","recordid":"857a2fc2306ce665746ada2dfdccfd97ce0ee393","fields":{"nom_de_la_commune":"MONTIGNE","libell_d_acheminement":"MONTIGNE","code_postal":"16170","coordonnees_gps":[45.8181805857,-0.0797270261267],"code_commune_insee":"16228"},"geometry":{"type":"Point","coordinates":[-0.0797270261267,45.8181805857]},"record_timestamp":"2016-05-09T15:17:00+02:00"},{"datasetid":"laposte_hexasmal","recordid":"db5b8a264d2108f87c4f600d0cdda4fee206274e","fields":{"code_postal":"16700","code_commune_insee":"16242","libell_d_acheminement":"NANTEUIL EN VALLEE","ligne_5":"MOUTARDON","nom_de_la_commune":"NANTEUIL EN VALLEE","coordonnees_gps":[46.0061029111,0.32369225522]},"geometry":{"type":"Point","coordinates":[0.32369225522,46.0061029111]},"record_timestamp":"2016-05-09T15:17:00+02:00"},{"datasetid":"laposte_hexasmal","recordid":"d53c8480f0da3bb78a18a92e9cdbbc6cacd36241","fields":{"nom_de_la_commune":"ORIOLLES","libell_d_acheminement":"ORIOLLES","code_postal":"16480","coordonnees_gps":[45.3564714888,-0.1368388888],"code_commune_insee":"16251"},"geometry":{"type":"Point","coordinates":[-0.1368388888,45.3564714888]},"record_timestamp":"2016-05-09T15:17:00+02:00"},{"datasetid":"laposte_hexasmal","recordid":"f964356278abde7a26bf821c8141a4db00291447","fields":{"nom_de_la_commune":"PASSIRAC","libell_d_acheminement":"PASSIRAC","code_postal":"16480","coordonnees_gps":[45.3475668313,-0.0619236639057],"code_commune_insee":"16256"},"geometry":{"type":"Point","coordinates":[-0.0619236639057,45.3475668313]},"record_timestamp":"2016-05-09T15:17:00+02:00"},{"datasetid":"laposte_hexasmal","recordid":"ef2b5352f15d3c814b2c338e31bc8ce74525ab13","fields":{"nom_de_la_commune":"PILLAC","libell_d_acheminement":"PILLAC","code_postal":"16390","coordonnees_gps":[45.3189822009,0.18101331727],"code_commune_insee":"16260"},"geometry":{"type":"Point","coordinates":[0.18101331727,45.3189822009]},"record_timestamp":"2016-05-09T15:17:00+02:00"},{"datasetid":"laposte_hexasmal","recordid":"036b6504abf4afd9513f5242ad1a8e34dbe018e2","fields":{"nom_de_la_commune":"POULLIGNAC","libell_d_acheminement":"POULLIGNAC","code_postal":"16190","coordonnees_gps":[45.3965100536,-0.010889797481],"code_commune_insee":"16267"},"geometry":{"type":"Point","coordinates":[-0.010889797481,45.3965100536]},"record_timestamp":"2016-05-09T15:17:00+02:00"},{"datasetid":"laposte_hexasmal","recordid":"8604514e69b487b67b526b2357b9264748295f92","fields":{"nom_de_la_commune":"RAIX","libell_d_acheminement":"RAIX","code_postal":"16240","coordonnees_gps":[46.0041231051,0.11629336996],"code_commune_insee":"16273"},"geometry":{"type":"Point","coordinates":[0.11629336996,46.0041231051]},"record_timestamp":"2016-05-09T15:17:00+02:00"},{"datasetid":"laposte_hexasmal","recordid":"6fac78265e04ab99be9798904860d582f269d383","fields":{"nom_de_la_commune":"RANVILLE BREUILLAUD","libell_d_acheminement":"RANVILLE BREUILLAUD","code_postal":"16140","coordonnees_gps":[45.9094260001,-0.123952304555],"code_commune_insee":"16275"},"geometry":{"type":"Point","coordinates":[-0.123952304555,45.9094260001]},"record_timestamp":"2016-05-09T15:17:00+02:00"},{"datasetid":"laposte_hexasmal","recordid":"28a579fd6f53041bfb31a7de0612940758bbb057","fields":{"nom_de_la_commune":"REPARSAC","libell_d_acheminement":"REPARSAC","code_postal":"16200","coordonnees_gps":[45.7367542144,-0.249443713353],"code_commune_insee":"16277"},"geometry":{"type":"Point","coordinates":[-0.249443713353,45.7367542144]},"record_timestamp":"2016-05-09T15:17:00+02:00"},{"datasetid":"laposte_hexasmal","recordid":"89e2b62e9950d85375a7849e4dad6b1065f5ac66","fields":{"nom_de_la_commune":"LA ROCHEFOUCAULD","libell_d_acheminement":"LA ROCHEFOUCAULD","code_postal":"16110","coordonnees_gps":[45.7334327476,0.3937027955],"code_commune_insee":"16281"},"geometry":{"type":"Point","coordinates":[0.3937027955,45.7334327476]},"record_timestamp":"2016-05-09T15:17:00+02:00"},{"datasetid":"laposte_hexasmal","recordid":"18326d14902d680814c8ae6a8040292b1485ef2b","fields":{"nom_de_la_commune":"ROUFFIAC","libell_d_acheminement":"ROUFFIAC","code_postal":"16210","coordonnees_gps":[45.2653712748,0.0982630036478],"code_commune_insee":"16284"},"geometry":{"type":"Point","coordinates":[0.0982630036478,45.2653712748]},"record_timestamp":"2016-05-09T15:17:00+02:00"},{"datasetid":"laposte_hexasmal","recordid":"41b06a6fa1f3c0213b491b04b4f5358313fb432c","fields":{"nom_de_la_commune":"ROUZEDE","libell_d_acheminement":"ROUZEDE","code_postal":"16220","coordonnees_gps":[45.7200534944,0.562265132073],"code_commune_insee":"16290"},"geometry":{"type":"Point","coordinates":[0.562265132073,45.7200534944]},"record_timestamp":"2016-05-09T15:17:00+02:00"},{"datasetid":"laposte_hexasmal","recordid":"9387835b0b5ec35d606922c7e7fdf66659aebedc","fields":{"code_postal":"16120","code_commune_insee":"16297","libell_d_acheminement":"GRAVES ST AMANT","ligne_5":"GRAVES","nom_de_la_commune":"GRAVES ST AMANT","coordonnees_gps":[45.6383664934,-0.104970620109]},"geometry":{"type":"Point","coordinates":[-0.104970620109,45.6383664934]},"record_timestamp":"2016-05-09T15:17:00+02:00"},{"datasetid":"laposte_hexasmal","recordid":"6253ecb358bd4401a546566c910f926f51c54378","fields":{"nom_de_la_commune":"ST CYBARDEAUX","libell_d_acheminement":"ST CYBARDEAUX","code_postal":"16170","coordonnees_gps":[45.7726989644,-0.0255477893935],"code_commune_insee":"16312"},"geometry":{"type":"Point","coordinates":[-0.0255477893935,45.7726989644]},"record_timestamp":"2016-05-09T15:17:00+02:00"},{"datasetid":"laposte_hexasmal","recordid":"8afc04687cdec17131047b95963c25584e5aa490","fields":{"nom_de_la_commune":"ST GERMAIN DE MONTBRON","libell_d_acheminement":"ST GERMAIN DE MONTBRON","code_postal":"16380","coordonnees_gps":[45.6336571325,0.413391881443],"code_commune_insee":"16323"},"geometry":{"type":"Point","coordinates":[0.413391881443,45.6336571325]},"record_timestamp":"2016-05-09T15:17:00+02:00"},{"datasetid":"laposte_hexasmal","recordid":"3c0c894bec4d4efcc507a548969a7085a6c73bc5","fields":{"nom_de_la_commune":"ST LAURENT DE COGNAC","libell_d_acheminement":"ST LAURENT DE COGNAC","code_postal":"16100","coordonnees_gps":[45.6950500912,-0.394353792222],"code_commune_insee":"16330"},"geometry":{"type":"Point","coordinates":[-0.394353792222,45.6950500912]},"record_timestamp":"2016-05-09T15:17:00+02:00"},{"datasetid":"laposte_hexasmal","recordid":"9ccd6ddcfd78a804c36fcc14a27cfaa9f146d03d","fields":{"code_postal":"16170","code_commune_insee":"16339","libell_d_acheminement":"AUGE ST MEDARD","ligne_5":"ST MEDARD","nom_de_la_commune":"AUGE ST MEDARD","coordonnees_gps":[45.8511416602,-0.0872262855566]},"geometry":{"type":"Point","coordinates":[-0.0872262855566,45.8511416602]},"record_timestamp":"2016-05-09T15:17:00+02:00"},{"datasetid":"laposte_hexasmal","recordid":"2c8a2fc12a8d4e62536f2e1b87d4f585f16284f4","fields":{"nom_de_la_commune":"ST SULPICE DE COGNAC","libell_d_acheminement":"ST SULPICE DE COGNAC","code_postal":"16370","coordonnees_gps":[45.7590478369,-0.409801090827],"code_commune_insee":"16355"},"geometry":{"type":"Point","coordinates":[-0.409801090827,45.7590478369]},"record_timestamp":"2016-05-09T15:17:00+02:00"},{"datasetid":"laposte_hexasmal","recordid":"cb2f65221603e2d8440cabf61e9aa434f761fb94","fields":{"nom_de_la_commune":"ST YRIEIX SUR CHARENTE","libell_d_acheminement":"ST YRIEIX SUR CHARENTE","code_postal":"16710","coordonnees_gps":[45.6818416961,0.128271343194],"code_commune_insee":"16358"},"geometry":{"type":"Point","coordinates":[0.128271343194,45.6818416961]},"record_timestamp":"2016-05-09T15:17:00+02:00"},{"datasetid":"laposte_hexasmal","recordid":"cc2bbd25c6f24db2631379ea786befaec286b4da","fields":{"nom_de_la_commune":"SALLES LAVALETTE","libell_d_acheminement":"SALLES LAVALETTE","code_postal":"16190","coordonnees_gps":[45.3880236045,0.23183888353],"code_commune_insee":"16362"},"geometry":{"type":"Point","coordinates":[0.23183888353,45.3880236045]},"record_timestamp":"2016-05-09T15:17:00+02:00"},{"datasetid":"laposte_hexasmal","recordid":"015ce0806e50922efb0167f275202d463f7df687","fields":{"nom_de_la_commune":"SOYAUX","libell_d_acheminement":"SOYAUX","code_postal":"16800","coordonnees_gps":[45.6397669318,0.206625703571],"code_commune_insee":"16374"},"geometry":{"type":"Point","coordinates":[0.206625703571,45.6397669318]},"record_timestamp":"2016-05-09T15:17:00+02:00"},{"datasetid":"laposte_hexasmal","recordid":"171501513b4a232430dd49c84beb4235b3ff7c59","fields":{"nom_de_la_commune":"TAPONNAT FLEURIGNAC","libell_d_acheminement":"TAPONNAT FLEURIGNAC","code_postal":"16110","coordonnees_gps":[45.7739607246,0.417726239972],"code_commune_insee":"16379"},"geometry":{"type":"Point","coordinates":[0.417726239972,45.7739607246]},"record_timestamp":"2016-05-09T15:17:00+02:00"},{"datasetid":"laposte_hexasmal","recordid":"03e4943edc354ed2386b616c43b229d9fec8f496","fields":{"nom_de_la_commune":"THEIL RABIER","libell_d_acheminement":"THEIL RABIER","code_postal":"16240","coordonnees_gps":[46.0558979641,0.044130741302],"code_commune_insee":"16381"},"geometry":{"type":"Point","coordinates":[0.044130741302,46.0558979641]},"record_timestamp":"2016-05-09T15:17:00+02:00"},{"datasetid":"laposte_hexasmal","recordid":"7543167263d09e96160b25297d2ad713ad6f3ce8","fields":{"nom_de_la_commune":"TOUVERAC","libell_d_acheminement":"TOUVERAC","code_postal":"16360","coordonnees_gps":[45.3740871149,-0.201503841604],"code_commune_insee":"16384"},"geometry":{"type":"Point","coordinates":[-0.201503841604,45.3740871149]},"record_timestamp":"2016-05-09T15:17:00+02:00"},{"datasetid":"laposte_hexasmal","recordid":"0ee50724622c4ab22229281009330662c7a9608b","fields":{"nom_de_la_commune":"VENTOUSE","libell_d_acheminement":"VENTOUSE","code_postal":"16460","coordonnees_gps":[45.9125661232,0.324665203428],"code_commune_insee":"16396"},"geometry":{"type":"Point","coordinates":[0.324665203428,45.9125661232]},"record_timestamp":"2016-05-09T15:17:00+02:00"},{"datasetid":"laposte_hexasmal","recordid":"aae1f8a1f376e2ff97343e0c6833f18e671f036e","fields":{"nom_de_la_commune":"VERNEUIL","libell_d_acheminement":"VERNEUIL","code_postal":"16310","coordonnees_gps":[45.7826832991,0.698625263391],"code_commune_insee":"16398"},"geometry":{"type":"Point","coordinates":[0.698625263391,45.7826832991]},"record_timestamp":"2016-05-09T15:17:00+02:00"},{"datasetid":"laposte_hexasmal","recordid":"7714c44f109894fb5d4470c5ed87b8833d40d4f2","fields":{"nom_de_la_commune":"VERRIERES","libell_d_acheminement":"VERRIERES","code_postal":"16130","coordonnees_gps":[45.5635438011,-0.262225205266],"code_commune_insee":"16399"},"geometry":{"type":"Point","coordinates":[-0.262225205266,45.5635438011]},"record_timestamp":"2016-05-09T15:17:00+02:00"},{"datasetid":"laposte_hexasmal","recordid":"c0f804ab579d06e0aee8b798a2e60b49c26e9886","fields":{"nom_de_la_commune":"LE VIEUX CERIER","libell_d_acheminement":"LE VIEUX CERIER","code_postal":"16350","coordonnees_gps":[45.9701910018,0.447706258418],"code_commune_insee":"16403"},"geometry":{"type":"Point","coordinates":[0.447706258418,45.9701910018]},"record_timestamp":"2016-05-09T15:17:00+02:00"},{"datasetid":"laposte_hexasmal","recordid":"c141400f9c403176fbfb198b694f7133e2c494cd","fields":{"nom_de_la_commune":"VILHONNEUR","libell_d_acheminement":"VILHONNEUR","code_postal":"16220","coordonnees_gps":[45.6749371405,0.413690557733],"code_commune_insee":"16406"},"geometry":{"type":"Point","coordinates":[0.413690557733,45.6749371405]},"record_timestamp":"2016-05-09T15:17:00+02:00"},{"datasetid":"laposte_hexasmal","recordid":"9414258533a6fc12cecb9c26caaf065da2cc3931","fields":{"nom_de_la_commune":"VOEUIL ET GIGET","libell_d_acheminement":"VOEUIL ET GIGET","code_postal":"16400","coordonnees_gps":[45.5931085464,0.158699054904],"code_commune_insee":"16418"},"geometry":{"type":"Point","coordinates":[0.158699054904,45.5931085464]},"record_timestamp":"2016-05-09T15:17:00+02:00"},{"datasetid":"laposte_hexasmal","recordid":"fc240eaa1ea4b6f718f05eeef70c3a8183f33e18","fields":{"nom_de_la_commune":"ABZAC","libell_d_acheminement":"ABZAC","code_postal":"16500","coordonnees_gps":[46.0995520567,0.715822844014],"code_commune_insee":"16001"},"geometry":{"type":"Point","coordinates":[0.715822844014,46.0995520567]},"record_timestamp":"2016-05-09T15:17:00+02:00"},{"datasetid":"laposte_hexasmal","recordid":"89ed228d7427f10465d4c84d63e071c69ec7fab3","fields":{"nom_de_la_commune":"AMBLEVILLE","libell_d_acheminement":"AMBLEVILLE","code_postal":"16300","coordonnees_gps":[45.5581634832,-0.224518438236],"code_commune_insee":"16010"},"geometry":{"type":"Point","coordinates":[-0.224518438236,45.5581634832]},"record_timestamp":"2016-05-09T15:17:00+02:00"},{"datasetid":"laposte_hexasmal","recordid":"cc6df994ea4c79ec7bfab473b6443278e98159a5","fields":{"nom_de_la_commune":"ANVILLE","libell_d_acheminement":"ANVILLE","code_postal":"16170","coordonnees_gps":[45.8313102737,-0.121697535587],"code_commune_insee":"16017"},"geometry":{"type":"Point","coordinates":[-0.121697535587,45.8313102737]},"record_timestamp":"2016-05-09T15:17:00+02:00"},{"datasetid":"laposte_hexasmal","recordid":"aeaf00a7d7ddedc772bdb44ee9679cacf403158b","fields":{"nom_de_la_commune":"AUSSAC VADALLE","libell_d_acheminement":"AUSSAC VADALLE","code_postal":"16560","coordonnees_gps":[45.8215780288,0.215598559823],"code_commune_insee":"16024"},"geometry":{"type":"Point","coordinates":[0.215598559823,45.8215780288]},"record_timestamp":"2016-05-09T15:17:00+02:00"},{"datasetid":"laposte_hexasmal","recordid":"992ee975a7e4e65cb0588932e1ccbf28161d6e3e","fields":{"nom_de_la_commune":"BARBEZIEUX ST HILAIRE","libell_d_acheminement":"BARBEZIEUX ST HILAIRE","code_postal":"16300","coordonnees_gps":[45.4780382344,-0.157746079718],"code_commune_insee":"16028"},"geometry":{"type":"Point","coordinates":[-0.157746079718,45.4780382344]},"record_timestamp":"2016-05-09T15:17:00+02:00"},{"datasetid":"laposte_hexasmal","recordid":"1323534f18a2f0da4de6482b4a5d35eb30714d7e","fields":{"nom_de_la_commune":"BARRET","libell_d_acheminement":"BARRET","code_postal":"16300","coordonnees_gps":[45.4891582999,-0.206308254385],"code_commune_insee":"16030"},"geometry":{"type":"Point","coordinates":[-0.206308254385,45.4891582999]},"record_timestamp":"2016-05-09T15:17:00+02:00"},{"datasetid":"laposte_hexasmal","recordid":"1515f0402c2b9e77df32cbd223bcc62018aca755","fields":{"nom_de_la_commune":"BAZAC","libell_d_acheminement":"BAZAC","code_postal":"16210","coordonnees_gps":[45.2211222947,0.0368876406088],"code_commune_insee":"16034"},"geometry":{"type":"Point","coordinates":[0.0368876406088,45.2211222947]},"record_timestamp":"2016-05-09T15:17:00+02:00"},{"datasetid":"laposte_hexasmal","recordid":"e995e7157d72aa7bf2d165647e4e8fc012b77088","fields":{"nom_de_la_commune":"BERNEUIL","libell_d_acheminement":"BERNEUIL","code_postal":"16480","coordonnees_gps":[45.3908685702,-0.0668741248054],"code_commune_insee":"16040"},"geometry":{"type":"Point","coordinates":[-0.0668741248054,45.3908685702]},"record_timestamp":"2016-05-09T15:17:00+02:00"},{"datasetid":"laposte_hexasmal","recordid":"82bb68e24a05bde2405b73c3af4790d5624b6806","fields":{"nom_de_la_commune":"BIRAC","libell_d_acheminement":"BIRAC","code_postal":"16120","coordonnees_gps":[45.5635790633,-0.0550695799339],"code_commune_insee":"16045"},"geometry":{"type":"Point","coordinates":[-0.0550695799339,45.5635790633]},"record_timestamp":"2016-05-09T15:17:00+02:00"},{"datasetid":"laposte_hexasmal","recordid":"0679d6b55270666cfffa68fda49640d3ffcdd660","fields":{"nom_de_la_commune":"BOUTIERS ST TROJAN","libell_d_acheminement":"BOUTIERS ST TROJAN","code_postal":"16100","coordonnees_gps":[45.711028287,-0.296886698875],"code_commune_insee":"16058"},"geometry":{"type":"Point","coordinates":[-0.296886698875,45.711028287]},"record_timestamp":"2016-05-09T15:17:00+02:00"},{"datasetid":"laposte_hexasmal","recordid":"64abd038dab646c3b950b962cf828f86dd033b6a","fields":{"nom_de_la_commune":"CHADURIE","libell_d_acheminement":"CHADURIE","code_postal":"16250","coordonnees_gps":[45.4963678637,0.142555563027],"code_commune_insee":"16072"},"geometry":{"type":"Point","coordinates":[0.142555563027,45.4963678637]},"record_timestamp":"2016-05-09T15:17:00+02:00"},{"datasetid":"laposte_hexasmal","recordid":"2b0bf9c8ef14e26fc12e6b409c8250cebac8ae2c","fields":{"nom_de_la_commune":"CHAMPMILLON","libell_d_acheminement":"CHAMPMILLON","code_postal":"16290","coordonnees_gps":[45.6471775425,0.00523666300318],"code_commune_insee":"16077"},"geometry":{"type":"Point","coordinates":[0.00523666300318,45.6471775425]},"record_timestamp":"2016-05-09T15:17:00+02:00"},{"datasetid":"laposte_hexasmal","recordid":"1c436793b40dd124230a7bb3055ed7e43a754f86","fields":{"nom_de_la_commune":"CHANTILLAC","libell_d_acheminement":"CHANTILLAC","code_postal":"16360","coordonnees_gps":[45.3264411162,-0.255453791343],"code_commune_insee":"16079"},"geometry":{"type":"Point","coordinates":[-0.255453791343,45.3264411162]},"record_timestamp":"2016-05-09T15:17:00+02:00"},{"datasetid":"laposte_hexasmal","recordid":"f728fab7cd74887b39073e521bc9bdde826d4ec1","fields":{"nom_de_la_commune":"CHATEAUBERNARD","libell_d_acheminement":"CHATEAUBERNARD","code_postal":"16100","coordonnees_gps":[45.6720237128,-0.316074717824],"code_commune_insee":"16089"},"geometry":{"type":"Point","coordinates":[-0.316074717824,45.6720237128]},"record_timestamp":"2016-05-09T15:17:00+02:00"},{"datasetid":"laposte_hexasmal","recordid":"dcd4a77dd9b65baaa51449062307852faff96ef2","fields":{"nom_de_la_commune":"CHILLAC","libell_d_acheminement":"CHILLAC","code_postal":"16480","coordonnees_gps":[45.3611763101,-0.0902994967861],"code_commune_insee":"16099"},"geometry":{"type":"Point","coordinates":[-0.0902994967861,45.3611763101]},"record_timestamp":"2016-05-09T15:17:00+02:00"},{"datasetid":"laposte_hexasmal","recordid":"8247ab9fb62a618b048b532f49323af1f3ede2d7","fields":{"nom_de_la_commune":"CLAIX","libell_d_acheminement":"CLAIX","code_postal":"16440","coordonnees_gps":[45.54965487,0.050592133605],"code_commune_insee":"16101"},"geometry":{"type":"Point","coordinates":[0.050592133605,45.54965487]},"record_timestamp":"2016-05-09T15:17:00+02:00"},{"datasetid":"laposte_hexasmal","recordid":"a19c39cc1993c752047ae4c13e41ee6da487d76f","fields":{"code_postal":"16500","code_commune_insee":"16106","libell_d_acheminement":"CONFOLENS","ligne_5":"ST GERMAIN DE CONFOLENS","nom_de_la_commune":"CONFOLENS","coordonnees_gps":[46.0191386034,0.658522279035]},"geometry":{"type":"Point","coordinates":[0.658522279035,46.0191386034]},"record_timestamp":"2016-05-09T15:17:00+02:00"},{"datasetid":"laposte_hexasmal","recordid":"4d42e01cf3345b5ee5debd195dddf24fd67478a8","fields":{"nom_de_la_commune":"COURBILLAC","libell_d_acheminement":"COURBILLAC","code_postal":"16200","coordonnees_gps":[45.7730344217,-0.180841133968],"code_commune_insee":"16109"},"geometry":{"type":"Point","coordinates":[-0.180841133968,45.7730344217]},"record_timestamp":"2016-05-09T15:17:00+02:00"},{"datasetid":"laposte_hexasmal","recordid":"0b0689b69e955252a30f962ebdaf0cf293b0a01c","fields":{"nom_de_la_commune":"AIGNES ET PUYPEROUX","libell_d_acheminement":"AIGNES ET PUYPEROUX","code_postal":"16190","coordonnees_gps":[45.4499477283,0.139490170805],"code_commune_insee":"16004"},"geometry":{"type":"Point","coordinates":[0.139490170805,45.4499477283]},"record_timestamp":"2016-05-09T15:17:00+02:00"},{"datasetid":"laposte_hexasmal","recordid":"64d546c57fdf1ea263ca57e5deb1d4315704e9ea","fields":{"nom_de_la_commune":"ANGEDUC","libell_d_acheminement":"ANGEDUC","code_postal":"16300","coordonnees_gps":[45.4783133378,-0.0552960913383],"code_commune_insee":"16014"},"geometry":{"type":"Point","coordinates":[-0.0552960913383,45.4783133378]},"record_timestamp":"2016-05-09T15:17:00+02:00"},{"datasetid":"laposte_hexasmal","recordid":"3338e8ccfb991429949c597ab89c5583f1eae582","fields":{"nom_de_la_commune":"ANGOULEME","libell_d_acheminement":"ANGOULEME","code_postal":"16000","coordonnees_gps":[45.6472585146,0.14514490683],"code_commune_insee":"16015"},"geometry":{"type":"Point","coordinates":[0.14514490683,45.6472585146]},"record_timestamp":"2016-05-09T15:17:00+02:00"},{"datasetid":"laposte_hexasmal","recordid":"5e3a16643e1d3ca15b1958cac8d8138e9e5f69bb","fields":{"nom_de_la_commune":"ANSAC SUR VIENNE","libell_d_acheminement":"ANSAC SUR VIENNE","code_postal":"16500","coordonnees_gps":[45.9943029714,0.619730334325],"code_commune_insee":"16016"},"geometry":{"type":"Point","coordinates":[0.619730334325,45.9943029714]},"record_timestamp":"2016-05-09T15:17:00+02:00"},{"datasetid":"laposte_hexasmal","recordid":"9317f0192f1b98fa93edb477cba16a4e70dc2290","fields":{"nom_de_la_commune":"BALZAC","libell_d_acheminement":"BALZAC","code_postal":"16430","coordonnees_gps":[45.7127837956,0.134124616081],"code_commune_insee":"16026"},"geometry":{"type":"Point","coordinates":[0.134124616081,45.7127837956]},"record_timestamp":"2016-05-09T15:17:00+02:00"},{"datasetid":"laposte_hexasmal","recordid":"5fdbc28866f778a69cc105201160445f7c8d80a7","fields":{"nom_de_la_commune":"BAYERS","libell_d_acheminement":"BAYERS","code_postal":"16460","coordonnees_gps":[45.924584434,0.225592494826],"code_commune_insee":"16033"},"geometry":{"type":"Point","coordinates":[0.225592494826,45.924584434]},"record_timestamp":"2016-05-09T15:17:00+02:00"},{"datasetid":"laposte_hexasmal","recordid":"64d4db792f66caa1b37e17007ff9da2673ed6b56","fields":{"nom_de_la_commune":"BEAULIEU SUR SONNETTE","libell_d_acheminement":"BEAULIEU SUR SONNETTE","code_postal":"16450","coordonnees_gps":[45.9272378764,0.372798156825],"code_commune_insee":"16035"},"geometry":{"type":"Point","coordinates":[0.372798156825,45.9272378764]},"record_timestamp":"2016-05-09T15:17:00+02:00"},{"datasetid":"laposte_hexasmal","recordid":"c109d62d43c280f9ec0230aad338188c9e0eebd8","fields":{"nom_de_la_commune":"BECHERESSE","libell_d_acheminement":"BECHERESSE","code_postal":"16250","coordonnees_gps":[45.5015198955,0.0786797939692],"code_commune_insee":"16036"},"geometry":{"type":"Point","coordinates":[0.0786797939692,45.5015198955]},"record_timestamp":"2016-05-09T15:17:00+02:00"},{"datasetid":"laposte_hexasmal","recordid":"ece16b839bdbf14706e00070290c44ad43c0693f","fields":{"nom_de_la_commune":"BENEST","libell_d_acheminement":"BENEST","code_postal":"16350","coordonnees_gps":[46.0386820793,0.452609537625],"code_commune_insee":"16038"},"geometry":{"type":"Point","coordinates":[0.452609537625,46.0386820793]},"record_timestamp":"2016-05-09T15:17:00+02:00"},{"datasetid":"laposte_hexasmal","recordid":"d2c0122f3585cc5447d450bd6a5a4ea2f87da343","fields":{"nom_de_la_commune":"BERNAC","libell_d_acheminement":"BERNAC","code_postal":"16700","coordonnees_gps":[46.0522061088,0.170991094252],"code_commune_insee":"16039"},"geometry":{"type":"Point","coordinates":[0.170991094252,46.0522061088]},"record_timestamp":"2016-05-09T15:17:00+02:00"},{"datasetid":"laposte_hexasmal","recordid":"cda51c8847e0abaf3cc7a6ec710fd557a868a755","fields":{"nom_de_la_commune":"BESSAC","libell_d_acheminement":"BESSAC","code_postal":"16250","coordonnees_gps":[45.4311590741,-0.0136973551346],"code_commune_insee":"16041"},"geometry":{"type":"Point","coordinates":[-0.0136973551346,45.4311590741]},"record_timestamp":"2016-05-09T15:17:00+02:00"},{"datasetid":"laposte_hexasmal","recordid":"bad2307bbe74a0218097ff0f04904736c9a90edf","fields":{"nom_de_la_commune":"BIOUSSAC","libell_d_acheminement":"BIOUSSAC","code_postal":"16700","coordonnees_gps":[46.0307876172,0.270410745983],"code_commune_insee":"16044"},"geometry":{"type":"Point","coordinates":[0.270410745983,46.0307876172]},"record_timestamp":"2016-05-09T15:17:00+02:00"},{"datasetid":"laposte_hexasmal","recordid":"fe4aaf0fcdf6281d9ed7d6575fae97e4ebb00270","fields":{"nom_de_la_commune":"BONNEUIL","libell_d_acheminement":"BONNEUIL","code_postal":"16120","coordonnees_gps":[45.5758801915,-0.135149328713],"code_commune_insee":"16050"},"geometry":{"type":"Point","coordinates":[-0.135149328713,45.5758801915]},"record_timestamp":"2016-05-09T15:17:00+02:00"},{"datasetid":"laposte_hexasmal","recordid":"043529e6a475c27dbb61ea883b9ae141dbe77c1e","fields":{"nom_de_la_commune":"LE BOUCHAGE","libell_d_acheminement":"LE BOUCHAGE","code_postal":"16350","coordonnees_gps":[46.0493103798,0.376687406962],"code_commune_insee":"16054"},"geometry":{"type":"Point","coordinates":[0.376687406962,46.0493103798]},"record_timestamp":"2016-05-09T15:17:00+02:00"},{"datasetid":"laposte_hexasmal","recordid":"f7509abfc5f1052dc3496de67581417358cfa02d","fields":{"nom_de_la_commune":"BRIE SOUS BARBEZIEUX","libell_d_acheminement":"BRIE SOUS BARBEZIEUX","code_postal":"16300","coordonnees_gps":[45.4238677604,-0.0407675127777],"code_commune_insee":"16062"},"geometry":{"type":"Point","coordinates":[-0.0407675127777,45.4238677604]},"record_timestamp":"2016-05-09T15:17:00+02:00"},{"datasetid":"laposte_hexasmal","recordid":"ce8f4d29fb3c25102b0fb09b8ed386d3e7701501","fields":{"nom_de_la_commune":"BRIE SOUS CHALAIS","libell_d_acheminement":"BRIE SOUS CHALAIS","code_postal":"16210","coordonnees_gps":[45.3203360527,0.0123563993642],"code_commune_insee":"16063"},"geometry":{"type":"Point","coordinates":[0.0123563993642,45.3203360527]},"record_timestamp":"2016-05-09T15:17:00+02:00"},{"datasetid":"laposte_hexasmal","recordid":"0c430644a804c6d4f3274637a4b01a204cb16235","fields":{"nom_de_la_commune":"CHABRAC","libell_d_acheminement":"CHABRAC","code_postal":"16150","coordonnees_gps":[45.926486151,0.746752143002],"code_commune_insee":"16071"},"geometry":{"type":"Point","coordinates":[0.746752143002,45.926486151]},"record_timestamp":"2016-05-09T15:17:00+02:00"},{"datasetid":"laposte_hexasmal","recordid":"777becfd207dba675d55a3bc62009054ae111835","fields":{"code_postal":"16320","code_commune_insee":"16082","libell_d_acheminement":"BOISNE LA TUDE","ligne_5":"CHAVENAT","nom_de_la_commune":"BOISNE LA TUDE","coordonnees_gps":[45.4838960103,0.177074136817]},"geometry":{"type":"Point","coordinates":[0.177074136817,45.4838960103]},"record_timestamp":"2016-05-09T15:17:00+02:00"},{"datasetid":"laposte_hexasmal","recordid":"9f26447ce983c47e496989c1fee799d1c8b0b445","fields":{"nom_de_la_commune":"CHARRAS","libell_d_acheminement":"CHARRAS","code_postal":"16380","coordonnees_gps":[45.5444379086,0.428737132242],"code_commune_insee":"16084"},"geometry":{"type":"Point","coordinates":[0.428737132242,45.5444379086]},"record_timestamp":"2016-05-09T15:17:00+02:00"},{"datasetid":"laposte_hexasmal","recordid":"c175c689342ba1172ff4e79498e8b909c89b477a","fields":{"nom_de_la_commune":"CHASSORS","libell_d_acheminement":"CHASSORS","code_postal":"16200","coordonnees_gps":[45.7102602984,-0.206803437363],"code_commune_insee":"16088"},"geometry":{"type":"Point","coordinates":[-0.206803437363,45.7102602984]},"record_timestamp":"2016-05-09T15:17:00+02:00"},{"datasetid":"laposte_hexasmal","recordid":"c6cf4223d2776966a842571bfcbab2f526b87637","fields":{"nom_de_la_commune":"CHERVES CHATELARS","libell_d_acheminement":"CHERVES CHATELARS","code_postal":"16310","coordonnees_gps":[45.8106961072,0.554054470604],"code_commune_insee":"16096"},"geometry":{"type":"Point","coordinates":[0.554054470604,45.8106961072]},"record_timestamp":"2016-05-09T15:17:00+02:00"},{"datasetid":"laposte_hexasmal","recordid":"eccef398cdddff9e5004eb8299da4a258636e966","fields":{"nom_de_la_commune":"LA CHEVRERIE","libell_d_acheminement":"LA CHEVRERIE","code_postal":"16240","coordonnees_gps":[46.0444193002,0.136305747393],"code_commune_insee":"16098"},"geometry":{"type":"Point","coordinates":[0.136305747393,46.0444193002]},"record_timestamp":"2016-05-09T15:17:00+02:00"},{"datasetid":"laposte_hexasmal","recordid":"eb11aa915cd8fc0b224d18f9348834128f81f574","fields":{"nom_de_la_commune":"CONDEON","libell_d_acheminement":"CONDEON","code_postal":"16360","coordonnees_gps":[45.4011643618,-0.134853631146],"code_commune_insee":"16105"},"geometry":{"type":"Point","coordinates":[-0.134853631146,45.4011643618]},"record_timestamp":"2016-05-09T15:17:00+02:00"},{"datasetid":"laposte_hexasmal","recordid":"e213d2fa128072cc96749cbf1cc31cf5d6ebef76","fields":{"nom_de_la_commune":"ALLOUE","libell_d_acheminement":"ALLOUE","code_postal":"16490","coordonnees_gps":[46.0204552645,0.5258351895],"code_commune_insee":"16007"},"geometry":{"type":"Point","coordinates":[0.5258351895,46.0204552645]},"record_timestamp":"2016-05-09T15:17:00+02:00"},{"datasetid":"laposte_hexasmal","recordid":"e3dfb11812cccfcbd95d0b01c74964d032fd211c","fields":{"nom_de_la_commune":"AMBERAC","libell_d_acheminement":"AMBERAC","code_postal":"16140","coordonnees_gps":[45.8562404894,0.0591293874218],"code_commune_insee":"16008"},"geometry":{"type":"Point","coordinates":[0.0591293874218,45.8562404894]},"record_timestamp":"2016-05-09T15:17:00+02:00"},{"datasetid":"laposte_hexasmal","recordid":"fc7f2b495e54c2a0e1f4d4b5877eb85c43df7642","fields":{"nom_de_la_commune":"ANAIS","libell_d_acheminement":"ANAIS","code_postal":"16560","coordonnees_gps":[45.7689915038,0.206024179916],"code_commune_insee":"16011"},"geometry":{"type":"Point","coordinates":[0.206024179916,45.7689915038]},"record_timestamp":"2016-05-09T15:17:00+02:00"},{"datasetid":"laposte_hexasmal","recordid":"bc4c0316cff85ae525847bcd7f1ddac9501d67a8","fields":{"nom_de_la_commune":"ASNIERES SUR NOUERE","libell_d_acheminement":"ASNIERES SUR NOUERE","code_postal":"16290","coordonnees_gps":[45.7078415562,0.0487826997236],"code_commune_insee":"16019"},"geometry":{"type":"Point","coordinates":[0.0487826997236,45.7078415562]},"record_timestamp":"2016-05-09T15:17:00+02:00"},{"datasetid":"laposte_hexasmal","recordid":"9fda5f0739b5733f6a8e1d5e5cb17bc37ecd662e","fields":{"nom_de_la_commune":"BAIGNES STE RADEGONDE","libell_d_acheminement":"BAIGNES STE RADEGONDE","code_postal":"16360","coordonnees_gps":[45.374443862,-0.254082617191],"code_commune_insee":"16025"},"geometry":{"type":"Point","coordinates":[-0.254082617191,45.374443862]},"record_timestamp":"2016-05-09T15:17:00+02:00"},{"datasetid":"laposte_hexasmal","recordid":"6459a6953da16f6e8c1a008634a050c7c908254d","fields":{"nom_de_la_commune":"BELLON","libell_d_acheminement":"BELLON","code_postal":"16210","coordonnees_gps":[45.3129742539,0.116774132043],"code_commune_insee":"16037"},"geometry":{"type":"Point","coordinates":[0.116774132043,45.3129742539]},"record_timestamp":"2016-05-09T15:17:00+02:00"},{"datasetid":"laposte_hexasmal","recordid":"9b2ac82ed3e8c4c12dfd187593f875a299a37415","fields":{"code_postal":"16250","code_commune_insee":"16046","libell_d_acheminement":"BLANZAC PORCHERESSE","ligne_5":"PORCHERESSE","nom_de_la_commune":"BLANZAC PORCHERESSE","coordonnees_gps":[45.4714654807,0.0236302142689]},"geometry":{"type":"Point","coordinates":[0.0236302142689,45.4714654807]},"record_timestamp":"2016-05-09T15:17:00+02:00"},{"datasetid":"laposte_hexasmal","recordid":"499e8c83981bf715e5176ab066c7eba58eefbf2b","fields":{"nom_de_la_commune":"BLANZAGUET ST CYBARD","libell_d_acheminement":"BLANZAGUET ST CYBARD","code_postal":"16320","coordonnees_gps":[45.4732165365,0.313168592903],"code_commune_insee":"16047"},"geometry":{"type":"Point","coordinates":[0.313168592903,45.4732165365]},"record_timestamp":"2016-05-09T15:17:00+02:00"},{"datasetid":"laposte_hexasmal","recordid":"fb7b0327bdfdde732f895a282b4510da117e994f","fields":{"nom_de_la_commune":"BOISBRETEAU","libell_d_acheminement":"BOISBRETEAU","code_postal":"16480","coordonnees_gps":[45.3299592266,-0.159147291583],"code_commune_insee":"16048"},"geometry":{"type":"Point","coordinates":[-0.159147291583,45.3299592266]},"record_timestamp":"2016-05-09T15:17:00+02:00"},{"datasetid":"laposte_hexasmal","recordid":"f33693cfbcfa85d13b5465624c7a60a396198a3a","fields":{"nom_de_la_commune":"BONNEVILLE","libell_d_acheminement":"BONNEVILLE","code_postal":"16170","coordonnees_gps":[45.8381451066,-0.0500530176925],"code_commune_insee":"16051"},"geometry":{"type":"Point","coordinates":[-0.0500530176925,45.8381451066]},"record_timestamp":"2016-05-09T15:17:00+02:00"},{"datasetid":"laposte_hexasmal","recordid":"68072082666c186f477ab91b8a3847eb84c7d57b","fields":{"nom_de_la_commune":"BOUEX","libell_d_acheminement":"BOUEX","code_postal":"16410","coordonnees_gps":[45.6246508567,0.318204980739],"code_commune_insee":"16055"},"geometry":{"type":"Point","coordinates":[0.318204980739,45.6246508567]},"record_timestamp":"2016-05-09T15:17:00+02:00"},{"datasetid":"laposte_hexasmal","recordid":"79e4b464f9cc126946bfa8af4bbacf40bc41cac0","fields":{"nom_de_la_commune":"BOURG CHARENTE","libell_d_acheminement":"BOURG CHARENTE","code_postal":"16200","coordonnees_gps":[45.6659937822,-0.222233070692],"code_commune_insee":"16056"},"geometry":{"type":"Point","coordinates":[-0.222233070692,45.6659937822]},"record_timestamp":"2016-05-09T15:17:00+02:00"},{"datasetid":"laposte_hexasmal","recordid":"280fc3ef79cd07f938bf6a04fe69da11d21e0fdf","fields":{"nom_de_la_commune":"BOUTEVILLE","libell_d_acheminement":"BOUTEVILLE","code_postal":"16120","coordonnees_gps":[45.6069622968,-0.127003754682],"code_commune_insee":"16057"},"geometry":{"type":"Point","coordinates":[-0.127003754682,45.6069622968]},"record_timestamp":"2016-05-09T15:17:00+02:00"},{"datasetid":"laposte_hexasmal","recordid":"2d9f0f51e74400395bbfd7ff079e676571d58fc4","fields":{"nom_de_la_commune":"BREVILLE","libell_d_acheminement":"BREVILLE","code_postal":"16370","coordonnees_gps":[45.7891537145,-0.274845145483],"code_commune_insee":"16060"},"geometry":{"type":"Point","coordinates":[-0.274845145483,45.7891537145]},"record_timestamp":"2016-05-09T15:17:00+02:00"},{"datasetid":"laposte_hexasmal","recordid":"bb4d70cb58213badc5ae81ca9b08cc26165fc000","fields":{"nom_de_la_commune":"BRIE","libell_d_acheminement":"BRIE","code_postal":"16590","coordonnees_gps":[45.7345393339,0.266852612131],"code_commune_insee":"16061"},"geometry":{"type":"Point","coordinates":[0.266852612131,45.7345393339]},"record_timestamp":"2016-05-09T15:17:00+02:00"},{"datasetid":"laposte_hexasmal","recordid":"20f2a5765805e9c89feaa8668c3af31288a2da19","fields":{"nom_de_la_commune":"BROSSAC","libell_d_acheminement":"BROSSAC","code_postal":"16480","coordonnees_gps":[45.3238579692,-0.0465934055861],"code_commune_insee":"16066"},"geometry":{"type":"Point","coordinates":[-0.0465934055861,45.3238579692]},"record_timestamp":"2016-05-09T15:17:00+02:00"},{"datasetid":"laposte_hexasmal","recordid":"fd1166b052a09a72122c2388d34410def88035f5","fields":{"nom_de_la_commune":"CELLEFROUIN","libell_d_acheminement":"CELLEFROUIN","code_postal":"16260","coordonnees_gps":[45.8877573804,0.391851835711],"code_commune_insee":"16068"},"geometry":{"type":"Point","coordinates":[0.391851835711,45.8877573804]},"record_timestamp":"2016-05-09T15:17:00+02:00"},{"datasetid":"laposte_hexasmal","recordid":"4b9e0149ef718fdb855a49961f95f12c94e6cf94","fields":{"nom_de_la_commune":"CELLETTES","libell_d_acheminement":"CELLETTES","code_postal":"16230","coordonnees_gps":[45.8643336097,0.145594673488],"code_commune_insee":"16069"},"geometry":{"type":"Point","coordinates":[0.145594673488,45.8643336097]},"record_timestamp":"2016-05-09T15:17:00+02:00"},{"datasetid":"laposte_hexasmal","recordid":"4b856bc76a2971b656259f60db4395445ac8fd9f","fields":{"code_postal":"16210","code_commune_insee":"16073","libell_d_acheminement":"CHALAIS","ligne_5":"STE MARIE","nom_de_la_commune":"CHALAIS","coordonnees_gps":[45.2739548684,0.0385508867289]},"geometry":{"type":"Point","coordinates":[0.0385508867289,45.2739548684]},"record_timestamp":"2016-05-09T15:17:00+02:00"},{"datasetid":"laposte_hexasmal","recordid":"162a702a8bfe9f39829afd6a8b522b961cbe0bed","fields":{"nom_de_la_commune":"LA CHAPELLE","libell_d_acheminement":"LA CHAPELLE","code_postal":"16140","coordonnees_gps":[45.8307508643,0.0517878633867],"code_commune_insee":"16081"},"geometry":{"type":"Point","coordinates":[0.0517878633867,45.8307508643]},"record_timestamp":"2016-05-09T15:17:00+02:00"},{"datasetid":"laposte_hexasmal","recordid":"056741344b381e96729208dafda7541cb3e381c6","fields":{"code_postal":"16320","code_commune_insee":"16082","libell_d_acheminement":"BOISNE LA TUDE","ligne_5":"CHARMANT","nom_de_la_commune":"BOISNE LA TUDE","coordonnees_gps":[45.4838960103,0.177074136817]},"geometry":{"type":"Point","coordinates":[0.177074136817,45.4838960103]},"record_timestamp":"2016-05-09T15:17:00+02:00"},{"datasetid":"laposte_hexasmal","recordid":"b59e6482452e38210094964a2da7bed305ef687a","fields":{"nom_de_la_commune":"CHASSIECQ","libell_d_acheminement":"CHASSIECQ","code_postal":"16350","coordonnees_gps":[45.9509527297,0.368543478454],"code_commune_insee":"16087"},"geometry":{"type":"Point","coordinates":[0.368543478454,45.9509527297]},"record_timestamp":"2016-05-09T15:17:00+02:00"},{"datasetid":"laposte_hexasmal","recordid":"aa363f216eb8213f97f332bd46f8885bac1f20a5","fields":{"nom_de_la_commune":"CHAZELLES","libell_d_acheminement":"CHAZELLES","code_postal":"16380","coordonnees_gps":[45.6453528845,0.364874391871],"code_commune_insee":"16093"},"geometry":{"type":"Point","coordinates":[0.364874391871,45.6453528845]},"record_timestamp":"2016-05-09T15:17:00+02:00"},{"datasetid":"laposte_hexasmal","recordid":"966bbd732378fee9b70570c29204c68b79f97692","fields":{"nom_de_la_commune":"CHENOMMET","libell_d_acheminement":"CHENOMMET","code_postal":"16460","coordonnees_gps":[45.9343002402,0.252955501308],"code_commune_insee":"16094"},"geometry":{"type":"Point","coordinates":[0.252955501308,45.9343002402]},"record_timestamp":"2016-05-09T15:17:00+02:00"},{"datasetid":"laposte_hexasmal","recordid":"bb8d06f6495e81e5c5b54dfe1ffaae23ac02d52f","fields":{"nom_de_la_commune":"CHIRAC","libell_d_acheminement":"CHIRAC","code_postal":"16150","coordonnees_gps":[45.9131739872,0.685106701432],"code_commune_insee":"16100"},"geometry":{"type":"Point","coordinates":[0.685106701432,45.9131739872]},"record_timestamp":"2016-05-09T15:17:00+02:00"},{"datasetid":"laposte_hexasmal","recordid":"5517a8f87319a60638df5290fe1d329fa4f5ef44","fields":{"nom_de_la_commune":"COURLAC","libell_d_acheminement":"COURLAC","code_postal":"16210","coordonnees_gps":[45.3012384064,0.0880679365563],"code_commune_insee":"16112"},"geometry":{"type":"Point","coordinates":[0.0880679365563,45.3012384064]},"record_timestamp":"2016-05-09T15:17:00+02:00"},{"datasetid":"laposte_hexasmal","recordid":"7691fbcc6f9fa41d9d191de1f87a3d139a71a88e","fields":{"nom_de_la_commune":"DEVIAT","libell_d_acheminement":"DEVIAT","code_postal":"16190","coordonnees_gps":[45.4087322108,0.0148313347537],"code_commune_insee":"16118"},"geometry":{"type":"Point","coordinates":[0.0148313347537,45.4087322108]},"record_timestamp":"2016-05-09T15:17:00+02:00"},{"datasetid":"laposte_hexasmal","recordid":"fe562cda7b03a38fcf608bab14f71b1a38094ce8","fields":{"nom_de_la_commune":"DIRAC","libell_d_acheminement":"DIRAC","code_postal":"16410","coordonnees_gps":[45.5986667875,0.241731538574],"code_commune_insee":"16120"},"geometry":{"type":"Point","coordinates":[0.241731538574,45.5986667875]},"record_timestamp":"2016-05-09T15:17:00+02:00"},{"datasetid":"laposte_hexasmal","recordid":"b71a3a2dc25f2668a28039382e96fdec4a2f83ee","fields":{"nom_de_la_commune":"EPENEDE","libell_d_acheminement":"EPENEDE","code_postal":"16490","coordonnees_gps":[46.069351116,0.537822207003],"code_commune_insee":"16128"},"geometry":{"type":"Point","coordinates":[0.537822207003,46.069351116]},"record_timestamp":"2016-05-09T15:17:00+02:00"},{"datasetid":"laposte_hexasmal","recordid":"4569d2c7995bf54284e673793b26d835cd738145","fields":{"nom_de_la_commune":"LES ESSARDS","libell_d_acheminement":"LES ESSARDS","code_postal":"16210","coordonnees_gps":[45.237352605,0.111052044267],"code_commune_insee":"16130"},"geometry":{"type":"Point","coordinates":[0.111052044267,45.237352605]},"record_timestamp":"2016-05-09T15:17:00+02:00"},{"datasetid":"laposte_hexasmal","recordid":"40c9c6c2045728d50df295b4c25fdc791843afbe","fields":{"nom_de_la_commune":"ETAGNAC","libell_d_acheminement":"ETAGNAC","code_postal":"16150","coordonnees_gps":[45.8907561281,0.783276589997],"code_commune_insee":"16132"},"geometry":{"type":"Point","coordinates":[0.783276589997,45.8907561281]},"record_timestamp":"2016-05-09T15:17:00+02:00"},{"datasetid":"laposte_hexasmal","recordid":"1cd088d3931f9947b8bda065c38445f51ee05e8b","fields":{"nom_de_la_commune":"ETRIAC","libell_d_acheminement":"ETRIAC","code_postal":"16250","coordonnees_gps":[45.527140208,-0.00959232022065],"code_commune_insee":"16133"},"geometry":{"type":"Point","coordinates":[-0.00959232022065,45.527140208]},"record_timestamp":"2016-05-09T15:17:00+02:00"},{"datasetid":"laposte_hexasmal","recordid":"70a1fa0458fb1979b7ca7fa6b301a2c88f1ebf7b","fields":{"nom_de_la_commune":"FEUILLADE","libell_d_acheminement":"FEUILLADE","code_postal":"16380","coordonnees_gps":[45.5930624108,0.467173536421],"code_commune_insee":"16137"},"geometry":{"type":"Point","coordinates":[0.467173536421,45.5930624108]},"record_timestamp":"2016-05-09T15:17:00+02:00"},{"datasetid":"laposte_hexasmal","recordid":"6f759fc223bb84aa542f075a14a8f0acebe63190","fields":{"nom_de_la_commune":"LA FORET DE TESSE","libell_d_acheminement":"LA FORET DE TESSE","code_postal":"16240","coordonnees_gps":[46.0765352941,0.0784986933953],"code_commune_insee":"16142"},"geometry":{"type":"Point","coordinates":[0.0784986933953,46.0765352941]},"record_timestamp":"2016-05-09T15:17:00+02:00"},{"datasetid":"laposte_hexasmal","recordid":"89e65694792123c15f99e483255e14ecfa4731b3","fields":{"nom_de_la_commune":"FOUSSIGNAC","libell_d_acheminement":"FOUSSIGNAC","code_postal":"16200","coordonnees_gps":[45.7127451252,-0.125082004293],"code_commune_insee":"16145"},"geometry":{"type":"Point","coordinates":[-0.125082004293,45.7127451252]},"record_timestamp":"2016-05-09T15:17:00+02:00"},{"datasetid":"laposte_hexasmal","recordid":"6e1034203bc8952d19737a17932c5aef0cd2122b","fields":{"nom_de_la_commune":"GENAC BIGNAC","libell_d_acheminement":"GENAC BIGNAC","code_postal":"16170","coordonnees_gps":[45.8009500924,0.021470943172],"code_commune_insee":"16148"},"geometry":{"type":"Point","coordinates":[0.021470943172,45.8009500924]},"record_timestamp":"2016-05-09T15:17:00+02:00"},{"datasetid":"laposte_hexasmal","recordid":"6670005a635428ad40f21891de9b02648e9d647a","fields":{"nom_de_la_commune":"GENSAC LA PALLUE","libell_d_acheminement":"GENSAC LA PALLUE","code_postal":"16130","coordonnees_gps":[45.6572262883,-0.268790187481],"code_commune_insee":"16150"},"geometry":{"type":"Point","coordinates":[-0.268790187481,45.6572262883]},"record_timestamp":"2016-05-09T15:17:00+02:00"},{"datasetid":"laposte_hexasmal","recordid":"4d47ccc64695c3400bed8f2636badf99719a9dce","fields":{"nom_de_la_commune":"JUIGNAC","libell_d_acheminement":"JUIGNAC","code_postal":"16190","coordonnees_gps":[45.3679418137,0.158358681368],"code_commune_insee":"16170"},"geometry":{"type":"Point","coordinates":[0.158358681368,45.3679418137]},"record_timestamp":"2016-05-09T15:17:00+02:00"},{"datasetid":"laposte_hexasmal","recordid":"e096690671705d7e57180a842db36a3370250827","fields":{"nom_de_la_commune":"LADIVILLE","libell_d_acheminement":"LADIVILLE","code_postal":"16120","coordonnees_gps":[45.5127200885,-0.0639782676163],"code_commune_insee":"16177"},"geometry":{"type":"Point","coordinates":[-0.0639782676163,45.5127200885]},"record_timestamp":"2016-05-09T15:17:00+02:00"},{"datasetid":"laposte_hexasmal","recordid":"460885e4a7634d1180c26cb8ad1b882172680bc5","fields":{"nom_de_la_commune":"LAGARDE SUR LE NE","libell_d_acheminement":"LAGARDE SUR LE NE","code_postal":"16300","coordonnees_gps":[45.5153360206,-0.205805463982],"code_commune_insee":"16178"},"geometry":{"type":"Point","coordinates":[-0.205805463982,45.5153360206]},"record_timestamp":"2016-05-09T15:17:00+02:00"},{"datasetid":"laposte_hexasmal","recordid":"12a78c6aa49ed8e6c9914b96c1f077919fc3572a","fields":{"nom_de_la_commune":"LAPRADE","libell_d_acheminement":"LAPRADE","code_postal":"16390","coordonnees_gps":[45.2795486363,0.186050460414],"code_commune_insee":"16180"},"geometry":{"type":"Point","coordinates":[0.186050460414,45.2795486363]},"record_timestamp":"2016-05-09T15:17:00+02:00"},{"datasetid":"laposte_hexasmal","recordid":"74a0fabb17dc6d2a992680f0a3ed59451bd7ff8c","fields":{"nom_de_la_commune":"LESTERPS","libell_d_acheminement":"LESTERPS","code_postal":"16420","coordonnees_gps":[46.012245179,0.791766541587],"code_commune_insee":"16182"},"geometry":{"type":"Point","coordinates":[0.791766541587,46.012245179]},"record_timestamp":"2016-05-09T15:17:00+02:00"},{"datasetid":"laposte_hexasmal","recordid":"228b32a3690e85652cb905df90b1fa067800437d","fields":{"nom_de_la_commune":"LICHERES","libell_d_acheminement":"LICHERES","code_postal":"16460","coordonnees_gps":[45.9042961914,0.215718804907],"code_commune_insee":"16184"},"geometry":{"type":"Point","coordinates":[0.215718804907,45.9042961914]},"record_timestamp":"2016-05-09T15:17:00+02:00"},{"datasetid":"laposte_hexasmal","recordid":"c2e69ec5ecf3e5fa713d0c082f2394e3e67f37a3","fields":{"nom_de_la_commune":"LIGNIERES SONNEVILLE","libell_d_acheminement":"LIGNIERES SONNEVILLE","code_postal":"16130","coordonnees_gps":[45.5660291672,-0.185136397799],"code_commune_insee":"16186"},"geometry":{"type":"Point","coordinates":[-0.185136397799,45.5660291672]},"record_timestamp":"2016-05-09T15:17:00+02:00"},{"datasetid":"laposte_hexasmal","recordid":"f5e4d126c7446f3e572e2f7e89e3abe8f0b88404","fields":{"code_postal":"16100","code_commune_insee":"16193","libell_d_acheminement":"LOUZAC ST ANDRE","ligne_5":"ST ANDRE","nom_de_la_commune":"LOUZAC ST ANDRE","coordonnees_gps":[45.7237365822,-0.39737034952]},"geometry":{"type":"Point","coordinates":[-0.39737034952,45.7237365822]},"record_timestamp":"2016-05-09T15:17:00+02:00"},{"datasetid":"laposte_hexasmal","recordid":"0e95563385da75712264267c7ee8431ffd492853","fields":{"nom_de_la_commune":"MANOT","libell_d_acheminement":"MANOT","code_postal":"16500","coordonnees_gps":[45.9343000992,0.621390097085],"code_commune_insee":"16205"},"geometry":{"type":"Point","coordinates":[0.621390097085,45.9343000992]},"record_timestamp":"2016-05-09T15:17:00+02:00"},{"datasetid":"laposte_hexasmal","recordid":"3fc858d2ed3281acb0579c42358f5f30ddbad954","fields":{"nom_de_la_commune":"MARILLAC LE FRANC","libell_d_acheminement":"MARILLAC LE FRANC","code_postal":"16110","coordonnees_gps":[45.7307516041,0.432572221643],"code_commune_insee":"16209"},"geometry":{"type":"Point","coordinates":[0.432572221643,45.7307516041]},"record_timestamp":"2016-05-09T15:17:00+02:00"},{"datasetid":"laposte_hexasmal","recordid":"de879dc7c68f09361cf2d292e9faf2f462427396","fields":{"nom_de_la_commune":"MASSIGNAC","libell_d_acheminement":"MASSIGNAC","code_postal":"16310","coordonnees_gps":[45.77722919,0.656859261312],"code_commune_insee":"16212"},"geometry":{"type":"Point","coordinates":[0.656859261312,45.77722919]},"record_timestamp":"2016-05-09T15:17:00+02:00"},{"datasetid":"laposte_hexasmal","recordid":"2916474ef755d635d9f30cd706f21eec7a0925eb","fields":{"nom_de_la_commune":"LES METAIRIES","libell_d_acheminement":"LES METAIRIES","code_postal":"16200","coordonnees_gps":[45.7072352152,-0.175701106278],"code_commune_insee":"16220"},"geometry":{"type":"Point","coordinates":[-0.175701106278,45.7072352152]},"record_timestamp":"2016-05-09T15:17:00+02:00"},{"datasetid":"laposte_hexasmal","recordid":"4837cf15bb069214e1b94c5d147e0bab15afafb1","fields":{"nom_de_la_commune":"MONTBRON","libell_d_acheminement":"MONTBRON","code_postal":"16220","coordonnees_gps":[45.667656871,0.504316384558],"code_commune_insee":"16223"},"geometry":{"type":"Point","coordinates":[0.504316384558,45.667656871]},"record_timestamp":"2016-05-09T15:17:00+02:00"},{"datasetid":"laposte_hexasmal","recordid":"8ffa1749631233113fd07274d30224f7ebfdc4eb","fields":{"code_postal":"16300","code_commune_insee":"16224","libell_d_acheminement":"MONTMERAC","ligne_5":"LAMERAC","nom_de_la_commune":"MONTMERAC","coordonnees_gps":[45.4462725205,-0.208192784801]},"geometry":{"type":"Point","coordinates":[-0.208192784801,45.4462725205]},"record_timestamp":"2016-05-09T15:17:00+02:00"},{"datasetid":"laposte_hexasmal","recordid":"67d10cdfa82bb9ee1a3ff349f81917a46bf37a89","fields":{"nom_de_la_commune":"MONTIGNAC LE COQ","libell_d_acheminement":"MONTIGNAC LE COQ","code_postal":"16390","coordonnees_gps":[45.3419148325,0.214682193579],"code_commune_insee":"16227"},"geometry":{"type":"Point","coordinates":[0.214682193579,45.3419148325]},"record_timestamp":"2016-05-09T15:17:00+02:00"},{"datasetid":"laposte_hexasmal","recordid":"74f7b60410f5aa2d1cf37f6b675f57ef6ed29355","fields":{"nom_de_la_commune":"MONTJEAN","libell_d_acheminement":"MONTJEAN","code_postal":"16240","coordonnees_gps":[46.0796805588,0.109828994536],"code_commune_insee":"16229"},"geometry":{"type":"Point","coordinates":[0.109828994536,46.0796805588]},"record_timestamp":"2016-05-09T15:17:00+02:00"},{"datasetid":"laposte_hexasmal","recordid":"e405064baf0d6db131317b7cbbe555e7210fa8be","fields":{"nom_de_la_commune":"MONTMOREAU ST CYBARD","libell_d_acheminement":"MONTMOREAU ST CYBARD","code_postal":"16190","coordonnees_gps":[45.4225777872,0.127349505692],"code_commune_insee":"16230"},"geometry":{"type":"Point","coordinates":[0.127349505692,45.4225777872]},"record_timestamp":"2016-05-09T15:17:00+02:00"},{"datasetid":"laposte_hexasmal","recordid":"9e61d3dd58c2cd0fac8d29081ae47e6b5b3b6dd9","fields":{"nom_de_la_commune":"MONTROLLET","libell_d_acheminement":"MONTROLLET","code_postal":"16420","coordonnees_gps":[45.9911418674,0.899879118608],"code_commune_insee":"16231"},"geometry":{"type":"Point","coordinates":[0.899879118608,45.9911418674]},"record_timestamp":"2016-05-09T15:17:00+02:00"},{"datasetid":"laposte_hexasmal","recordid":"e2209351646153c6cef875ada1fc77ae66e0cf01","fields":{"nom_de_la_commune":"MOSNAC","libell_d_acheminement":"MOSNAC","code_postal":"16120","coordonnees_gps":[45.615285295,-0.0132218881439],"code_commune_insee":"16233"},"geometry":{"type":"Point","coordinates":[-0.0132218881439,45.615285295]},"record_timestamp":"2016-05-09T15:17:00+02:00"},{"datasetid":"laposte_hexasmal","recordid":"eb3f8e069023a6c869a2a5b7e43ef90412f92cce","fields":{"nom_de_la_commune":"NABINAUD","libell_d_acheminement":"NABINAUD","code_postal":"16390","coordonnees_gps":[45.2933421272,0.210125540377],"code_commune_insee":"16240"},"geometry":{"type":"Point","coordinates":[0.210125540377,45.2933421272]},"record_timestamp":"2016-05-09T15:17:00+02:00"},{"datasetid":"laposte_hexasmal","recordid":"ca1c2164f5089a10845236db2e3c63d1941020b0","fields":{"code_postal":"16700","code_commune_insee":"16242","libell_d_acheminement":"NANTEUIL EN VALLEE","ligne_5":"MESSEUX","nom_de_la_commune":"NANTEUIL EN VALLEE","coordonnees_gps":[46.0061029111,0.32369225522]},"geometry":{"type":"Point","coordinates":[0.32369225522,46.0061029111]},"record_timestamp":"2016-05-09T15:17:00+02:00"},{"datasetid":"laposte_hexasmal","recordid":"5143784335bc3a2b88e13fb26ca2ed5fdc9f8a0a","fields":{"nom_de_la_commune":"PARZAC","libell_d_acheminement":"PARZAC","code_postal":"16450","coordonnees_gps":[45.9244427035,0.420746139781],"code_commune_insee":"16255"},"geometry":{"type":"Point","coordinates":[0.420746139781,45.9244427035]},"record_timestamp":"2016-05-09T15:17:00+02:00"},{"datasetid":"laposte_hexasmal","recordid":"f6652aa0c8f704a5e2bca5b335669ba97af93ee7","fields":{"nom_de_la_commune":"PERIGNAC","libell_d_acheminement":"PERIGNAC","code_postal":"16250","coordonnees_gps":[45.4667323949,0.0826496107901],"code_commune_insee":"16258"},"geometry":{"type":"Point","coordinates":[0.0826496107901,45.4667323949]},"record_timestamp":"2016-05-09T15:17:00+02:00"},{"datasetid":"laposte_hexasmal","recordid":"f0dbed3648ff6d1bb6462713c9f187db317166be","fields":{"nom_de_la_commune":"PLEUVILLE","libell_d_acheminement":"PLEUVILLE","code_postal":"16490","coordonnees_gps":[46.0971776924,0.492356946293],"code_commune_insee":"16264"},"geometry":{"type":"Point","coordinates":[0.492356946293,46.0971776924]},"record_timestamp":"2016-05-09T15:17:00+02:00"},{"datasetid":"laposte_hexasmal","recordid":"5f5d48d67e75bffcdfe62f9d4f381388048f792d","fields":{"nom_de_la_commune":"RIVIERES","libell_d_acheminement":"RIVIERES","code_postal":"16110","coordonnees_gps":[45.7608747272,0.359373568678],"code_commune_insee":"16280"},"geometry":{"type":"Point","coordinates":[0.359373568678,45.7608747272]},"record_timestamp":"2016-05-09T15:17:00+02:00"},{"datasetid":"laposte_hexasmal","recordid":"d71db18caeac0cde0064bcd6ec9cc724b8c98f5e","fields":{"code_postal":"16170","code_commune_insee":"16286","libell_d_acheminement":"ROUILLAC","ligne_5":"SONNEVILLE","nom_de_la_commune":"ROUILLAC","coordonnees_gps":[45.781947293,-0.074390136916]},"geometry":{"type":"Point","coordinates":[-0.074390136916,45.781947293]},"record_timestamp":"2016-05-09T15:17:00+02:00"},{"datasetid":"laposte_hexasmal","recordid":"7b467355a5d777e24b24ad4ba9c222abadd1ea69","fields":{"nom_de_la_commune":"ROULLET ST ESTEPHE","libell_d_acheminement":"ROULLET ST ESTEPHE","code_postal":"16440","coordonnees_gps":[45.5803788491,0.0313550273594],"code_commune_insee":"16287"},"geometry":{"type":"Point","coordinates":[0.0313550273594,45.5803788491]},"record_timestamp":"2016-05-09T15:17:00+02:00"},{"datasetid":"laposte_hexasmal","recordid":"af4b5ea6f388bda7e977b52df501d12252be440e","fields":{"code_postal":"16440","code_commune_insee":"16287","libell_d_acheminement":"ROULLET ST ESTEPHE","ligne_5":"ST ESTEPHE","nom_de_la_commune":"ROULLET ST ESTEPHE","coordonnees_gps":[45.5803788491,0.0313550273594]},"geometry":{"type":"Point","coordinates":[0.0313550273594,45.5803788491]},"record_timestamp":"2016-05-09T15:17:00+02:00"},{"datasetid":"laposte_hexasmal","recordid":"dcada94f308f873606a9c195c275d53c86503f84","fields":{"nom_de_la_commune":"RUELLE SUR TOUVRE","libell_d_acheminement":"RUELLE SUR TOUVRE","code_postal":"16600","coordonnees_gps":[45.6836924747,0.231195852301],"code_commune_insee":"16291"},"geometry":{"type":"Point","coordinates":[0.231195852301,45.6836924747]},"record_timestamp":"2016-05-09T15:17:00+02:00"},{"datasetid":"laposte_hexasmal","recordid":"c9f8bca854905f90bdcc084115b22aed78695bdd","fields":{"nom_de_la_commune":"ST AMANT DE BONNIEURE","libell_d_acheminement":"ST AMANT DE BONNIEURE","code_postal":"16230","coordonnees_gps":[45.859466527,0.29560744863],"code_commune_insee":"16296"},"geometry":{"type":"Point","coordinates":[0.29560744863,45.859466527]},"record_timestamp":"2016-05-09T15:17:00+02:00"},{"datasetid":"laposte_hexasmal","recordid":"45860bcb1d401b42216460e1ff9ba4c49862e5bb","fields":{"nom_de_la_commune":"ST AMANT DE NOUERE","libell_d_acheminement":"ST AMANT DE NOUERE","code_postal":"16170","coordonnees_gps":[45.7363123323,-0.00546098740035],"code_commune_insee":"16298"},"geometry":{"type":"Point","coordinates":[-0.00546098740035,45.7363123323]},"record_timestamp":"2016-05-09T15:17:00+02:00"},{"datasetid":"laposte_hexasmal","recordid":"d05aa9c1ffa5eb0132fce2f174f505a92d63c5df","fields":{"nom_de_la_commune":"ST AVIT","libell_d_acheminement":"ST AVIT","code_postal":"16210","coordonnees_gps":[45.2438261772,0.0442847703212],"code_commune_insee":"16302"},"geometry":{"type":"Point","coordinates":[0.0442847703212,45.2438261772]},"record_timestamp":"2016-05-09T15:17:00+02:00"},{"datasetid":"laposte_hexasmal","recordid":"a2b4e51e893c5b61501f18f6f2782cb42f54f78e","fields":{"nom_de_la_commune":"ST BRICE","libell_d_acheminement":"ST BRICE","code_postal":"16100","coordonnees_gps":[45.6902103203,-0.264553424103],"code_commune_insee":"16304"},"geometry":{"type":"Point","coordinates":[-0.264553424103,45.6902103203]},"record_timestamp":"2016-05-09T15:17:00+02:00"},{"datasetid":"laposte_hexasmal","recordid":"25b3377df286d5c8c54e24c288a7bf912c61879f","fields":{"nom_de_la_commune":"ST CIERS SUR BONNIEURE","libell_d_acheminement":"ST CIERS SUR BONNIEURE","code_postal":"16230","coordonnees_gps":[45.8648580415,0.247717734132],"code_commune_insee":"16307"},"geometry":{"type":"Point","coordinates":[0.247717734132,45.8648580415]},"record_timestamp":"2016-05-09T15:17:00+02:00"},{"datasetid":"laposte_hexasmal","recordid":"d4e7465f10e6337e30a32d668a9e77807cd44593","fields":{"nom_de_la_commune":"ST GEORGES","libell_d_acheminement":"ST GEORGES","code_postal":"16700","coordonnees_gps":[45.9760746261,0.269280643049],"code_commune_insee":"16321"},"geometry":{"type":"Point","coordinates":[0.269280643049,45.9760746261]},"record_timestamp":"2016-05-09T15:17:00+02:00"},{"datasetid":"laposte_hexasmal","recordid":"9b3dca3f34aa0336ac3e150ca8a66e8603c8cb92","fields":{"nom_de_la_commune":"ST LAURENT DE CERIS","libell_d_acheminement":"ST LAURENT DE CERIS","code_postal":"16450","coordonnees_gps":[45.9432646636,0.49869730659],"code_commune_insee":"16329"},"geometry":{"type":"Point","coordinates":[0.49869730659,45.9432646636]},"record_timestamp":"2016-05-09T15:17:00+02:00"},{"datasetid":"laposte_hexasmal","recordid":"ffa9149170fdda21b0649560116adc5862ec4830","fields":{"nom_de_la_commune":"ST MARY","libell_d_acheminement":"ST MARY","code_postal":"16260","coordonnees_gps":[45.8452386598,0.362015823],"code_commune_insee":"16336"},"geometry":{"type":"Point","coordinates":[0.362015823,45.8452386598]},"record_timestamp":"2016-05-09T15:17:00+02:00"},{"datasetid":"laposte_hexasmal","recordid":"92aa1992cb7daee22ed440fe27e95cc6ede114a2","fields":{"code_postal":"16170","code_commune_insee":"16339","libell_d_acheminement":"AUGE ST MEDARD","ligne_5":"AUGE","nom_de_la_commune":"AUGE ST MEDARD","coordonnees_gps":[45.8511416602,-0.0872262855566]},"geometry":{"type":"Point","coordinates":[-0.0872262855566,45.8511416602]},"record_timestamp":"2016-05-09T15:17:00+02:00"},{"datasetid":"laposte_hexasmal","recordid":"c4214c74f7b2410a083d7eb679f452690582bf6b","fields":{"nom_de_la_commune":"ST PALAIS DU NE","libell_d_acheminement":"ST PALAIS DU NE","code_postal":"16300","coordonnees_gps":[45.5408910376,-0.28660127584],"code_commune_insee":"16342"},"geometry":{"type":"Point","coordinates":[-0.28660127584,45.5408910376]},"record_timestamp":"2016-05-09T15:17:00+02:00"},{"datasetid":"laposte_hexasmal","recordid":"3d894f22bd4d88d2a8b9d24f177196549e57c30b","fields":{"nom_de_la_commune":"ST QUENTIN DE CHALAIS","libell_d_acheminement":"ST QUENTIN DE CHALAIS","code_postal":"16210","coordonnees_gps":[45.2429849506,0.0733899615391],"code_commune_insee":"16346"},"geometry":{"type":"Point","coordinates":[0.0733899615391,45.2429849506]},"record_timestamp":"2016-05-09T15:17:00+02:00"},{"datasetid":"laposte_hexasmal","recordid":"cc8456b62e6fa6c62140cae4cc4aa5b4be90f9d9","fields":{"nom_de_la_commune":"STE SEVERE","libell_d_acheminement":"STE SEVERE","code_postal":"16200","coordonnees_gps":[45.7641596067,-0.250325475008],"code_commune_insee":"16349"},"geometry":{"type":"Point","coordinates":[-0.250325475008,45.7641596067]},"record_timestamp":"2016-05-09T15:17:00+02:00"},{"datasetid":"laposte_hexasmal","recordid":"4f0a480602d317cb5aa31a25104df9fffb185ede","fields":{"nom_de_la_commune":"ST SIMON","libell_d_acheminement":"ST SIMON","code_postal":"16120","coordonnees_gps":[45.6553833109,-0.0748911541972],"code_commune_insee":"16352"},"geometry":{"type":"Point","coordinates":[-0.0748911541972,45.6553833109]},"record_timestamp":"2016-05-09T15:17:00+02:00"},{"datasetid":"laposte_hexasmal","recordid":"ec30aeae5fa7f5e222806cc5b038a7955d568479","fields":{"nom_de_la_commune":"ST SORNIN","libell_d_acheminement":"ST SORNIN","code_postal":"16220","coordonnees_gps":[45.6950797067,0.443014259379],"code_commune_insee":"16353"},"geometry":{"type":"Point","coordinates":[0.443014259379,45.6950797067]},"record_timestamp":"2016-05-09T15:17:00+02:00"},{"datasetid":"laposte_hexasmal","recordid":"2cc569186fa5c09c8ab86a24d71da127fdc73457","fields":{"nom_de_la_commune":"SALLES DE BARBEZIEUX","libell_d_acheminement":"SALLES DE BARBEZIEUX","code_postal":"16300","coordonnees_gps":[45.4517011196,-0.121693762991],"code_commune_insee":"16360"},"geometry":{"type":"Point","coordinates":[-0.121693762991,45.4517011196]},"record_timestamp":"2016-05-09T15:17:00+02:00"},{"datasetid":"laposte_hexasmal","recordid":"d649fcda40875149d676e64e337d3eb3b292b517","fields":{"nom_de_la_commune":"SAUVAGNAC","libell_d_acheminement":"SAUVAGNAC","code_postal":"16310","coordonnees_gps":[45.7495247956,0.647983960034],"code_commune_insee":"16364"},"geometry":{"type":"Point","coordinates":[0.647983960034,45.7495247956]},"record_timestamp":"2016-05-09T15:17:00+02:00"},{"datasetid":"laposte_hexasmal","recordid":"e22889304390cf83c2f75a7301fec19f69d9999b","fields":{"nom_de_la_commune":"SEGONZAC","libell_d_acheminement":"SEGONZAC","code_postal":"16130","coordonnees_gps":[45.6180187853,-0.215554491203],"code_commune_insee":"16366"},"geometry":{"type":"Point","coordinates":[-0.215554491203,45.6180187853]},"record_timestamp":"2016-05-09T15:17:00+02:00"},{"datasetid":"laposte_hexasmal","recordid":"6c8083d678b0c7c73aaf8627283dbfb55c4354ca","fields":{"nom_de_la_commune":"CRESSAC ST GENIS","libell_d_acheminement":"CRESSAC ST GENIS","code_postal":"16250","coordonnees_gps":[45.4399527809,0.0196605456773],"code_commune_insee":"16115"},"geometry":{"type":"Point","coordinates":[0.0196605456773,45.4399527809]},"record_timestamp":"2016-05-09T15:17:00+02:00"},{"datasetid":"laposte_hexasmal","recordid":"51d8dddcd6ee3d9e4579c26ead3652a7ad44514d","fields":{"nom_de_la_commune":"CRITEUIL LA MAGDELEINE","libell_d_acheminement":"CRITEUIL LA MAGDELEINE","code_postal":"16300","coordonnees_gps":[45.5364679101,-0.2103850238],"code_commune_insee":"16116"},"geometry":{"type":"Point","coordinates":[-0.2103850238,45.5364679101]},"record_timestamp":"2016-05-09T15:17:00+02:00"},{"datasetid":"laposte_hexasmal","recordid":"adf5295a01ec719759907527968eccac25f87a94","fields":{"nom_de_la_commune":"CURAC","libell_d_acheminement":"CURAC","code_postal":"16210","coordonnees_gps":[45.2960921096,0.0212788949535],"code_commune_insee":"16117"},"geometry":{"type":"Point","coordinates":[0.0212788949535,45.2960921096]},"record_timestamp":"2016-05-09T15:17:00+02:00"},{"datasetid":"laposte_hexasmal","recordid":"0ba45968d356d1a65cbc2145348fece3afb13db0","fields":{"nom_de_la_commune":"ECURAS","libell_d_acheminement":"ECURAS","code_postal":"16220","coordonnees_gps":[45.6822174766,0.569930576994],"code_commune_insee":"16124"},"geometry":{"type":"Point","coordinates":[0.569930576994,45.6822174766]},"record_timestamp":"2016-05-09T15:17:00+02:00"},{"datasetid":"laposte_hexasmal","recordid":"8e02c704a3433bd3fc96a1662182121ccce619c9","fields":{"nom_de_la_commune":"EMPURE","libell_d_acheminement":"EMPURE","code_postal":"16240","coordonnees_gps":[46.0245064509,0.0495912731396],"code_commune_insee":"16127"},"geometry":{"type":"Point","coordinates":[0.0495912731396,46.0245064509]},"record_timestamp":"2016-05-09T15:17:00+02:00"},{"datasetid":"laposte_hexasmal","recordid":"a123f86845305f74e87fdc2cc358a5b7245ab9c1","fields":{"nom_de_la_commune":"EXIDEUIL","libell_d_acheminement":"EXIDEUIL","code_postal":"16150","coordonnees_gps":[45.8801902004,0.663734809553],"code_commune_insee":"16134"},"geometry":{"type":"Point","coordinates":[0.663734809553,45.8801902004]},"record_timestamp":"2016-05-09T15:17:00+02:00"},{"datasetid":"laposte_hexasmal","recordid":"d345f68e32dbe81b7aa048304f1fb93eb0c7d912","fields":{"nom_de_la_commune":"FLEAC","libell_d_acheminement":"FLEAC","code_postal":"16730","coordonnees_gps":[45.6757321488,0.0883493158258],"code_commune_insee":"16138"},"geometry":{"type":"Point","coordinates":[0.0883493158258,45.6757321488]},"record_timestamp":"2016-05-09T15:17:00+02:00"},{"datasetid":"laposte_hexasmal","recordid":"300fc0629d15b8937af82494027c20df6b1fe85d","fields":{"nom_de_la_commune":"FOUQUEBRUNE","libell_d_acheminement":"FOUQUEBRUNE","code_postal":"16410","coordonnees_gps":[45.5273705176,0.196901956839],"code_commune_insee":"16143"},"geometry":{"type":"Point","coordinates":[0.196901956839,45.5273705176]},"record_timestamp":"2016-05-09T15:17:00+02:00"},{"datasetid":"laposte_hexasmal","recordid":"77641b162727bc85e3ce49696d979300b7e550bb","fields":{"nom_de_la_commune":"GOURVILLE","libell_d_acheminement":"GOURVILLE","code_postal":"16170","coordonnees_gps":[45.8256659639,-0.0212286864189],"code_commune_insee":"16156"},"geometry":{"type":"Point","coordinates":[-0.0212286864189,45.8256659639]},"record_timestamp":"2016-05-09T15:17:00+02:00"},{"datasetid":"laposte_hexasmal","recordid":"f748d4d0a893c0df3b929ba3752235bbfd0d93fb","fields":{"nom_de_la_commune":"GRASSAC","libell_d_acheminement":"GRASSAC","code_postal":"16380","coordonnees_gps":[45.5812707814,0.399196198105],"code_commune_insee":"16158"},"geometry":{"type":"Point","coordinates":[0.399196198105,45.5812707814]},"record_timestamp":"2016-05-09T15:17:00+02:00"},{"datasetid":"laposte_hexasmal","recordid":"278a9806d1903b24f9b5559b3bcad331cdbc7d18","fields":{"nom_de_la_commune":"GUIZENGEARD","libell_d_acheminement":"GUIZENGEARD","code_postal":"16480","coordonnees_gps":[45.3106179642,-0.123211363753],"code_commune_insee":"16161"},"geometry":{"type":"Point","coordinates":[-0.123211363753,45.3106179642]},"record_timestamp":"2016-05-09T15:17:00+02:00"},{"datasetid":"laposte_hexasmal","recordid":"8992a951c996447ef8b0ce3491bf5dcc53d1c7b4","fields":{"nom_de_la_commune":"L ISLE D ESPAGNAC","libell_d_acheminement":"L ISLE D ESPAGNAC","code_postal":"16340","coordonnees_gps":[45.6638640977,0.199231746573],"code_commune_insee":"16166"},"geometry":{"type":"Point","coordinates":[0.199231746573,45.6638640977]},"record_timestamp":"2016-05-09T15:17:00+02:00"},{"datasetid":"laposte_hexasmal","recordid":"1a27a0dd5e1f9f6389997ddff7b091f01dbed764","fields":{"nom_de_la_commune":"JAULDES","libell_d_acheminement":"JAULDES","code_postal":"16560","coordonnees_gps":[45.7808261202,0.250693934038],"code_commune_insee":"16168"},"geometry":{"type":"Point","coordinates":[0.250693934038,45.7808261202]},"record_timestamp":"2016-05-09T15:17:00+02:00"},{"datasetid":"laposte_hexasmal","recordid":"5ddc5e0a7d57d5fc2f22ffd0e5d0db6686b5b295","fields":{"nom_de_la_commune":"JUILLAC LE COQ","libell_d_acheminement":"JUILLAC LE COQ","code_postal":"16130","coordonnees_gps":[45.5891696148,-0.256462985988],"code_commune_insee":"16171"},"geometry":{"type":"Point","coordinates":[-0.256462985988,45.5891696148]},"record_timestamp":"2016-05-09T15:17:00+02:00"},{"datasetid":"laposte_hexasmal","recordid":"7491bd06179a0b5b614c5dfd0feb37ddcf89de9c","fields":{"nom_de_la_commune":"LESSAC","libell_d_acheminement":"LESSAC","code_postal":"16500","coordonnees_gps":[46.0698879321,0.6490709569],"code_commune_insee":"16181"},"geometry":{"type":"Point","coordinates":[0.6490709569,46.0698879321]},"record_timestamp":"2016-05-09T15:17:00+02:00"},{"datasetid":"laposte_hexasmal","recordid":"f192bb7b1f872f2a06b3df78a082d5a954b05161","fields":{"nom_de_la_commune":"LINARS","libell_d_acheminement":"LINARS","code_postal":"16730","coordonnees_gps":[45.6535202094,0.0737335176195],"code_commune_insee":"16187"},"geometry":{"type":"Point","coordinates":[0.0737335176195,45.6535202094]},"record_timestamp":"2016-05-09T15:17:00+02:00"},{"datasetid":"laposte_hexasmal","recordid":"81c4361cc20cb4145c7a60184cd042966b780aa7","fields":{"nom_de_la_commune":"LONGRE","libell_d_acheminement":"LONGRE","code_postal":"16240","coordonnees_gps":[45.9956136861,-0.0236778823819],"code_commune_insee":"16190"},"geometry":{"type":"Point","coordinates":[-0.0236778823819,45.9956136861]},"record_timestamp":"2016-05-09T15:17:00+02:00"},{"datasetid":"laposte_hexasmal","recordid":"f504452f9858f8e2608c5570b84648536849262c","fields":{"nom_de_la_commune":"LONNES","libell_d_acheminement":"LONNES","code_postal":"16230","coordonnees_gps":[45.9391793197,0.181439974512],"code_commune_insee":"16191"},"geometry":{"type":"Point","coordinates":[0.181439974512,45.9391793197]},"record_timestamp":"2016-05-09T15:17:00+02:00"},{"datasetid":"laposte_hexasmal","recordid":"52aa027b72f0d653ba6e743e1654435c42eb253b","fields":{"nom_de_la_commune":"LOUZAC ST ANDRE","libell_d_acheminement":"LOUZAC ST ANDRE","code_postal":"16100","coordonnees_gps":[45.7237365822,-0.39737034952],"code_commune_insee":"16193"},"geometry":{"type":"Point","coordinates":[-0.39737034952,45.7237365822]},"record_timestamp":"2016-05-09T15:17:00+02:00"},{"datasetid":"laposte_hexasmal","recordid":"937c2c0db1c70f52cb82fb4461b7e8ad26050fb2","fields":{"nom_de_la_commune":"MAGNAC LAVALETTE VILLARS","libell_d_acheminement":"MAGNAC LAVALETTE VILLARS","code_postal":"16320","coordonnees_gps":[45.5088381667,0.2552082811],"code_commune_insee":"16198"},"geometry":{"type":"Point","coordinates":[0.2552082811,45.5088381667]},"record_timestamp":"2016-05-09T15:17:00+02:00"},{"datasetid":"laposte_hexasmal","recordid":"2228c4993e98578999a5cc88b7ea925a1051d3a5","fields":{"nom_de_la_commune":"MAGNAC SUR TOUVRE","libell_d_acheminement":"MAGNAC SUR TOUVRE","code_postal":"16600","coordonnees_gps":[45.6559132577,0.236141821195],"code_commune_insee":"16199"},"geometry":{"type":"Point","coordinates":[0.236141821195,45.6559132577]},"record_timestamp":"2016-05-09T15:17:00+02:00"},{"datasetid":"laposte_hexasmal","recordid":"35a48c1efed4a63624d2ba5114952697c778fbd2","fields":{"nom_de_la_commune":"MAINXE","libell_d_acheminement":"MAINXE","code_postal":"16200","coordonnees_gps":[45.6549959822,-0.185091590822],"code_commune_insee":"16202"},"geometry":{"type":"Point","coordinates":[-0.185091590822,45.6549959822]},"record_timestamp":"2016-05-09T15:17:00+02:00"},{"datasetid":"laposte_hexasmal","recordid":"7849ba1a02490cab88131a9e98860008268da6f8","fields":{"nom_de_la_commune":"MALAVILLE","libell_d_acheminement":"MALAVILLE","code_postal":"16120","coordonnees_gps":[45.5525236965,-0.103272182432],"code_commune_insee":"16204"},"geometry":{"type":"Point","coordinates":[-0.103272182432,45.5525236965]},"record_timestamp":"2016-05-09T15:17:00+02:00"},{"datasetid":"laposte_hexasmal","recordid":"59ff9dcc89a187e776036d7f58c60953ba3b70da","fields":{"nom_de_la_commune":"MAREUIL","libell_d_acheminement":"MAREUIL","code_postal":"16170","coordonnees_gps":[45.7724089753,-0.135920647839],"code_commune_insee":"16208"},"geometry":{"type":"Point","coordinates":[-0.135920647839,45.7724089753]},"record_timestamp":"2016-05-09T15:17:00+02:00"},{"datasetid":"laposte_hexasmal","recordid":"da4e53c188b605d7e64f795c250c79ac21ff0cd7","fields":{"nom_de_la_commune":"MESNAC","libell_d_acheminement":"MESNAC","code_postal":"16370","coordonnees_gps":[45.7758612161,-0.342140667062],"code_commune_insee":"16218"},"geometry":{"type":"Point","coordinates":[-0.342140667062,45.7758612161]},"record_timestamp":"2016-05-09T15:17:00+02:00"},{"datasetid":"laposte_hexasmal","recordid":"8ddd9caa9c0a06082c8f88d358ff40ed164152bc","fields":{"code_postal":"16300","code_commune_insee":"16224","libell_d_acheminement":"MONTMERAC","ligne_5":"MONTCHAUDE","nom_de_la_commune":"MONTMERAC","coordonnees_gps":[45.4462725205,-0.208192784801]},"geometry":{"type":"Point","coordinates":[-0.208192784801,45.4462725205]},"record_timestamp":"2016-05-09T15:17:00+02:00"},{"datasetid":"laposte_hexasmal","recordid":"aaa0efe931147d923873538edc77a10d5db4fcb0","fields":{"nom_de_la_commune":"MORNAC","libell_d_acheminement":"MORNAC","code_postal":"16600","coordonnees_gps":[45.6847658101,0.292715578408],"code_commune_insee":"16232"},"geometry":{"type":"Point","coordinates":[0.292715578408,45.6847658101]},"record_timestamp":"2016-05-09T15:17:00+02:00"},{"datasetid":"laposte_hexasmal","recordid":"e46a72762b88fba4dcd90214e6f7b2f5839603a0","fields":{"nom_de_la_commune":"MOUTONNEAU","libell_d_acheminement":"MOUTONNEAU","code_postal":"16460","coordonnees_gps":[45.9131671826,0.22543914525],"code_commune_insee":"16238"},"geometry":{"type":"Point","coordinates":[0.22543914525,45.9131671826]},"record_timestamp":"2016-05-09T15:17:00+02:00"},{"datasetid":"laposte_hexasmal","recordid":"183b6cd1df47aaebfb6600a08ec0ad38377acf92","fields":{"nom_de_la_commune":"NANTEUIL EN VALLEE","libell_d_acheminement":"NANTEUIL EN VALLEE","code_postal":"16700","coordonnees_gps":[46.0061029111,0.32369225522],"code_commune_insee":"16242"},"geometry":{"type":"Point","coordinates":[0.32369225522,46.0061029111]},"record_timestamp":"2016-05-09T15:17:00+02:00"},{"datasetid":"laposte_hexasmal","recordid":"31f3182e8b3c5f61399c8f4f489cd8278af74577","fields":{"code_postal":"16700","code_commune_insee":"16242","libell_d_acheminement":"NANTEUIL EN VALLEE","ligne_5":"POUGNE","nom_de_la_commune":"NANTEUIL EN VALLEE","coordonnees_gps":[46.0061029111,0.32369225522]},"geometry":{"type":"Point","coordinates":[0.32369225522,46.0061029111]},"record_timestamp":"2016-05-09T15:17:00+02:00"},{"datasetid":"laposte_hexasmal","recordid":"1655ba55c009bcc40025325a242ea8f4868a3070","fields":{"nom_de_la_commune":"NERSAC","libell_d_acheminement":"NERSAC","code_postal":"16440","coordonnees_gps":[45.6253691605,0.0621903047823],"code_commune_insee":"16244"},"geometry":{"type":"Point","coordinates":[0.0621903047823,45.6253691605]},"record_timestamp":"2016-05-09T15:17:00+02:00"},{"datasetid":"laposte_hexasmal","recordid":"00467e50ef3fa024d6da6cc820c2800c9a3669e7","fields":{"nom_de_la_commune":"ORADOUR FANAIS","libell_d_acheminement":"ORADOUR FANAIS","code_postal":"16500","coordonnees_gps":[46.1149553879,0.782507477296],"code_commune_insee":"16249"},"geometry":{"type":"Point","coordinates":[0.782507477296,46.1149553879]},"record_timestamp":"2016-05-09T15:17:00+02:00"},{"datasetid":"laposte_hexasmal","recordid":"a87fece1e9ebce7e636f5dce9bae3b32f10dbea8","fields":{"nom_de_la_commune":"ORGEDEUIL","libell_d_acheminement":"ORGEDEUIL","code_postal":"16220","coordonnees_gps":[45.698367411,0.486392578455],"code_commune_insee":"16250"},"geometry":{"type":"Point","coordinates":[0.486392578455,45.698367411]},"record_timestamp":"2016-05-09T15:17:00+02:00"},{"datasetid":"laposte_hexasmal","recordid":"1f81374f6d68f35dae612728d827afa2fe445451","fields":{"nom_de_la_commune":"ORIVAL","libell_d_acheminement":"ORIVAL","code_postal":"16210","coordonnees_gps":[45.2829609263,0.0692144911966],"code_commune_insee":"16252"},"geometry":{"type":"Point","coordinates":[0.0692144911966,45.2829609263]},"record_timestamp":"2016-05-09T15:17:00+02:00"},{"datasetid":"laposte_hexasmal","recordid":"50a8682c0415200d6bb77ac7d576c97cd6ce3855","fields":{"nom_de_la_commune":"POURSAC","libell_d_acheminement":"POURSAC","code_postal":"16700","coordonnees_gps":[45.9617677073,0.265403568791],"code_commune_insee":"16268"},"geometry":{"type":"Point","coordinates":[0.265403568791,45.9617677073]},"record_timestamp":"2016-05-09T15:17:00+02:00"},{"datasetid":"laposte_hexasmal","recordid":"c924c4c51177bf901a3e4181ca79c7b6acfdb8ff","fields":{"nom_de_la_commune":"PRANZAC","libell_d_acheminement":"PRANZAC","code_postal":"16110","coordonnees_gps":[45.67389958,0.346548387034],"code_commune_insee":"16269"},"geometry":{"type":"Point","coordinates":[0.346548387034,45.67389958]},"record_timestamp":"2016-05-09T15:17:00+02:00"},{"datasetid":"laposte_hexasmal","recordid":"783b9d003df745c114a199c48513220f3220f9d9","fields":{"nom_de_la_commune":"PRESSIGNAC","libell_d_acheminement":"PRESSIGNAC","code_postal":"16150","coordonnees_gps":[45.8193617706,0.739906904422],"code_commune_insee":"16270"},"geometry":{"type":"Point","coordinates":[0.739906904422,45.8193617706]},"record_timestamp":"2016-05-09T15:17:00+02:00"},{"datasetid":"laposte_hexasmal","recordid":"08118409095792580416cd8662f9a03b236e9d18","fields":{"nom_de_la_commune":"PUYREAUX","libell_d_acheminement":"PUYREAUX","code_postal":"16230","coordonnees_gps":[45.86360531,0.210617195274],"code_commune_insee":"16272"},"geometry":{"type":"Point","coordinates":[0.210617195274,45.86360531]},"record_timestamp":"2016-05-09T15:17:00+02:00"},{"datasetid":"laposte_hexasmal","recordid":"5615ca1fc42b301957728637b23baefc54a8480a","fields":{"nom_de_la_commune":"REIGNAC","libell_d_acheminement":"REIGNAC","code_postal":"16360","coordonnees_gps":[45.4250019229,-0.174457411531],"code_commune_insee":"16276"},"geometry":{"type":"Point","coordinates":[-0.174457411531,45.4250019229]},"record_timestamp":"2016-05-09T15:17:00+02:00"},{"datasetid":"laposte_hexasmal","recordid":"864c5293ba3faa61627951401f814be73638e39d","fields":{"nom_de_la_commune":"LA ROCHETTE","libell_d_acheminement":"LA ROCHETTE","code_postal":"16110","coordonnees_gps":[45.7979119983,0.310269933524],"code_commune_insee":"16282"},"geometry":{"type":"Point","coordinates":[0.310269933524,45.7979119983]},"record_timestamp":"2016-05-09T15:17:00+02:00"},{"datasetid":"laposte_hexasmal","recordid":"a612a892f11bb1123bb27dc9f59bea23bc525792","fields":{"nom_de_la_commune":"ROUGNAC","libell_d_acheminement":"ROUGNAC","code_postal":"16320","coordonnees_gps":[45.5371194351,0.354245072318],"code_commune_insee":"16285"},"geometry":{"type":"Point","coordinates":[0.354245072318,45.5371194351]},"record_timestamp":"2016-05-09T15:17:00+02:00"},{"datasetid":"laposte_hexasmal","recordid":"6cde895c5f7f97839034f8cc0a988b4e6235e45f","fields":{"code_postal":"16170","code_commune_insee":"16286","libell_d_acheminement":"ROUILLAC","ligne_5":"PLAIZAC","nom_de_la_commune":"ROUILLAC","coordonnees_gps":[45.781947293,-0.074390136916]},"geometry":{"type":"Point","coordinates":[-0.074390136916,45.781947293]},"record_timestamp":"2016-05-09T15:17:00+02:00"},{"datasetid":"laposte_hexasmal","recordid":"19528fe3ded4d379f355e72732df9ad9c8f4bf74","fields":{"nom_de_la_commune":"ROUSSINES","libell_d_acheminement":"ROUSSINES","code_postal":"16310","coordonnees_gps":[45.7228708787,0.617688422221],"code_commune_insee":"16289"},"geometry":{"type":"Point","coordinates":[0.617688422221,45.7228708787]},"record_timestamp":"2016-05-09T15:17:00+02:00"},{"datasetid":"laposte_hexasmal","recordid":"45b87a7b5e1940e2e9a06c00111447891d6e5b69","fields":{"nom_de_la_commune":"ST BONNET","libell_d_acheminement":"ST BONNET","code_postal":"16300","coordonnees_gps":[45.4739641055,-0.0892788794153],"code_commune_insee":"16303"},"geometry":{"type":"Point","coordinates":[-0.0892788794153,45.4739641055]},"record_timestamp":"2016-05-09T15:17:00+02:00"},{"datasetid":"laposte_hexasmal","recordid":"16c52d750d119e91339b70b565c18978b6995bd7","fields":{"nom_de_la_commune":"STE COLOMBE","libell_d_acheminement":"STE COLOMBE","code_postal":"16230","coordonnees_gps":[45.8295299814,0.320048436517],"code_commune_insee":"16309"},"geometry":{"type":"Point","coordinates":[0.320048436517,45.8295299814]},"record_timestamp":"2016-05-09T15:17:00+02:00"},{"datasetid":"laposte_hexasmal","recordid":"6a1d2e10c06a484cfd76fb9e32c56641895ef44e","fields":{"nom_de_la_commune":"ST FRONT","libell_d_acheminement":"ST FRONT","code_postal":"16460","coordonnees_gps":[45.8962473577,0.281694716965],"code_commune_insee":"16318"},"geometry":{"type":"Point","coordinates":[0.281694716965,45.8962473577]},"record_timestamp":"2016-05-09T15:17:00+02:00"},{"datasetid":"laposte_hexasmal","recordid":"2558c77e2ab1bdb3e03dcecaf1b03fc4b35e7452","fields":{"nom_de_la_commune":"ST GROUX","libell_d_acheminement":"ST GROUX","code_postal":"16230","coordonnees_gps":[45.8908643906,0.158281898668],"code_commune_insee":"16326"},"geometry":{"type":"Point","coordinates":[0.158281898668,45.8908643906]},"record_timestamp":"2016-05-09T15:17:00+02:00"},{"datasetid":"laposte_hexasmal","recordid":"fb2a419c358a4adde42e2625a93385e2f840a8d8","fields":{"nom_de_la_commune":"ST LAURENT DES COMBES","libell_d_acheminement":"ST LAURENT DES COMBES","code_postal":"16480","coordonnees_gps":[45.3532898017,0.0345106941668],"code_commune_insee":"16331"},"geometry":{"type":"Point","coordinates":[0.0345106941668,45.3532898017]},"record_timestamp":"2016-05-09T15:17:00+02:00"},{"datasetid":"laposte_hexasmal","recordid":"29453e9b27b08c7bf7ec07cdd8d8aacba10d463b","fields":{"nom_de_la_commune":"ST MARTIAL","libell_d_acheminement":"ST MARTIAL","code_postal":"16190","coordonnees_gps":[45.3713184572,0.0580275903451],"code_commune_insee":"16334"},"geometry":{"type":"Point","coordinates":[0.0580275903451,45.3713184572]},"record_timestamp":"2016-05-09T15:17:00+02:00"},{"datasetid":"laposte_hexasmal","recordid":"8dc6f90d228157c77972de437f4b5c2cc9092d7a","fields":{"nom_de_la_commune":"ST PREUIL","libell_d_acheminement":"ST PREUIL","code_postal":"16130","coordonnees_gps":[45.6007267045,-0.172169004384],"code_commune_insee":"16343"},"geometry":{"type":"Point","coordinates":[-0.172169004384,45.6007267045]},"record_timestamp":"2016-05-09T15:17:00+02:00"},{"datasetid":"laposte_hexasmal","recordid":"dad653b23f140233265eaa8a2effad763637ec20","fields":{"nom_de_la_commune":"ST PROJET ST CONSTANT","libell_d_acheminement":"ST PROJET ST CONSTANT","code_postal":"16110","coordonnees_gps":[45.7287178161,0.343048613864],"code_commune_insee":"16344"},"geometry":{"type":"Point","coordinates":[0.343048613864,45.7287178161]},"record_timestamp":"2016-05-09T15:17:00+02:00"},{"datasetid":"laposte_hexasmal","recordid":"6f2ac2cedc7d6e4d13e297d0fed74ec536d51cb5","fields":{"nom_de_la_commune":"ST SATURNIN","libell_d_acheminement":"ST SATURNIN","code_postal":"16290","coordonnees_gps":[45.6676447323,0.0400326832597],"code_commune_insee":"16348"},"geometry":{"type":"Point","coordinates":[0.0400326832597,45.6676447323]},"record_timestamp":"2016-05-09T15:17:00+02:00"},{"datasetid":"laposte_hexasmal","recordid":"2f01f99c6685f33668b028fc935950d0f9761f8b","fields":{"nom_de_la_commune":"ST SEVERIN","libell_d_acheminement":"ST SEVERIN","code_postal":"16390","coordonnees_gps":[45.3109814226,0.245248838194],"code_commune_insee":"16350"},"geometry":{"type":"Point","coordinates":[0.245248838194,45.3109814226]},"record_timestamp":"2016-05-09T15:17:00+02:00"},{"datasetid":"laposte_hexasmal","recordid":"7ea2353c9bb097089419cfe2b96bdd0facfb53c4","fields":{"nom_de_la_commune":"ST SIMEUX","libell_d_acheminement":"ST SIMEUX","code_postal":"16120","coordonnees_gps":[45.6340380938,-0.0343232416979],"code_commune_insee":"16351"},"geometry":{"type":"Point","coordinates":[-0.0343232416979,45.6340380938]},"record_timestamp":"2016-05-09T15:17:00+02:00"},{"datasetid":"laposte_hexasmal","recordid":"7ddf973dcf7f9015e10908e4ba56f27ade1614ad","fields":{"nom_de_la_commune":"SERS","libell_d_acheminement":"SERS","code_postal":"16410","coordonnees_gps":[45.5853962792,0.318693870271],"code_commune_insee":"16368"},"geometry":{"type":"Point","coordinates":[0.318693870271,45.5853962792]},"record_timestamp":"2016-05-09T15:17:00+02:00"},{"datasetid":"laposte_hexasmal","recordid":"6b647c637aa8036a0801b717c854f567ee9a6d83","fields":{"nom_de_la_commune":"SIREUIL","libell_d_acheminement":"SIREUIL","code_postal":"16440","coordonnees_gps":[45.6203072664,0.0196009850937],"code_commune_insee":"16370"},"geometry":{"type":"Point","coordinates":[0.0196009850937,45.6203072664]},"record_timestamp":"2016-05-09T15:17:00+02:00"},