[{"datasetid":"laposte_hexasmal","recordid":"4f1db696bc998614f67a04e2c3b6d6f43a8fde34","fields":{"nom_de_la_commune":"ACLOU","libell_d_acheminement":"ACLOU","code_postal":"27800","coordonnees_gps":[49.1655546426,0.698293841066],"code_commune_insee":"27001"},"geometry":{"type":"Point","coordinates":[0.698293841066,49.1655546426]},"record_timestamp":"2016-05-09T15:17:00+02:00"},{"datasetid":"laposte_hexasmal","recordid":"9edd15b809def86dd3f9a28a619913867a718678","fields":{"code_postal":"27400","code_commune_insee":"27003","libell_d_acheminement":"ACQUIGNY","ligne_5":"LES PLANCHES","nom_de_la_commune":"ACQUIGNY","coordonnees_gps":[49.1648717394,1.1765581743]},"geometry":{"type":"Point","coordinates":[1.1765581743,49.1648717394]},"record_timestamp":"2016-05-09T15:17:00+02:00"},{"datasetid":"laposte_hexasmal","recordid":"62231a0886266d6b6dfbbbafa43c1e7e361d67a4","fields":{"nom_de_la_commune":"AMFREVILLE SOUS LES MONTS","libell_d_acheminement":"AMFREVILLE SOUS LES MONTS","code_postal":"27380","coordonnees_gps":[49.3028161633,1.26637402141],"code_commune_insee":"27013"},"geometry":{"type":"Point","coordinates":[1.26637402141,49.3028161633]},"record_timestamp":"2016-05-09T15:17:00+02:00"},{"datasetid":"laposte_hexasmal","recordid":"6867eb2cc4793450bc123101ce39a516b077db5a","fields":{"code_postal":"27600","code_commune_insee":"27022","libell_d_acheminement":"LE VAL D HAZEY","ligne_5":"STE BARBE SUR GAILLON","nom_de_la_commune":"LE VAL D HAZEY","coordonnees_gps":[49.1751629599,1.33329956002]},"geometry":{"type":"Point","coordinates":[1.33329956002,49.1751629599]},"record_timestamp":"2016-05-09T15:17:00+02:00"},{"datasetid":"laposte_hexasmal","recordid":"0eb7bc054995e73f1cf5a24f9c78f0ada0901070","fields":{"nom_de_la_commune":"AUTHEUIL AUTHOUILLET","libell_d_acheminement":"AUTHEUIL AUTHOUILLET","code_postal":"27490","coordonnees_gps":[49.1004320886,1.2947778203],"code_commune_insee":"27025"},"geometry":{"type":"Point","coordinates":[1.2947778203,49.1004320886]},"record_timestamp":"2016-05-09T15:17:00+02:00"},{"datasetid":"laposte_hexasmal","recordid":"1cd2ca074290c040391a3e830bd87e49ca402d59","fields":{"nom_de_la_commune":"AUTHEVERNES","libell_d_acheminement":"AUTHEVERNES","code_postal":"27420","coordonnees_gps":[49.2194914224,1.63268872658],"code_commune_insee":"27026"},"geometry":{"type":"Point","coordinates":[1.63268872658,49.2194914224]},"record_timestamp":"2016-05-09T15:17:00+02:00"},{"datasetid":"laposte_hexasmal","recordid":"fdbca59fadd70813362c1949d9408805ed2d3367","fields":{"code_postal":"27240","code_commune_insee":"27032","libell_d_acheminement":"CHAMBOIS","ligne_5":"THOMER LA SOGNE","nom_de_la_commune":"CHAMBOIS","coordonnees_gps":[48.9282451292,1.14607632884]},"geometry":{"type":"Point","coordinates":[1.14607632884,48.9282451292]},"record_timestamp":"2016-05-09T15:17:00+02:00"},{"datasetid":"laposte_hexasmal","recordid":"17b8cea6c6b1ed3ec5d1487f5851c8e3ca3536cc","fields":{"nom_de_la_commune":"BALINES","libell_d_acheminement":"BALINES","code_postal":"27130","coordonnees_gps":[48.7482752525,0.977506777957],"code_commune_insee":"27036"},"geometry":{"type":"Point","coordinates":[0.977506777957,48.7482752525]},"record_timestamp":"2016-05-09T15:17:00+02:00"},{"datasetid":"laposte_hexasmal","recordid":"b3edefb2c902e427089a175ad37cbdb1981981fd","fields":{"nom_de_la_commune":"BARC","libell_d_acheminement":"BARC","code_postal":"27170","coordonnees_gps":[49.0794545996,0.824738866399],"code_commune_insee":"27037"},"geometry":{"type":"Point","coordinates":[0.824738866399,49.0794545996]},"record_timestamp":"2016-05-09T15:17:00+02:00"},{"datasetid":"laposte_hexasmal","recordid":"377d0a1aec5144fa4c3572e91d5e685e2d5a10a0","fields":{"nom_de_la_commune":"BARNEVILLE SUR SEINE","libell_d_acheminement":"BARNEVILLE SUR SEINE","code_postal":"27310","coordonnees_gps":[49.3845601903,0.854432442318],"code_commune_insee":"27039"},"geometry":{"type":"Point","coordinates":[0.854432442318,49.3845601903]},"record_timestamp":"2016-05-09T15:17:00+02:00"},{"datasetid":"laposte_hexasmal","recordid":"24db2d784f2e301f90a665a1465384c4431c147e","fields":{"code_postal":"27330","code_commune_insee":"27049","libell_d_acheminement":"MESNIL EN OUCHE","ligne_5":"BOSC RENOULT EN OUCHE","nom_de_la_commune":"MESNIL EN OUCHE","coordonnees_gps":[49.0090520551,0.696415474297]},"geometry":{"type":"Point","coordinates":[0.696415474297,49.0090520551]},"record_timestamp":"2016-05-09T15:17:00+02:00"},{"datasetid":"laposte_hexasmal","recordid":"74bb45ea53c7bcac86b4fa0e40a853ee21dfd5a8","fields":{"code_postal":"27330","code_commune_insee":"27049","libell_d_acheminement":"MESNIL EN OUCHE","ligne_5":"THEVRAY","nom_de_la_commune":"MESNIL EN OUCHE","coordonnees_gps":[49.0090520551,0.696415474297]},"geometry":{"type":"Point","coordinates":[0.696415474297,49.0090520551]},"record_timestamp":"2016-05-09T15:17:00+02:00"},{"datasetid":"laposte_hexasmal","recordid":"b76927376402547011ac9416d9ef55d73e26890f","fields":{"code_postal":"27410","code_commune_insee":"27049","libell_d_acheminement":"MESNIL EN OUCHE","ligne_5":"AJOU","nom_de_la_commune":"MESNIL EN OUCHE","coordonnees_gps":[49.0090520551,0.696415474297]},"geometry":{"type":"Point","coordinates":[0.696415474297,49.0090520551]},"record_timestamp":"2016-05-09T15:17:00+02:00"},{"datasetid":"laposte_hexasmal","recordid":"b39bfb4ac32cdee7361e82f0f18e37a43884ee5f","fields":{"code_postal":"27410","code_commune_insee":"27049","libell_d_acheminement":"MESNIL EN OUCHE","ligne_5":"ST AUBIN DES HAYES","nom_de_la_commune":"MESNIL EN OUCHE","coordonnees_gps":[49.0090520551,0.696415474297]},"geometry":{"type":"Point","coordinates":[0.696415474297,49.0090520551]},"record_timestamp":"2016-05-09T15:17:00+02:00"},{"datasetid":"laposte_hexasmal","recordid":"2fc59971d5cf330689b8ffde6746245c9ce1eeee","fields":{"nom_de_la_commune":"LE BEC HELLOUIN","libell_d_acheminement":"LE BEC HELLOUIN","code_postal":"27800","coordonnees_gps":[49.2249212859,0.726506401236],"code_commune_insee":"27052"},"geometry":{"type":"Point","coordinates":[0.726506401236,49.2249212859]},"record_timestamp":"2016-05-09T15:17:00+02:00"},{"datasetid":"laposte_hexasmal","recordid":"b996534c862da129a69a47be7cdd2fa472dbeeec","fields":{"nom_de_la_commune":"BERENGEVILLE LA CAMPAGNE","libell_d_acheminement":"BERENGEVILLE LA CAMPAGNE","code_postal":"27110","coordonnees_gps":[49.1133913572,1.05847119892],"code_commune_insee":"27055"},"geometry":{"type":"Point","coordinates":[1.05847119892,49.1133913572]},"record_timestamp":"2016-05-09T15:17:00+02:00"},{"datasetid":"laposte_hexasmal","recordid":"a2d0c4f56da821575e6001d189686080bac909c5","fields":{"nom_de_la_commune":"BEZU LA FORET","libell_d_acheminement":"BEZU LA FORET","code_postal":"27480","coordonnees_gps":[49.3958627299,1.6243958073],"code_commune_insee":"27066"},"geometry":{"type":"Point","coordinates":[1.6243958073,49.3958627299]},"record_timestamp":"2016-05-09T15:17:00+02:00"},{"datasetid":"laposte_hexasmal","recordid":"f4b0b0484fb7726553c9893ba23a6031a44a67a3","fields":{"nom_de_la_commune":"BOIS LE ROI","libell_d_acheminement":"BOIS LE ROI","code_postal":"27220","coordonnees_gps":[48.8610331627,1.34099240808],"code_commune_insee":"27073"},"geometry":{"type":"Point","coordinates":[1.34099240808,48.8610331627]},"record_timestamp":"2016-05-09T15:17:00+02:00"},{"datasetid":"laposte_hexasmal","recordid":"0a60d31c836217daf012c92b7678904c77dfa099","fields":{"nom_de_la_commune":"BOSNORMAND","libell_d_acheminement":"BOSNORMAND","code_postal":"27670","coordonnees_gps":[49.2777576203,0.909497972922],"code_commune_insee":"27093"},"geometry":{"type":"Point","coordinates":[0.909497972922,49.2777576203]},"record_timestamp":"2016-05-09T15:17:00+02:00"},{"datasetid":"laposte_hexasmal","recordid":"882c9be8a76ed0bb47ec0eb765d3d3a74ab37e6b","fields":{"nom_de_la_commune":"BOSQUENTIN","libell_d_acheminement":"BOSQUENTIN","code_postal":"27480","coordonnees_gps":[49.4131822482,1.58863474823],"code_commune_insee":"27094"},"geometry":{"type":"Point","coordinates":[1.58863474823,49.4131822482]},"record_timestamp":"2016-05-09T15:17:00+02:00"},{"datasetid":"laposte_hexasmal","recordid":"afe34dffd79e3d888e2563882f35a742f73b75e6","fields":{"code_postal":"27250","code_commune_insee":"27096","libell_d_acheminement":"LES BOTTEREAUX","ligne_5":"LES FRETILS","nom_de_la_commune":"LES BOTTEREAUX","coordonnees_gps":[48.8712188786,0.676548267263]},"geometry":{"type":"Point","coordinates":[0.676548267263,48.8712188786]},"record_timestamp":"2016-05-09T15:17:00+02:00"},{"datasetid":"laposte_hexasmal","recordid":"fb5c55c4a0a016443fc1ede5e027341e5b51e2ff","fields":{"code_postal":"27160","code_commune_insee":"27112","libell_d_acheminement":"BRETEUIL","ligne_5":"CINTRAY","nom_de_la_commune":"BRETEUIL","coordonnees_gps":[48.8525387012,0.899890466074]},"geometry":{"type":"Point","coordinates":[0.899890466074,48.8525387012]},"record_timestamp":"2016-05-09T15:17:00+02:00"},{"datasetid":"laposte_hexasmal","recordid":"cbc5e8c411b8b1d26c0ee4898cf08205bdbc2375","fields":{"nom_de_la_commune":"BRIONNE","libell_d_acheminement":"BRIONNE","code_postal":"27800","coordonnees_gps":[49.187842587,0.712154019961],"code_commune_insee":"27116"},"geometry":{"type":"Point","coordinates":[0.712154019961,49.187842587]},"record_timestamp":"2016-05-09T15:17:00+02:00"},{"datasetid":"laposte_hexasmal","recordid":"5b8e274b31f20fcb110d334efcac79580fedef41","fields":{"nom_de_la_commune":"BUREY","libell_d_acheminement":"BUREY","code_postal":"27190","coordonnees_gps":[48.9922829548,0.944514139448],"code_commune_insee":"27120"},"geometry":{"type":"Point","coordinates":[0.944514139448,48.9922829548]},"record_timestamp":"2016-05-09T15:17:00+02:00"},{"datasetid":"laposte_hexasmal","recordid":"d3a6094f2828ddb3627ff4b36e2382c996b818f8","fields":{"nom_de_la_commune":"CAMPIGNY","libell_d_acheminement":"CAMPIGNY","code_postal":"27500","coordonnees_gps":[49.317818102,0.561573922841],"code_commune_insee":"27126"},"geometry":{"type":"Point","coordinates":[0.561573922841,49.317818102]},"record_timestamp":"2016-05-09T15:17:00+02:00"},{"datasetid":"laposte_hexasmal","recordid":"d5e9a5043808784fafcfe1e63abdd76739031a8d","fields":{"nom_de_la_commune":"CAORCHES ST NICOLAS","libell_d_acheminement":"CAORCHES ST NICOLAS","code_postal":"27300","coordonnees_gps":[49.0782233141,0.547592654037],"code_commune_insee":"27129"},"geometry":{"type":"Point","coordinates":[0.547592654037,49.0782233141]},"record_timestamp":"2016-05-09T15:17:00+02:00"},{"datasetid":"laposte_hexasmal","recordid":"338e8dfa61ad6ec52ab5c3238249a4809db88a09","fields":{"nom_de_la_commune":"CESSEVILLE","libell_d_acheminement":"CESSEVILLE","code_postal":"27110","coordonnees_gps":[49.1795942946,0.976416349214],"code_commune_insee":"27135"},"geometry":{"type":"Point","coordinates":[0.976416349214,49.1795942946]},"record_timestamp":"2016-05-09T15:17:00+02:00"},{"datasetid":"laposte_hexasmal","recordid":"794acc863de7679ea4b188385d04705e1ce94199","fields":{"nom_de_la_commune":"CHAISE DIEU DU THEIL","libell_d_acheminement":"CHAISE DIEU DU THEIL","code_postal":"27580","coordonnees_gps":[48.7557442906,0.770932355905],"code_commune_insee":"27137"},"geometry":{"type":"Point","coordinates":[0.770932355905,48.7557442906]},"record_timestamp":"2016-05-09T15:17:00+02:00"},{"datasetid":"laposte_hexasmal","recordid":"92443e67f91c8516b8d8a35142233942f6558aed","fields":{"nom_de_la_commune":"CHAMP DOLENT","libell_d_acheminement":"CHAMP DOLENT","code_postal":"27190","coordonnees_gps":[48.9588653377,1.00803800645],"code_commune_insee":"27141"},"geometry":{"type":"Point","coordinates":[1.00803800645,48.9588653377]},"record_timestamp":"2016-05-09T15:17:00+02:00"},{"datasetid":"laposte_hexasmal","recordid":"616e4bcef23d277e1db2dea51265fa67a12b4930","fields":{"nom_de_la_commune":"CHAVIGNY BAILLEUL","libell_d_acheminement":"CHAVIGNY BAILLEUL","code_postal":"27220","coordonnees_gps":[48.8800655781,1.19622692013],"code_commune_insee":"27154"},"geometry":{"type":"Point","coordinates":[1.19622692013,48.8800655781]},"record_timestamp":"2016-05-09T15:17:00+02:00"},{"datasetid":"laposte_hexasmal","recordid":"0662ff81021a8218c17d000f461300019a95a5c4","fields":{"code_postal":"27240","code_commune_insee":"27157","libell_d_acheminement":"MARBOIS","ligne_5":"CHANTELOUP","nom_de_la_commune":"MARBOIS","coordonnees_gps":[48.8910449707,0.93590219795]},"geometry":{"type":"Point","coordinates":[0.93590219795,48.8910449707]},"record_timestamp":"2016-05-09T15:17:00+02:00"},{"datasetid":"laposte_hexasmal","recordid":"298c687b84664f2251d4afb28634df1ad09f3295","fields":{"code_postal":"27240","code_commune_insee":"27157","libell_d_acheminement":"MARBOIS","ligne_5":"LES ESSARTS","nom_de_la_commune":"MARBOIS","coordonnees_gps":[48.8910449707,0.93590219795]},"geometry":{"type":"Point","coordinates":[0.93590219795,48.8910449707]},"record_timestamp":"2016-05-09T15:17:00+02:00"},{"datasetid":"laposte_hexasmal","recordid":"5de64c5a87baea57aacffe31f1c04314025d31c0","fields":{"nom_de_la_commune":"CIERREY","libell_d_acheminement":"CIERREY","code_postal":"27930","coordonnees_gps":[49.0017720899,1.26604981286],"code_commune_insee":"27158"},"geometry":{"type":"Point","coordinates":[1.26604981286,49.0017720899]},"record_timestamp":"2016-05-09T15:17:00+02:00"},{"datasetid":"laposte_hexasmal","recordid":"13ab9fedc60f055aa1fb77801ceccc02675bc69e","fields":{"nom_de_la_commune":"COLLETOT","libell_d_acheminement":"COLLETOT","code_postal":"27500","coordonnees_gps":[49.3499536771,0.623964655423],"code_commune_insee":"27163"},"geometry":{"type":"Point","coordinates":[0.623964655423,49.3499536771]},"record_timestamp":"2016-05-09T15:17:00+02:00"},{"datasetid":"laposte_hexasmal","recordid":"d52ffc7d1fd4ebac35b3964136bc7b77c071d976","fields":{"nom_de_la_commune":"CONNELLES","libell_d_acheminement":"CONNELLES","code_postal":"27430","coordonnees_gps":[49.2604810004,1.27619983824],"code_commune_insee":"27168"},"geometry":{"type":"Point","coordinates":[1.27619983824,49.2604810004]},"record_timestamp":"2016-05-09T15:17:00+02:00"},{"datasetid":"laposte_hexasmal","recordid":"c0d4ea6f5cfc3c5a3427cd2e8206b7ebf9d77de3","fields":{"nom_de_la_commune":"CORMEILLES","libell_d_acheminement":"CORMEILLES","code_postal":"27260","coordonnees_gps":[49.2517321161,0.384551732765],"code_commune_insee":"27170"},"geometry":{"type":"Point","coordinates":[0.384551732765,49.2517321161]},"record_timestamp":"2016-05-09T15:17:00+02:00"},{"datasetid":"laposte_hexasmal","recordid":"173744c085c2745f265d101e414c42e17e91b96f","fields":{"nom_de_la_commune":"LE CORMIER","libell_d_acheminement":"LE CORMIER","code_postal":"27120","coordonnees_gps":[48.9848531397,1.29682786078],"code_commune_insee":"27171"},"geometry":{"type":"Point","coordinates":[1.29682786078,48.9848531397]},"record_timestamp":"2016-05-09T15:17:00+02:00"},{"datasetid":"laposte_hexasmal","recordid":"4011e376ca676e40770a056f2a5794479858a09d","fields":{"nom_de_la_commune":"CORNEVILLE LA FOUQUETIERE","libell_d_acheminement":"CORNEVILLE LA FOUQUETIERE","code_postal":"27300","coordonnees_gps":[49.0598701998,0.703048495388],"code_commune_insee":"27173"},"geometry":{"type":"Point","coordinates":[0.703048495388,49.0598701998]},"record_timestamp":"2016-05-09T15:17:00+02:00"},{"datasetid":"laposte_hexasmal","recordid":"a1d22602fa27ca4019660ab2c39fa7c053177618","fields":{"nom_de_la_commune":"COURTEILLES","libell_d_acheminement":"COURTEILLES","code_postal":"27130","coordonnees_gps":[48.7385427936,0.999904902723],"code_commune_insee":"27182"},"geometry":{"type":"Point","coordinates":[0.999904902723,48.7385427936]},"record_timestamp":"2016-05-09T15:17:00+02:00"},{"datasetid":"laposte_hexasmal","recordid":"a94942207e3b817119657ea624210b79c4bc560b","fields":{"nom_de_la_commune":"CRIQUEBEUF LA CAMPAGNE","libell_d_acheminement":"CRIQUEBEUF LA CAMPAGNE","code_postal":"27110","coordonnees_gps":[49.1985839238,0.997594751714],"code_commune_insee":"27187"},"geometry":{"type":"Point","coordinates":[0.997594751714,49.1985839238]},"record_timestamp":"2016-05-09T15:17:00+02:00"},{"datasetid":"laposte_hexasmal","recordid":"5bbd93a8d02d35450ae33fb2ce4c3ecd63d22203","fields":{"code_postal":"27490","code_commune_insee":"27191","libell_d_acheminement":"CLEF VALLEE D EURE","ligne_5":"ECARDENVILLE SUR EURE","nom_de_la_commune":"CLEF VALLEE D EURE","coordonnees_gps":[49.1183025014,1.24841485646]},"geometry":{"type":"Point","coordinates":[1.24841485646,49.1183025014]},"record_timestamp":"2016-05-09T15:17:00+02:00"},{"datasetid":"laposte_hexasmal","recordid":"be5d5273e211f29e870e1e6591a8eebaa0c5ffb1","fields":{"nom_de_la_commune":"CROTH","libell_d_acheminement":"CROTH","code_postal":"27530","coordonnees_gps":[48.8507405664,1.36816168904],"code_commune_insee":"27193"},"geometry":{"type":"Point","coordinates":[1.36816168904,48.8507405664]},"record_timestamp":"2016-05-09T15:17:00+02:00"},{"datasetid":"laposte_hexasmal","recordid":"7d8e9538e22943c4c1f347eca4d4f84ea12ffaf3","fields":{"nom_de_la_commune":"CUVERVILLE","libell_d_acheminement":"CUVERVILLE","code_postal":"27700","coordonnees_gps":[49.2823822773,1.37038262519],"code_commune_insee":"27194"},"geometry":{"type":"Point","coordinates":[1.37038262519,49.2823822773]},"record_timestamp":"2016-05-09T15:17:00+02:00"},{"datasetid":"laposte_hexasmal","recordid":"969e4996b34069feded6ddc5b72dc3c6fadac644","fields":{"code_postal":"27240","code_commune_insee":"27198","libell_d_acheminement":"MESNILS SUR ITON","ligne_5":"DAMVILLE","nom_de_la_commune":"MESNILS SUR ITON","coordonnees_gps":[48.8643668138,1.08042048322]},"geometry":{"type":"Point","coordinates":[1.08042048322,48.8643668138]},"record_timestamp":"2016-05-09T15:17:00+02:00"},{"datasetid":"laposte_hexasmal","recordid":"94d2eb7fba8ef83e7e1821487bbd195a4b3efe12","fields":{"nom_de_la_commune":"DAUBEUF LA CAMPAGNE","libell_d_acheminement":"DAUBEUF LA CAMPAGNE","code_postal":"27110","coordonnees_gps":[49.1891854799,1.02944450993],"code_commune_insee":"27201"},"geometry":{"type":"Point","coordinates":[1.02944450993,49.1891854799]},"record_timestamp":"2016-05-09T15:17:00+02:00"},{"datasetid":"laposte_hexasmal","recordid":"f39c0057698b225544b1122948b101c78e39946d","fields":{"nom_de_la_commune":"DROISY","libell_d_acheminement":"DROISY","code_postal":"27320","coordonnees_gps":[48.7975773096,1.1258906091],"code_commune_insee":"27206"},"geometry":{"type":"Point","coordinates":[1.1258906091,48.7975773096]},"record_timestamp":"2016-05-09T15:17:00+02:00"},{"datasetid":"laposte_hexasmal","recordid":"bb248cb80688448aded072d1656756ff214d841f","fields":{"code_postal":"27420","code_commune_insee":"27213","libell_d_acheminement":"VEXIN SUR EPTE","ligne_5":"CAHAIGNES","nom_de_la_commune":"VEXIN SUR EPTE","coordonnees_gps":[49.1515466021,1.59773112902]},"geometry":{"type":"Point","coordinates":[1.59773112902,49.1515466021]},"record_timestamp":"2016-05-09T15:17:00+02:00"},{"datasetid":"laposte_hexasmal","recordid":"5bbaa364241128d69293c4729faa0b0340ea490c","fields":{"code_postal":"27630","code_commune_insee":"27213","libell_d_acheminement":"VEXIN SUR EPTE","ligne_5":"BERTHENONVILLE","nom_de_la_commune":"VEXIN SUR EPTE","coordonnees_gps":[49.1515466021,1.59773112902]},"geometry":{"type":"Point","coordinates":[1.59773112902,49.1515466021]},"record_timestamp":"2016-05-09T15:17:00+02:00"},{"datasetid":"laposte_hexasmal","recordid":"fcb42eba74590b07cb623d05ce547a1037f525ca","fields":{"code_postal":"27630","code_commune_insee":"27213","libell_d_acheminement":"VEXIN SUR EPTE","ligne_5":"BUS ST REMY","nom_de_la_commune":"VEXIN SUR EPTE","coordonnees_gps":[49.1515466021,1.59773112902]},"geometry":{"type":"Point","coordinates":[1.59773112902,49.1515466021]},"record_timestamp":"2016-05-09T15:17:00+02:00"},{"datasetid":"laposte_hexasmal","recordid":"5a6d42b1645a10936a1c9236feb7cad214c5a25e","fields":{"code_postal":"27630","code_commune_insee":"27213","libell_d_acheminement":"VEXIN SUR EPTE","ligne_5":"CIVIERES","nom_de_la_commune":"VEXIN SUR EPTE","coordonnees_gps":[49.1515466021,1.59773112902]},"geometry":{"type":"Point","coordinates":[1.59773112902,49.1515466021]},"record_timestamp":"2016-05-09T15:17:00+02:00"},{"datasetid":"laposte_hexasmal","recordid":"f330c5e3a850b285d6be220ff4ae2f2b2714e020","fields":{"nom_de_la_commune":"ETREPAGNY","libell_d_acheminement":"ETREPAGNY","code_postal":"27150","coordonnees_gps":[49.3119944705,1.61614236385],"code_commune_insee":"27226"},"geometry":{"type":"Point","coordinates":[1.61614236385,49.3119944705]},"record_timestamp":"2016-05-09T15:17:00+02:00"},{"datasetid":"laposte_hexasmal","recordid":"5eae14c09ff1c074dede24cdc465e34c1f4f72e0","fields":{"nom_de_la_commune":"ETURQUERAYE","libell_d_acheminement":"ETURQUERAYE","code_postal":"27350","coordonnees_gps":[49.3693948332,0.688772409605],"code_commune_insee":"27228"},"geometry":{"type":"Point","coordinates":[0.688772409605,49.3693948332]},"record_timestamp":"2016-05-09T15:17:00+02:00"},{"datasetid":"laposte_hexasmal","recordid":"bd34de1b678573bbb78f0f0a6788aa83a3d94f18","fields":{"nom_de_la_commune":"EVREUX","libell_d_acheminement":"EVREUX","code_postal":"27000","coordonnees_gps":[49.02015421,1.14164412464],"code_commune_insee":"27229"},"geometry":{"type":"Point","coordinates":[1.14164412464,49.02015421]},"record_timestamp":"2016-05-09T15:17:00+02:00"},{"datasetid":"laposte_hexasmal","recordid":"937e08a78b9dda9e060d6a178f7a4696ed4a9607","fields":{"nom_de_la_commune":"FAVEROLLES LA CAMPAGNE","libell_d_acheminement":"FAVEROLLES LA CAMPAGNE","code_postal":"27190","coordonnees_gps":[49.0206303776,0.927054936984],"code_commune_insee":"27235"},"geometry":{"type":"Point","coordinates":[0.927054936984,49.0206303776]},"record_timestamp":"2016-05-09T15:17:00+02:00"},{"datasetid":"laposte_hexasmal","recordid":"004db2f5d47c9bfcd30c1aef15e03752c1b266a5","fields":{"nom_de_la_commune":"FERRIERES HAUT CLOCHER","libell_d_acheminement":"FERRIERES HAUT CLOCHER","code_postal":"27190","coordonnees_gps":[49.0203824794,0.987492004365],"code_commune_insee":"27238"},"geometry":{"type":"Point","coordinates":[0.987492004365,49.0203824794]},"record_timestamp":"2016-05-09T15:17:00+02:00"},{"datasetid":"laposte_hexasmal","recordid":"4f398ebe46af4eee8b9ea594d0537117d9cef8f5","fields":{"nom_de_la_commune":"LA FERRIERE SUR RISLE","libell_d_acheminement":"LA FERRIERE SUR RISLE","code_postal":"27760","coordonnees_gps":[48.9777818863,0.787128070523],"code_commune_insee":"27240"},"geometry":{"type":"Point","coordinates":[0.787128070523,48.9777818863]},"record_timestamp":"2016-05-09T15:17:00+02:00"},{"datasetid":"laposte_hexasmal","recordid":"1d1f9bc9452b4eb3ec394e8eddbf48c44f9a7f2c","fields":{"nom_de_la_commune":"FONTAINE L ABBE","libell_d_acheminement":"FONTAINE L ABBE","code_postal":"27470","coordonnees_gps":[49.0883291785,0.687966226442],"code_commune_insee":"27251"},"geometry":{"type":"Point","coordinates":[0.687966226442,49.0883291785]},"record_timestamp":"2016-05-09T15:17:00+02:00"},{"datasetid":"laposte_hexasmal","recordid":"77513a1b4340d372eb15aa4cb57b1ce60ec2b3ac","fields":{"nom_de_la_commune":"LA FORET DU PARC","libell_d_acheminement":"LA FORET DU PARC","code_postal":"27220","coordonnees_gps":[48.927613225,1.24035993264],"code_commune_insee":"27256"},"geometry":{"type":"Point","coordinates":[1.24035993264,48.927613225]},"record_timestamp":"2016-05-09T15:17:00+02:00"},{"datasetid":"laposte_hexasmal","recordid":"d2fbb2d91d5345e859647a1fd9855963b67c3a5b","fields":{"nom_de_la_commune":"LE FRESNE","libell_d_acheminement":"LE FRESNE","code_postal":"27190","coordonnees_gps":[48.9567170463,0.975329849084],"code_commune_insee":"27268"},"geometry":{"type":"Point","coordinates":[0.975329849084,48.9567170463]},"record_timestamp":"2016-05-09T15:17:00+02:00"},{"datasetid":"laposte_hexasmal","recordid":"95a4ea31a64ba4b02dce8b1b735696cce2c02c1a","fields":{"nom_de_la_commune":"GADENCOURT","libell_d_acheminement":"GADENCOURT","code_postal":"27120","coordonnees_gps":[48.9842332257,1.40341807937],"code_commune_insee":"27273"},"geometry":{"type":"Point","coordinates":[1.40341807937,48.9842332257]},"record_timestamp":"2016-05-09T15:17:00+02:00"},{"datasetid":"laposte_hexasmal","recordid":"3d7f02930395586d5800cc1f592a66ce671039b9","fields":{"nom_de_la_commune":"GAMACHES EN VEXIN","libell_d_acheminement":"GAMACHES EN VEXIN","code_postal":"27150","coordonnees_gps":[49.2664796169,1.61611517],"code_commune_insee":"27276"},"geometry":{"type":"Point","coordinates":[1.61611517,49.2664796169]},"record_timestamp":"2016-05-09T15:17:00+02:00"},{"datasetid":"laposte_hexasmal","recordid":"d6f085032be19c15b6548cd3016d8fb407ff37df","fields":{"nom_de_la_commune":"GASNY","libell_d_acheminement":"GASNY","code_postal":"27620","coordonnees_gps":[49.1020218463,1.59975187173],"code_commune_insee":"27279"},"geometry":{"type":"Point","coordinates":[1.59975187173,49.1020218463]},"record_timestamp":"2016-05-09T15:17:00+02:00"},{"datasetid":"laposte_hexasmal","recordid":"2e8fbad24d5a504f7dfdcd6e8965dd4149e6a80f","fields":{"nom_de_la_commune":"GAUCIEL","libell_d_acheminement":"GAUCIEL","code_postal":"27930","coordonnees_gps":[49.0356183804,1.24708624979],"code_commune_insee":"27280"},"geometry":{"type":"Point","coordinates":[1.24708624979,49.0356183804]},"record_timestamp":"2016-05-09T15:17:00+02:00"},{"datasetid":"laposte_hexasmal","recordid":"c265d94c870a7df43e29c4de9e9c9dc4e1ed67c8","fields":{"nom_de_la_commune":"GRAND CAMP","libell_d_acheminement":"GRAND CAMP","code_postal":"27270","coordonnees_gps":[49.0440587541,0.533720192611],"code_commune_insee":"27295"},"geometry":{"type":"Point","coordinates":[0.533720192611,49.0440587541]},"record_timestamp":"2016-05-09T15:17:00+02:00"},{"datasetid":"laposte_hexasmal","recordid":"b8641cdd25aa598db1d6c3aa92b7994345f814fb","fields":{"nom_de_la_commune":"GROSLEY SUR RISLE","libell_d_acheminement":"GROSLEY SUR RISLE","code_postal":"27170","coordonnees_gps":[49.0447187021,0.80546586873],"code_commune_insee":"27300"},"geometry":{"type":"Point","coordinates":[0.80546586873,49.0447187021]},"record_timestamp":"2016-05-09T15:17:00+02:00"},{"datasetid":"laposte_hexasmal","recordid":"5665d12e8653a93bcc87b7d75c37f087bbdd224c","fields":{"code_postal":"27370","code_commune_insee":"27302","libell_d_acheminement":"LE BOSC DU THEIL","ligne_5":"LE GROS THEIL","nom_de_la_commune":"LE BOSC DU THEIL","coordonnees_gps":[49.2281464419,0.840519309317]},"geometry":{"type":"Point","coordinates":[0.840519309317,49.2281464419]},"record_timestamp":"2016-05-09T15:17:00+02:00"},{"datasetid":"laposte_hexasmal","recordid":"1fb7d75642ee83199855b2ce8994d4b2a52f3941","fields":{"nom_de_la_commune":"HARCOURT","libell_d_acheminement":"HARCOURT","code_postal":"27800","coordonnees_gps":[49.1659154983,0.776027385524],"code_commune_insee":"27311"},"geometry":{"type":"Point","coordinates":[0.776027385524,49.1659154983]},"record_timestamp":"2016-05-09T15:17:00+02:00"},{"datasetid":"laposte_hexasmal","recordid":"a7c8f23340153d9e3a3120bcf45b8edf1c3b806a","fields":{"nom_de_la_commune":"LA HAYE AUBREE","libell_d_acheminement":"LA HAYE AUBREE","code_postal":"27350","coordonnees_gps":[49.394154606,0.693346519486],"code_commune_insee":"27317"},"geometry":{"type":"Point","coordinates":[0.693346519486,49.394154606]},"record_timestamp":"2016-05-09T15:17:00+02:00"},{"datasetid":"laposte_hexasmal","recordid":"3fab823ae90e68e5ce735eb862182bd8eecc4203","fields":{"nom_de_la_commune":"HEUBECOURT HARICOURT","libell_d_acheminement":"HEUBECOURT HARICOURT","code_postal":"27630","coordonnees_gps":[49.1301336149,1.56459912242],"code_commune_insee":"27331"},"geometry":{"type":"Point","coordinates":[1.56459912242,49.1301336149]},"record_timestamp":"2016-05-09T15:17:00+02:00"},{"datasetid":"laposte_hexasmal","recordid":"bf97095176fda65316a32b088d1609b8d01130c2","fields":{"code_postal":"27630","code_commune_insee":"27331","libell_d_acheminement":"HEUBECOURT HARICOURT","ligne_5":"HEUBECOURT","nom_de_la_commune":"HEUBECOURT HARICOURT","coordonnees_gps":[49.1301336149,1.56459912242]},"geometry":{"type":"Point","coordinates":[1.56459912242,49.1301336149]},"record_timestamp":"2016-05-09T15:17:00+02:00"},{"datasetid":"laposte_hexasmal","recordid":"cb011a5b15312a35b3cf5dd3fbb23d7d456bcdd0","fields":{"nom_de_la_commune":"HEUDEBOUVILLE","libell_d_acheminement":"HEUDEBOUVILLE","code_postal":"27400","coordonnees_gps":[49.1927471606,1.23713234517],"code_commune_insee":"27332"},"geometry":{"type":"Point","coordinates":[1.23713234517,49.1927471606]},"record_timestamp":"2016-05-09T15:17:00+02:00"},{"datasetid":"laposte_hexasmal","recordid":"7eb5916449b737680fad4ad30f488be10322f24f","fields":{"nom_de_la_commune":"HEUDEBOUVILLE","libell_d_acheminement":"HEUDEBOUVILLE","code_postal":"27600","coordonnees_gps":[49.1927471606,1.23713234517],"code_commune_insee":"27332"},"geometry":{"type":"Point","coordinates":[1.23713234517,49.1927471606]},"record_timestamp":"2016-05-09T15:17:00+02:00"},{"datasetid":"laposte_hexasmal","recordid":"0da470674b882d505e6fc0bc9cdc7d14fe6dc13d","fields":{"nom_de_la_commune":"HEUDREVILLE EN LIEUVIN","libell_d_acheminement":"HEUDREVILLE EN LIEUVIN","code_postal":"27230","coordonnees_gps":[49.1933109292,0.503312662769],"code_commune_insee":"27334"},"geometry":{"type":"Point","coordinates":[0.503312662769,49.1933109292]},"record_timestamp":"2016-05-09T15:17:00+02:00"},{"datasetid":"laposte_hexasmal","recordid":"fdd0a24874b029765ba8dd8ad3fe885bbd282eb0","fields":{"nom_de_la_commune":"LA HEUNIERE","libell_d_acheminement":"LA HEUNIERE","code_postal":"27950","coordonnees_gps":[49.0649738684,1.41307259092],"code_commune_insee":"27336"},"geometry":{"type":"Point","coordinates":[1.41307259092,49.0649738684]},"record_timestamp":"2016-05-09T15:17:00+02:00"},{"datasetid":"laposte_hexasmal","recordid":"570d286ea4f869109f9238daeb415ffbed4bd6ae","fields":{"nom_de_la_commune":"LA HOUSSAYE","libell_d_acheminement":"LA HOUSSAYE","code_postal":"27410","coordonnees_gps":[48.9981469161,0.800464578361],"code_commune_insee":"27345"},"geometry":{"type":"Point","coordinates":[0.800464578361,48.9981469161]},"record_timestamp":"2016-05-09T15:17:00+02:00"},{"datasetid":"laposte_hexasmal","recordid":"d323cd91057526d35451fcc4e7665cd012a2922f","fields":{"nom_de_la_commune":"ILLIERS L EVEQUE","libell_d_acheminement":"ILLIERS L EVEQUE","code_postal":"27770","coordonnees_gps":[48.8249944319,1.25958790614],"code_commune_insee":"27350"},"geometry":{"type":"Point","coordinates":[1.25958790614,48.8249944319]},"record_timestamp":"2016-05-09T15:17:00+02:00"},{"datasetid":"laposte_hexasmal","recordid":"cd4f1a2fcba7d3091802791ba7ffc620eccf4e39","fields":{"nom_de_la_commune":"IRREVILLE","libell_d_acheminement":"IRREVILLE","code_postal":"27930","coordonnees_gps":[49.0984880529,1.19967557825],"code_commune_insee":"27353"},"geometry":{"type":"Point","coordinates":[1.19967557825,49.0984880529]},"record_timestamp":"2016-05-09T15:17:00+02:00"},{"datasetid":"laposte_hexasmal","recordid":"570be7f09328df90145142dfc8d5b8124951ff53","fields":{"nom_de_la_commune":"LOUYE","libell_d_acheminement":"LOUYE","code_postal":"27650","coordonnees_gps":[48.7969011449,1.31913602258],"code_commune_insee":"27376"},"geometry":{"type":"Point","coordinates":[1.31913602258,48.7969011449]},"record_timestamp":"2016-05-09T15:17:00+02:00"},{"datasetid":"laposte_hexasmal","recordid":"8873698177eb68722689615cc82681eec32747e5","fields":{"nom_de_la_commune":"MARCILLY LA CAMPAGNE","libell_d_acheminement":"MARCILLY LA CAMPAGNE","code_postal":"27320","coordonnees_gps":[48.8270540549,1.18747667453],"code_commune_insee":"27390"},"geometry":{"type":"Point","coordinates":[1.18747667453,48.8270540549]},"record_timestamp":"2016-05-09T15:17:00+02:00"},{"datasetid":"laposte_hexasmal","recordid":"38b205427f299acf7b745ab9a7d9e2c6384732dd","fields":{"nom_de_la_commune":"MARTAGNY","libell_d_acheminement":"MARTAGNY","code_postal":"27150","coordonnees_gps":[49.3955328477,1.6577250335],"code_commune_insee":"27392"},"geometry":{"type":"Point","coordinates":[1.6577250335,49.3955328477]},"record_timestamp":"2016-05-09T15:17:00+02:00"},{"datasetid":"laposte_hexasmal","recordid":"ee9e15fdbdb8793a153782e1a5cf8602a3170845","fields":{"nom_de_la_commune":"MARTOT","libell_d_acheminement":"MARTOT","code_postal":"27340","coordonnees_gps":[49.2780639581,1.07107069967],"code_commune_insee":"27394"},"geometry":{"type":"Point","coordinates":[1.07107069967,49.2780639581]},"record_timestamp":"2016-05-09T15:17:00+02:00"},{"datasetid":"laposte_hexasmal","recordid":"e25b374f861d1c60cfa38ca204dacc199670bdb4","fields":{"nom_de_la_commune":"LE MESNIL FUGUET","libell_d_acheminement":"LE MESNIL FUGUET","code_postal":"27930","coordonnees_gps":[49.0730545444,1.11399083502],"code_commune_insee":"27401"},"geometry":{"type":"Point","coordinates":[1.11399083502,49.0730545444]},"record_timestamp":"2016-05-09T15:17:00+02:00"},{"datasetid":"laposte_hexasmal","recordid":"a7e4b3f358752f29ea93fea0dc8f238e96bb7595","fields":{"nom_de_la_commune":"LE MESNIL JOURDAIN","libell_d_acheminement":"LE MESNIL JOURDAIN","code_postal":"27400","coordonnees_gps":[49.1815334603,1.12763185285],"code_commune_insee":"27403"},"geometry":{"type":"Point","coordinates":[1.12763185285,49.1815334603]},"record_timestamp":"2016-05-09T15:17:00+02:00"},{"datasetid":"laposte_hexasmal","recordid":"2d9bbcff4a4b71630459ddcf3a0159df9aed17d5","fields":{"nom_de_la_commune":"MORAINVILLE JOUVEAUX","libell_d_acheminement":"MORAINVILLE JOUVEAUX","code_postal":"27260","coordonnees_gps":[49.2227027964,0.443976742663],"code_commune_insee":"27415"},"geometry":{"type":"Point","coordinates":[0.443976742663,49.2227027964]},"record_timestamp":"2016-05-09T15:17:00+02:00"},{"datasetid":"laposte_hexasmal","recordid":"3e6b106ca1b5b73d9a3b0864499a4e526e9f3a23","fields":{"nom_de_la_commune":"MOUETTES","libell_d_acheminement":"MOUETTES","code_postal":"27220","coordonnees_gps":[48.8886476337,1.36834248344],"code_commune_insee":"27419"},"geometry":{"type":"Point","coordinates":[1.36834248344,48.8886476337]},"record_timestamp":"2016-05-09T15:17:00+02:00"},{"datasetid":"laposte_hexasmal","recordid":"e25260784514eb57cb7be95d2a30b26356f1e597","fields":{"nom_de_la_commune":"NORMANVILLE","libell_d_acheminement":"NORMANVILLE","code_postal":"27930","coordonnees_gps":[49.0725184712,1.16198827821],"code_commune_insee":"27439"},"geometry":{"type":"Point","coordinates":[1.16198827821,49.0725184712]},"record_timestamp":"2016-05-09T15:17:00+02:00"},{"datasetid":"laposte_hexasmal","recordid":"d4228f23f74ead9df0fb1eb3111edf8d219e29df","fields":{"nom_de_la_commune":"PERRIERS SUR ANDELLE","libell_d_acheminement":"PERRIERS SUR ANDELLE","code_postal":"27910","coordonnees_gps":[49.4084277874,1.36331833867],"code_commune_insee":"27453"},"geometry":{"type":"Point","coordinates":[1.36331833867,49.4084277874]},"record_timestamp":"2016-05-09T15:17:00+02:00"},{"datasetid":"laposte_hexasmal","recordid":"0fd6e65e0cfeb0110c7fb2186c8624833c84f505","fields":{"nom_de_la_commune":"PERRUEL","libell_d_acheminement":"PERRUEL","code_postal":"27910","coordonnees_gps":[49.4322323114,1.36153418506],"code_commune_insee":"27454"},"geometry":{"type":"Point","coordinates":[1.36153418506,49.4322323114]},"record_timestamp":"2016-05-09T15:17:00+02:00"},{"datasetid":"laposte_hexasmal","recordid":"b6fc12631ed1dd210fb3dd53934fa7e4fe52601b","fields":{"nom_de_la_commune":"PIENCOURT","libell_d_acheminement":"PIENCOURT","code_postal":"27230","coordonnees_gps":[49.1715184928,0.407698895643],"code_commune_insee":"27455"},"geometry":{"type":"Point","coordinates":[0.407698895643,49.1715184928]},"record_timestamp":"2016-05-09T15:17:00+02:00"},{"datasetid":"laposte_hexasmal","recordid":"7d7520666e868427974bebe4944f75672cbebe70","fields":{"nom_de_la_commune":"LES PLACES","libell_d_acheminement":"LES PLACES","code_postal":"27230","coordonnees_gps":[49.1531446643,0.41691005358],"code_commune_insee":"27459"},"geometry":{"type":"Point","coordinates":[0.41691005358,49.1531446643]},"record_timestamp":"2016-05-09T15:17:00+02:00"},{"datasetid":"laposte_hexasmal","recordid":"34c4593d1cb048bf3b167b72930a5d6ca7b8efc3","fields":{"nom_de_la_commune":"PORTE JOIE","libell_d_acheminement":"PORTE JOIE","code_postal":"27430","coordonnees_gps":[49.2524086765,1.25122427132],"code_commune_insee":"27471"},"geometry":{"type":"Point","coordinates":[1.25122427132,49.2524086765]},"record_timestamp":"2016-05-09T15:17:00+02:00"},{"datasetid":"laposte_hexasmal","recordid":"ffb911e330fde2b19d843544b10cfe6f51040f8c","fields":{"nom_de_la_commune":"LES PREAUX","libell_d_acheminement":"LES PREAUX","code_postal":"27500","coordonnees_gps":[49.3281307997,0.480531070543],"code_commune_insee":"27476"},"geometry":{"type":"Point","coordinates":[0.480531070543,49.3281307997]},"record_timestamp":"2016-05-09T15:17:00+02:00"},{"datasetid":"laposte_hexasmal","recordid":"be9c680c3eb25f890131f6dec50395df3e9dcac1","fields":{"nom_de_la_commune":"QUITTEBEUF","libell_d_acheminement":"QUITTEBEUF","code_postal":"27110","coordonnees_gps":[49.1073075931,1.00532238081],"code_commune_insee":"27486"},"geometry":{"type":"Point","coordinates":[1.00532238081,49.1073075931]},"record_timestamp":"2016-05-09T15:17:00+02:00"},{"datasetid":"laposte_hexasmal","recordid":"c4a97223939b9552167163630b07a51024eb68a1","fields":{"nom_de_la_commune":"RADEPONT","libell_d_acheminement":"RADEPONT","code_postal":"27380","coordonnees_gps":[49.3531161459,1.32420205477],"code_commune_insee":"27487"},"geometry":{"type":"Point","coordinates":[1.32420205477,49.3531161459]},"record_timestamp":"2016-05-09T15:17:00+02:00"},{"datasetid":"laposte_hexasmal","recordid":"d25f9b9401e129ee0c8ba229d0ce9f56b81b85b8","fields":{"nom_de_la_commune":"RENNEVILLE","libell_d_acheminement":"RENNEVILLE","code_postal":"27910","coordonnees_gps":[49.3960826717,1.32607128725],"code_commune_insee":"27488"},"geometry":{"type":"Point","coordinates":[1.32607128725,49.3960826717]},"record_timestamp":"2016-05-09T15:17:00+02:00"},{"datasetid":"laposte_hexasmal","recordid":"b77d9d9659a9cd03c549ea3ea807531af8801495","fields":{"nom_de_la_commune":"REUILLY","libell_d_acheminement":"REUILLY","code_postal":"27930","coordonnees_gps":[49.0728383808,1.22648323234],"code_commune_insee":"27489"},"geometry":{"type":"Point","coordinates":[1.22648323234,49.0728383808]},"record_timestamp":"2016-05-09T15:17:00+02:00"},{"datasetid":"laposte_hexasmal","recordid":"ae39a95a8b9fee2453143bcde0465db399955236","fields":{"nom_de_la_commune":"ROSAY SUR LIEURE","libell_d_acheminement":"ROSAY SUR LIEURE","code_postal":"27790","coordonnees_gps":[49.3746388684,1.42794431764],"code_commune_insee":"27496"},"geometry":{"type":"Point","coordinates":[1.42794431764,49.3746388684]},"record_timestamp":"2016-05-09T15:17:00+02:00"},{"datasetid":"laposte_hexasmal","recordid":"16f1dd8b502b82032cb62c18b9a00d78de9f5c8b","fields":{"nom_de_la_commune":"RUGLES","libell_d_acheminement":"RUGLES","code_postal":"27250","coordonnees_gps":[48.8157669223,0.691368655422],"code_commune_insee":"27502"},"geometry":{"type":"Point","coordinates":[0.691368655422,48.8157669223]},"record_timestamp":"2016-05-09T15:17:00+02:00"},{"datasetid":"laposte_hexasmal","recordid":"9fd1cd8dcdc47f9e61e1f799e25491ce3c7c3649","fields":{"nom_de_la_commune":"ST AQUILIN DE PACY","libell_d_acheminement":"ST AQUILIN DE PACY","code_postal":"27120","coordonnees_gps":[49.009709894,1.3508836256],"code_commune_insee":"27510"},"geometry":{"type":"Point","coordinates":[1.3508836256,49.009709894]},"record_timestamp":"2016-05-09T15:17:00+02:00"},{"datasetid":"laposte_hexasmal","recordid":"43a1ada7da85153333352e66b4f0b98b20385ac1","fields":{"nom_de_la_commune":"ST AUBIN LE VERTUEUX","libell_d_acheminement":"ST AUBIN LE VERTUEUX","code_postal":"27300","coordonnees_gps":[49.0593510154,0.611660740223],"code_commune_insee":"27516"},"geometry":{"type":"Point","coordinates":[0.611660740223,49.0593510154]},"record_timestamp":"2016-05-09T15:17:00+02:00"},{"datasetid":"laposte_hexasmal","recordid":"04ede9e169efad721803261127fee8cfab541fde","fields":{"nom_de_la_commune":"ST CLAIR D ARCEY","libell_d_acheminement":"ST CLAIR D ARCEY","code_postal":"27300","coordonnees_gps":[49.0637803383,0.662870377669],"code_commune_insee":"27523"},"geometry":{"type":"Point","coordinates":[0.662870377669,49.0637803383]},"record_timestamp":"2016-05-09T15:17:00+02:00"},{"datasetid":"laposte_hexasmal","recordid":"be452ede76f1344c420a524c2a07ddb422843c4c","fields":{"nom_de_la_commune":"ST DENIS DES MONTS","libell_d_acheminement":"ST DENIS DES MONTS","code_postal":"27520","coordonnees_gps":[49.256053123,0.806583378737],"code_commune_insee":"27531"},"geometry":{"type":"Point","coordinates":[0.806583378737,49.256053123]},"record_timestamp":"2016-05-09T15:17:00+02:00"},{"datasetid":"laposte_hexasmal","recordid":"ec656c9e2c73e7bd19a5c80abc524d491aef081b","fields":{"nom_de_la_commune":"ST ELIER","libell_d_acheminement":"ST ELIER","code_postal":"27190","coordonnees_gps":[48.9837315688,0.961361003567],"code_commune_insee":"27535"},"geometry":{"type":"Point","coordinates":[0.961361003567,48.9837315688]},"record_timestamp":"2016-05-09T15:17:00+02:00"},{"datasetid":"laposte_hexasmal","recordid":"72eece5728d56670b40cc3f90625cafa42b0c8e4","fields":{"nom_de_la_commune":"ST ETIENNE L ALLIER","libell_d_acheminement":"ST ETIENNE L ALLIER","code_postal":"27450","coordonnees_gps":[49.266311791,0.557474976869],"code_commune_insee":"27538"},"geometry":{"type":"Point","coordinates":[0.557474976869,49.266311791]},"record_timestamp":"2016-05-09T15:17:00+02:00"},{"datasetid":"laposte_hexasmal","recordid":"73bc54a52ac3ca8d227fa37e8562efae92d5a080","fields":{"nom_de_la_commune":"ST GEORGES DU VIEVRE","libell_d_acheminement":"ST GEORGES DU VIEVRE","code_postal":"27450","coordonnees_gps":[49.2421438594,0.579765029769],"code_commune_insee":"27542"},"geometry":{"type":"Point","coordinates":[0.579765029769,49.2421438594]},"record_timestamp":"2016-05-09T15:17:00+02:00"},{"datasetid":"laposte_hexasmal","recordid":"327f1923e6e01b5946c8f1b64bb4740a7f725f99","fields":{"nom_de_la_commune":"ST GERMAIN DE PASQUIER","libell_d_acheminement":"ST GERMAIN DE PASQUIER","code_postal":"27370","coordonnees_gps":[49.2419000465,1.00241263346],"code_commune_insee":"27545"},"geometry":{"type":"Point","coordinates":[1.00241263346,49.2419000465]},"record_timestamp":"2016-05-09T15:17:00+02:00"},{"datasetid":"laposte_hexasmal","recordid":"a56df895ca03bfd4a124c0a0eda9cecfae86b8e1","fields":{"nom_de_la_commune":"ST GERMAIN LA CAMPAGNE","libell_d_acheminement":"ST GERMAIN LA CAMPAGNE","code_postal":"27230","coordonnees_gps":[49.0522921876,0.412852228157],"code_commune_insee":"27547"},"geometry":{"type":"Point","coordinates":[0.412852228157,49.0522921876]},"record_timestamp":"2016-05-09T15:17:00+02:00"},{"datasetid":"laposte_hexasmal","recordid":"e9a08f2ef14d7df403d4d253fd4895b4abfbbb38","fields":{"nom_de_la_commune":"ST JEAN DU THENNEY","libell_d_acheminement":"ST JEAN DU THENNEY","code_postal":"27270","coordonnees_gps":[49.0154059263,0.458622529157],"code_commune_insee":"27552"},"geometry":{"type":"Point","coordinates":[0.458622529157,49.0154059263]},"record_timestamp":"2016-05-09T15:17:00+02:00"},{"datasetid":"laposte_hexasmal","recordid":"0e78a76029dca624166a4af4a4875cabb3447ad2","fields":{"nom_de_la_commune":"ST JULIEN DE LA LIEGUE","libell_d_acheminement":"ST JULIEN DE LA LIEGUE","code_postal":"27600","coordonnees_gps":[49.1401487215,1.28700576113],"code_commune_insee":"27553"},"geometry":{"type":"Point","coordinates":[1.28700576113,49.1401487215]},"record_timestamp":"2016-05-09T15:17:00+02:00"},{"datasetid":"laposte_hexasmal","recordid":"0b99332b45f127cc92bdcf3c829019c2691ca795","fields":{"nom_de_la_commune":"ST LAURENT DES BOIS","libell_d_acheminement":"ST LAURENT DES BOIS","code_postal":"27220","coordonnees_gps":[48.8459827261,1.319178626],"code_commune_insee":"27555"},"geometry":{"type":"Point","coordinates":[1.319178626,48.8459827261]},"record_timestamp":"2016-05-09T15:17:00+02:00"},{"datasetid":"laposte_hexasmal","recordid":"b8492c6b0285333a577a3ab806b1b5f5740c8dab","fields":{"nom_de_la_commune":"ST LEGER DE ROTES","libell_d_acheminement":"ST LEGER DE ROTES","code_postal":"27300","coordonnees_gps":[49.1126606736,0.662290539561],"code_commune_insee":"27557"},"geometry":{"type":"Point","coordinates":[0.662290539561,49.1126606736]},"record_timestamp":"2016-05-09T15:17:00+02:00"},{"datasetid":"laposte_hexasmal","recordid":"f746fa53be775ac427652760b8a3fee3f75132c7","fields":{"code_postal":"27160","code_commune_insee":"27565","libell_d_acheminement":"LE LESME","ligne_5":"STE MARGUERITE DE L AUTEL","nom_de_la_commune":"LE LESME","coordonnees_gps":[48.911287302,0.845987853541]},"geometry":{"type":"Point","coordinates":[0.845987853541,48.911287302]},"record_timestamp":"2016-05-09T15:17:00+02:00"},{"datasetid":"laposte_hexasmal","recordid":"25e3cf4db2567942d3cb9b2cf0327fe9a8e92183","fields":{"nom_de_la_commune":"ACON","libell_d_acheminement":"ACON","code_postal":"27570","coordonnees_gps":[48.7694578544,1.10492466757],"code_commune_insee":"27002"},"geometry":{"type":"Point","coordinates":[1.10492466757,48.7694578544]},"record_timestamp":"2016-05-09T15:17:00+02:00"},{"datasetid":"laposte_hexasmal","recordid":"93946972b7c6e6d7e018c1a4a3103329d6151ca4","fields":{"nom_de_la_commune":"AIGLEVILLE","libell_d_acheminement":"AIGLEVILLE","code_postal":"27120","coordonnees_gps":[49.0059752091,1.42580857291],"code_commune_insee":"27004"},"geometry":{"type":"Point","coordinates":[1.42580857291,49.0059752091]},"record_timestamp":"2016-05-09T15:17:00+02:00"},{"datasetid":"laposte_hexasmal","recordid":"feb0cb1e510c3ac67242b5e3eb10f469e424004b","fields":{"nom_de_la_commune":"AMBENAY","libell_d_acheminement":"AMBENAY","code_postal":"27250","coordonnees_gps":[48.8402151816,0.73972567335],"code_commune_insee":"27009"},"geometry":{"type":"Point","coordinates":[0.73972567335,48.8402151816]},"record_timestamp":"2016-05-09T15:17:00+02:00"},{"datasetid":"laposte_hexasmal","recordid":"2c9d9a5de1cdf42694d29e6bb18ed155d69182ac","fields":{"nom_de_la_commune":"AMECOURT","libell_d_acheminement":"AMECOURT","code_postal":"27140","coordonnees_gps":[49.3767401093,1.7332985708],"code_commune_insee":"27010"},"geometry":{"type":"Point","coordinates":[1.7332985708,49.3767401093]},"record_timestamp":"2016-05-09T15:17:00+02:00"},{"datasetid":"laposte_hexasmal","recordid":"71cebc576660bb3aa4a183cbf8eca2675005b607","fields":{"nom_de_la_commune":"AMFREVILLE LES CHAMPS","libell_d_acheminement":"AMFREVILLE LES CHAMPS","code_postal":"27380","coordonnees_gps":[49.3126551036,1.32149788001],"code_commune_insee":"27012"},"geometry":{"type":"Point","coordinates":[1.32149788001,49.3126551036]},"record_timestamp":"2016-05-09T15:17:00+02:00"},{"datasetid":"laposte_hexasmal","recordid":"55bae4f8ede8d5b1b170fbb68a130bb766b4b6c1","fields":{"nom_de_la_commune":"ANGERVILLE LA CAMPAGNE","libell_d_acheminement":"ANGERVILLE LA CAMPAGNE","code_postal":"27930","coordonnees_gps":[48.9889739894,1.15705136083],"code_commune_insee":"27017"},"geometry":{"type":"Point","coordinates":[1.15705136083,48.9889739894]},"record_timestamp":"2016-05-09T15:17:00+02:00"},{"datasetid":"laposte_hexasmal","recordid":"2380cd14a6c41b313135ee8f92be89bd97c530c3","fields":{"code_postal":"27600","code_commune_insee":"27022","libell_d_acheminement":"LE VAL D HAZEY","ligne_5":"VIEUX VILLEZ","nom_de_la_commune":"LE VAL D HAZEY","coordonnees_gps":[49.1751629599,1.33329956002]},"geometry":{"type":"Point","coordinates":[1.33329956002,49.1751629599]},"record_timestamp":"2016-05-09T15:17:00+02:00"},{"datasetid":"laposte_hexasmal","recordid":"ba1870d6f05aee8c01ae55de6ef98497fdbd2a2e","fields":{"nom_de_la_commune":"AVIRON","libell_d_acheminement":"AVIRON","code_postal":"27930","coordonnees_gps":[49.0566321831,1.12002720385],"code_commune_insee":"27031"},"geometry":{"type":"Point","coordinates":[1.12002720385,49.0566321831]},"record_timestamp":"2016-05-09T15:17:00+02:00"},{"datasetid":"laposte_hexasmal","recordid":"06cf5e5ef1dc98123b3b6a8adb15f199b7b437e4","fields":{"nom_de_la_commune":"BACQUEVILLE","libell_d_acheminement":"BACQUEVILLE","code_postal":"27440","coordonnees_gps":[49.3219203458,1.36658657658],"code_commune_insee":"27034"},"geometry":{"type":"Point","coordinates":[1.36658657658,49.3219203458]},"record_timestamp":"2016-05-09T15:17:00+02:00"},{"datasetid":"laposte_hexasmal","recordid":"538060d658ebc66279fb201628a2bd1c9149ccb9","fields":{"nom_de_la_commune":"BARQUET","libell_d_acheminement":"BARQUET","code_postal":"27170","coordonnees_gps":[49.0394990811,0.854645934918],"code_commune_insee":"27040"},"geometry":{"type":"Point","coordinates":[0.854645934918,49.0394990811]},"record_timestamp":"2016-05-09T15:17:00+02:00"},{"datasetid":"laposte_hexasmal","recordid":"a62d803751643ad9d6af2c9193eaa6852a30f0e0","fields":{"nom_de_la_commune":"LES BAUX STE CROIX","libell_d_acheminement":"LES BAUX STE CROIX","code_postal":"27180","coordonnees_gps":[48.9670536048,1.10669165131],"code_commune_insee":"27044"},"geometry":{"type":"Point","coordinates":[1.10669165131,48.9670536048]},"record_timestamp":"2016-05-09T15:17:00+02:00"},{"datasetid":"laposte_hexasmal","recordid":"eeb1a2ba47196c3cf5a7c813951a4cf297eaefb5","fields":{"code_postal":"27410","code_commune_insee":"27049","libell_d_acheminement":"MESNIL EN OUCHE","ligne_5":"BEAUMESNIL","nom_de_la_commune":"MESNIL EN OUCHE","coordonnees_gps":[49.0090520551,0.696415474297]},"geometry":{"type":"Point","coordinates":[0.696415474297,49.0090520551]},"record_timestamp":"2016-05-09T15:17:00+02:00"},{"datasetid":"laposte_hexasmal","recordid":"0c589673f712850d13ff79f90b86abe260cef5e6","fields":{"code_postal":"27410","code_commune_insee":"27049","libell_d_acheminement":"MESNIL EN OUCHE","ligne_5":"GRANCHAIN","nom_de_la_commune":"MESNIL EN OUCHE","coordonnees_gps":[49.0090520551,0.696415474297]},"geometry":{"type":"Point","coordinates":[0.696415474297,49.0090520551]},"record_timestamp":"2016-05-09T15:17:00+02:00"},{"datasetid":"laposte_hexasmal","recordid":"9d09d6dcf1bf2c2b740461a1bec4cf920c1aecfe","fields":{"nom_de_la_commune":"BERNAY","libell_d_acheminement":"BERNAY","code_postal":"27300","coordonnees_gps":[49.0925877345,0.58959175237],"code_commune_insee":"27056"},"geometry":{"type":"Point","coordinates":[0.58959175237,49.0925877345]},"record_timestamp":"2016-05-09T15:17:00+02:00"},{"datasetid":"laposte_hexasmal","recordid":"46995113794b98e5ddc8481a549dad750e9cf09a","fields":{"nom_de_la_commune":"BERNIERES SUR SEINE","libell_d_acheminement":"BERNIERES SUR SEINE","code_postal":"27700","coordonnees_gps":[49.2356150972,1.3466570759],"code_commune_insee":"27058"},"geometry":{"type":"Point","coordinates":[1.3466570759,49.2356150972]},"record_timestamp":"2016-05-09T15:17:00+02:00"},{"datasetid":"laposte_hexasmal","recordid":"e98241c2aedf7c54e277d90f306c788aa35d5de2","fields":{"nom_de_la_commune":"BERTHOUVILLE","libell_d_acheminement":"BERTHOUVILLE","code_postal":"27800","coordonnees_gps":[49.1711234427,0.622865365942],"code_commune_insee":"27061"},"geometry":{"type":"Point","coordinates":[0.622865365942,49.1711234427]},"record_timestamp":"2016-05-09T15:17:00+02:00"},{"datasetid":"laposte_hexasmal","recordid":"f8cb4ee3b732eaffafd3d66c8cabc9d48e3cb54b","fields":{"nom_de_la_commune":"BONNEVILLE APTOT","libell_d_acheminement":"BONNEVILLE APTOT","code_postal":"27290","coordonnees_gps":[49.2595144093,0.751526070144],"code_commune_insee":"27083"},"geometry":{"type":"Point","coordinates":[0.751526070144,49.2595144093]},"record_timestamp":"2016-05-09T15:17:00+02:00"},{"datasetid":"laposte_hexasmal","recordid":"465c71864f4adeb06328f7fa9d984728e1b57e62","fields":{"nom_de_la_commune":"LE BOSC ROGER EN ROUMOIS","libell_d_acheminement":"LE BOSC ROGER EN ROUMOIS","code_postal":"27670","coordonnees_gps":[49.2933518508,0.922353150022],"code_commune_insee":"27090"},"geometry":{"type":"Point","coordinates":[0.922353150022,49.2933518508]},"record_timestamp":"2016-05-09T15:17:00+02:00"},{"datasetid":"laposte_hexasmal","recordid":"80820ca0f94c4dd4c916be157e9c50ca13c3d54f","fields":{"nom_de_la_commune":"LES BOTTEREAUX","libell_d_acheminement":"LES BOTTEREAUX","code_postal":"27250","coordonnees_gps":[48.8712188786,0.676548267263],"code_commune_insee":"27096"},"geometry":{"type":"Point","coordinates":[0.676548267263,48.8712188786]},"record_timestamp":"2016-05-09T15:17:00+02:00"},{"datasetid":"laposte_hexasmal","recordid":"a432465e83cc33363b87fa20ff7645c2ef9c075d","fields":{"nom_de_la_commune":"LE BOULAY MORIN","libell_d_acheminement":"LE BOULAY MORIN","code_postal":"27930","coordonnees_gps":[49.0763402724,1.18739745292],"code_commune_insee":"27099"},"geometry":{"type":"Point","coordinates":[1.18739745292,49.0763402724]},"record_timestamp":"2016-05-09T15:17:00+02:00"},{"datasetid":"laposte_hexasmal","recordid":"4bcc2bdc5cd41b4c5c9c5f404383f46a67eedfc3","fields":{"code_postal":"27210","code_commune_insee":"27100","libell_d_acheminement":"BOULLEVILLE","ligne_5":"LA LANDE","nom_de_la_commune":"BOULLEVILLE","coordonnees_gps":[49.3705498609,0.393309012752]},"geometry":{"type":"Point","coordinates":[0.393309012752,49.3705498609]},"record_timestamp":"2016-05-09T15:17:00+02:00"},{"datasetid":"laposte_hexasmal","recordid":"2c9b5f7f64fed7a5cb7cbfcd3749028c5a0b60db","fields":{"nom_de_la_commune":"BOUQUELON","libell_d_acheminement":"BOUQUELON","code_postal":"27500","coordonnees_gps":[49.3995142843,0.49146423829],"code_commune_insee":"27101"},"geometry":{"type":"Point","coordinates":[0.49146423829,49.3995142843]},"record_timestamp":"2016-05-09T15:17:00+02:00"},{"datasetid":"laposte_hexasmal","recordid":"8e36828bf5682ed345d4a1d19e94d4a284016a98","fields":{"nom_de_la_commune":"BOUQUETOT","libell_d_acheminement":"BOUQUETOT","code_postal":"27310","coordonnees_gps":[49.3610544538,0.770400982625],"code_commune_insee":"27102"},"geometry":{"type":"Point","coordinates":[0.770400982625,49.3610544538]},"record_timestamp":"2016-05-09T15:17:00+02:00"},{"datasetid":"laposte_hexasmal","recordid":"0b8b2430c57da33bc95b83e28b8b9ee5f62f151d","fields":{"code_postal":"27520","code_commune_insee":"27105","libell_d_acheminement":"GRAND BOURGTHEROULDE","ligne_5":"BOSC BENARD COMMIN","nom_de_la_commune":"GRAND BOURGTHEROULDE","coordonnees_gps":[49.2995530921,0.876522751918]},"geometry":{"type":"Point","coordinates":[0.876522751918,49.2995530921]},"record_timestamp":"2016-05-09T15:17:00+02:00"},{"datasetid":"laposte_hexasmal","recordid":"0ea3b10a8d768ddac850ca5760c04110331fd2fe","fields":{"code_postal":"27520","code_commune_insee":"27105","libell_d_acheminement":"GRAND BOURGTHEROULDE","ligne_5":"BOSCHERVILLE","nom_de_la_commune":"GRAND BOURGTHEROULDE","coordonnees_gps":[49.2995530921,0.876522751918]},"geometry":{"type":"Point","coordinates":[0.876522751918,49.2995530921]},"record_timestamp":"2016-05-09T15:17:00+02:00"},{"datasetid":"laposte_hexasmal","recordid":"e7cec384dc4b6843a9e1cf81107650ffceebafae","fields":{"nom_de_la_commune":"BOURNEVILLE STE CROIX","libell_d_acheminement":"BOURNEVILLE STE CROIX","code_postal":"27500","coordonnees_gps":[49.39187586,0.620240697299],"code_commune_insee":"27107"},"geometry":{"type":"Point","coordinates":[0.620240697299,49.39187586]},"record_timestamp":"2016-05-09T15:17:00+02:00"},{"datasetid":"laposte_hexasmal","recordid":"e8280f0f5015e85a85dcc64c0cfc80668633cceb","fields":{"code_postal":"27500","code_commune_insee":"27107","libell_d_acheminement":"BOURNEVILLE STE CROIX","ligne_5":"STE CROIX SUR AIZIER","nom_de_la_commune":"BOURNEVILLE STE CROIX","coordonnees_gps":[49.39187586,0.620240697299]},"geometry":{"type":"Point","coordinates":[0.620240697299,49.39187586]},"record_timestamp":"2016-05-09T15:17:00+02:00"},{"datasetid":"laposte_hexasmal","recordid":"a43e7a03cebcee5bce1121e544c66be34f66a30d","fields":{"nom_de_la_commune":"BRAY","libell_d_acheminement":"BRAY","code_postal":"27170","coordonnees_gps":[49.1042865972,0.836034010242],"code_commune_insee":"27109"},"geometry":{"type":"Point","coordinates":[0.836034010242,49.1042865972]},"record_timestamp":"2016-05-09T15:17:00+02:00"},{"datasetid":"laposte_hexasmal","recordid":"77ff2e45400f7a7979d527e3f39f0700d0a244a4","fields":{"nom_de_la_commune":"BRETIGNY","libell_d_acheminement":"BRETIGNY","code_postal":"27800","coordonnees_gps":[49.2149558389,0.662526045546],"code_commune_insee":"27113"},"geometry":{"type":"Point","coordinates":[0.662526045546,49.2149558389]},"record_timestamp":"2016-05-09T15:17:00+02:00"},{"datasetid":"laposte_hexasmal","recordid":"2aa3a3a215f8033c0166d8d5b9a49df0f43a548a","fields":{"nom_de_la_commune":"BROSVILLE","libell_d_acheminement":"BROSVILLE","code_postal":"27930","coordonnees_gps":[49.1097913222,1.11344092166],"code_commune_insee":"27118"},"geometry":{"type":"Point","coordinates":[1.11344092166,49.1097913222]},"record_timestamp":"2016-05-09T15:17:00+02:00"},{"datasetid":"laposte_hexasmal","recordid":"6fc1a375eb44deba621e769559507ada21dfd8f5","fields":{"nom_de_la_commune":"BUEIL","libell_d_acheminement":"BUEIL","code_postal":"27730","coordonnees_gps":[48.9343375603,1.44434816017],"code_commune_insee":"27119"},"geometry":{"type":"Point","coordinates":[1.44434816017,48.9343375603]},"record_timestamp":"2016-05-09T15:17:00+02:00"},{"datasetid":"laposte_hexasmal","recordid":"b62076a018132269252d7410072c21bf65a309ac","fields":{"nom_de_la_commune":"CAILLOUET ORGEVILLE","libell_d_acheminement":"CAILLOUET ORGEVILLE","code_postal":"27120","coordonnees_gps":[49.0034124144,1.31639623095],"code_commune_insee":"27123"},"geometry":{"type":"Point","coordinates":[1.31639623095,49.0034124144]},"record_timestamp":"2016-05-09T15:17:00+02:00"},{"datasetid":"laposte_hexasmal","recordid":"e93826500168278fb20b756725aeab8a86b72147","fields":{"nom_de_la_commune":"CAILLY SUR EURE","libell_d_acheminement":"CAILLY SUR EURE","code_postal":"27490","coordonnees_gps":[49.1194337911,1.21848512049],"code_commune_insee":"27124"},"geometry":{"type":"Point","coordinates":[1.21848512049,49.1194337911]},"record_timestamp":"2016-05-09T15:17:00+02:00"},{"datasetid":"laposte_hexasmal","recordid":"384706a81b17f5c80c5ce6746952da3e5289d44c","fields":{"nom_de_la_commune":"CALLEVILLE","libell_d_acheminement":"CALLEVILLE","code_postal":"27800","coordonnees_gps":[49.1904141623,0.7558527668],"code_commune_insee":"27125"},"geometry":{"type":"Point","coordinates":[0.7558527668,49.1904141623]},"record_timestamp":"2016-05-09T15:17:00+02:00"},{"datasetid":"laposte_hexasmal","recordid":"c38e74dcd12ce351351984a09a989e149fe3942b","fields":{"nom_de_la_commune":"CANAPPEVILLE","libell_d_acheminement":"CANAPPEVILLE","code_postal":"27400","coordonnees_gps":[49.1572590127,1.08933240354],"code_commune_insee":"27127"},"geometry":{"type":"Point","coordinates":[1.08933240354,49.1572590127]},"record_timestamp":"2016-05-09T15:17:00+02:00"},{"datasetid":"laposte_hexasmal","recordid":"87563bc46a0b6b4f78a61effb8081cd9c7b692cf","fields":{"nom_de_la_commune":"CAUVERVILLE EN ROUMOIS","libell_d_acheminement":"CAUVERVILLE EN ROUMOIS","code_postal":"27350","coordonnees_gps":[49.3552369036,0.647055646241],"code_commune_insee":"27134"},"geometry":{"type":"Point","coordinates":[0.647055646241,49.3552369036]},"record_timestamp":"2016-05-09T15:17:00+02:00"},{"datasetid":"laposte_hexasmal","recordid":"e9f02c1431ae1e20f6f526a5a92365ee46a523d7","fields":{"code_postal":"27270","code_commune_insee":"27138","libell_d_acheminement":"CHAMBLAC","ligne_5":"BOSC MOREL","nom_de_la_commune":"CHAMBLAC","coordonnees_gps":[48.9922969415,0.562558424938]},"geometry":{"type":"Point","coordinates":[0.562558424938,48.9922969415]},"record_timestamp":"2016-05-09T15:17:00+02:00"},{"datasetid":"laposte_hexasmal","recordid":"493e3bf6c673e71816aba49d1da57020e9035543","fields":{"nom_de_la_commune":"CHAMPIGNOLLES","libell_d_acheminement":"CHAMPIGNOLLES","code_postal":"27330","coordonnees_gps":[48.9579288381,0.760809777033],"code_commune_insee":"27143"},"geometry":{"type":"Point","coordinates":[0.760809777033,48.9579288381]},"record_timestamp":"2016-05-09T15:17:00+02:00"},{"datasetid":"laposte_hexasmal","recordid":"060cbad591f6b3f515bfa91f97484c80ed6a59bb","fields":{"code_postal":"27150","code_commune_insee":"27153","libell_d_acheminement":"CHAUVINCOURT PROVEMONT","ligne_5":"PROVEMONT","nom_de_la_commune":"CHAUVINCOURT PROVEMONT","coordonnees_gps":[49.2808952315,1.64529134367]},"geometry":{"type":"Point","coordinates":[1.64529134367,49.2808952315]},"record_timestamp":"2016-05-09T15:17:00+02:00"},{"datasetid":"laposte_hexasmal","recordid":"6ab1880739ba4ecbd5d703c4300a4d061c381b8a","fields":{"nom_de_la_commune":"CHENNEBRUN","libell_d_acheminement":"CHENNEBRUN","code_postal":"27820","coordonnees_gps":[48.6841164258,0.774515882818],"code_commune_insee":"27155"},"geometry":{"type":"Point","coordinates":[0.774515882818,48.6841164258]},"record_timestamp":"2016-05-09T15:17:00+02:00"},{"datasetid":"laposte_hexasmal","recordid":"cf644c658587dcb557b9c7b57d67344623c9842f","fields":{"nom_de_la_commune":"CONCHES EN OUCHE","libell_d_acheminement":"CONCHES EN OUCHE","code_postal":"27190","coordonnees_gps":[48.9547259686,0.93199579313],"code_commune_insee":"27165"},"geometry":{"type":"Point","coordinates":[0.93199579313,48.9547259686]},"record_timestamp":"2016-05-09T15:17:00+02:00"},{"datasetid":"laposte_hexasmal","recordid":"d9cb413857f578bed87bbb37229572171056e4da","fields":{"nom_de_la_commune":"COURCELLES SUR SEINE","libell_d_acheminement":"COURCELLES SUR SEINE","code_postal":"27940","coordonnees_gps":[49.1852202831,1.36612835383],"code_commune_insee":"27180"},"geometry":{"type":"Point","coordinates":[1.36612835383,49.1852202831]},"record_timestamp":"2016-05-09T15:17:00+02:00"},{"datasetid":"laposte_hexasmal","recordid":"150e35c088186acb0436b3f7adebf11d9eb16665","fields":{"nom_de_la_commune":"COURDEMANCHE","libell_d_acheminement":"COURDEMANCHE","code_postal":"27320","coordonnees_gps":[48.8022859071,1.27664231305],"code_commune_insee":"27181"},"geometry":{"type":"Point","coordinates":[1.27664231305,48.8022859071]},"record_timestamp":"2016-05-09T15:17:00+02:00"},{"datasetid":"laposte_hexasmal","recordid":"cf2275c04debf074b4c2485391344394f1aab3b3","fields":{"nom_de_la_commune":"LA COUTURE BOUSSEY","libell_d_acheminement":"LA COUTURE BOUSSEY","code_postal":"27750","coordonnees_gps":[48.9020135083,1.396314901],"code_commune_insee":"27183"},"geometry":{"type":"Point","coordinates":[1.396314901,48.9020135083]},"record_timestamp":"2016-05-09T15:17:00+02:00"},{"datasetid":"laposte_hexasmal","recordid":"ad0a3491547cde42e2f461ba05594a24b8858475","fields":{"nom_de_la_commune":"CRASVILLE","libell_d_acheminement":"CRASVILLE","code_postal":"27400","coordonnees_gps":[49.205196716,1.07197851563],"code_commune_insee":"27184"},"geometry":{"type":"Point","coordinates":[1.07197851563,49.205196716]},"record_timestamp":"2016-05-09T15:17:00+02:00"},{"datasetid":"laposte_hexasmal","recordid":"832513ba9c54d0bb1523da0b48580ff10b4c2be1","fields":{"code_postal":"27490","code_commune_insee":"27191","libell_d_acheminement":"CLEF VALLEE D EURE","ligne_5":"FONTAINE HEUDEBOURG","nom_de_la_commune":"CLEF VALLEE D EURE","coordonnees_gps":[49.1183025014,1.24841485646]},"geometry":{"type":"Point","coordinates":[1.24841485646,49.1183025014]},"record_timestamp":"2016-05-09T15:17:00+02:00"},{"datasetid":"laposte_hexasmal","recordid":"50161c3089b5cde322cb91994979a417b62d61d9","fields":{"nom_de_la_commune":"DOUDEAUVILLE EN VEXIN","libell_d_acheminement":"DOUDEAUVILLE EN VEXIN","code_postal":"27150","coordonnees_gps":[49.322695985,1.58935105876],"code_commune_insee":"27204"},"geometry":{"type":"Point","coordinates":[1.58935105876,49.322695985]},"record_timestamp":"2016-05-09T15:17:00+02:00"},{"datasetid":"laposte_hexasmal","recordid":"200cac48b6111d81015afaabc6e39200b7e63cd2","fields":{"nom_de_la_commune":"ECAUVILLE","libell_d_acheminement":"ECAUVILLE","code_postal":"27110","coordonnees_gps":[49.1260165853,0.991502116806],"code_commune_insee":"27212"},"geometry":{"type":"Point","coordinates":[0.991502116806,49.1260165853]},"record_timestamp":"2016-05-09T15:17:00+02:00"},{"datasetid":"laposte_hexasmal","recordid":"0afe4fdd8599c7e9faad6462d1d3e9029e8710cb","fields":{"code_postal":"27510","code_commune_insee":"27213","libell_d_acheminement":"VEXIN SUR EPTE","ligne_5":"FONTENAY EN VEXIN","nom_de_la_commune":"VEXIN SUR EPTE","coordonnees_gps":[49.1515466021,1.59773112902]},"geometry":{"type":"Point","coordinates":[1.59773112902,49.1515466021]},"record_timestamp":"2016-05-09T15:17:00+02:00"},{"datasetid":"laposte_hexasmal","recordid":"aa060cefd731be34ca7619a2daab22daf76c7dac","fields":{"code_postal":"27510","code_commune_insee":"27213","libell_d_acheminement":"VEXIN SUR EPTE","ligne_5":"TOURNY","nom_de_la_commune":"VEXIN SUR EPTE","coordonnees_gps":[49.1515466021,1.59773112902]},"geometry":{"type":"Point","coordinates":[1.59773112902,49.1515466021]},"record_timestamp":"2016-05-09T15:17:00+02:00"},{"datasetid":"laposte_hexasmal","recordid":"35b8f4176fa65ce37583ca1753d5ea005c09e47e","fields":{"nom_de_la_commune":"ECOUIS","libell_d_acheminement":"ECOUIS","code_postal":"27440","coordonnees_gps":[49.3066926655,1.42999721744],"code_commune_insee":"27214"},"geometry":{"type":"Point","coordinates":[1.42999721744,49.3066926655]},"record_timestamp":"2016-05-09T15:17:00+02:00"},{"datasetid":"laposte_hexasmal","recordid":"374474d547497cf6dba924c4a423cf19b3b17b49","fields":{"nom_de_la_commune":"EPEGARD","libell_d_acheminement":"EPEGARD","code_postal":"27110","coordonnees_gps":[49.1824523923,0.874988545882],"code_commune_insee":"27219"},"geometry":{"type":"Point","coordinates":[0.874988545882,49.1824523923]},"record_timestamp":"2016-05-09T15:17:00+02:00"},{"datasetid":"laposte_hexasmal","recordid":"e88fb33bbbc0899ade94fdcbe5fc32f830bb0c4e","fields":{"nom_de_la_commune":"EPREVILLE EN LIEUVIN","libell_d_acheminement":"EPREVILLE EN LIEUVIN","code_postal":"27560","coordonnees_gps":[49.2051733652,0.538408171627],"code_commune_insee":"27222"},"geometry":{"type":"Point","coordinates":[0.538408171627,49.2051733652]},"record_timestamp":"2016-05-09T15:17:00+02:00"},{"datasetid":"laposte_hexasmal","recordid":"4e111ec354d03784c53651028c38f462ee96d9b4","fields":{"nom_de_la_commune":"ETREVILLE","libell_d_acheminement":"ETREVILLE","code_postal":"27350","coordonnees_gps":[49.3795673555,0.65533275771],"code_commune_insee":"27227"},"geometry":{"type":"Point","coordinates":[0.65533275771,49.3795673555]},"record_timestamp":"2016-05-09T15:17:00+02:00"},{"datasetid":"laposte_hexasmal","recordid":"8772db4b1fa6b45d2b6714ee23cf6db6b6d2d1b3","fields":{"nom_de_la_commune":"FAUVILLE","libell_d_acheminement":"FAUVILLE","code_postal":"27930","coordonnees_gps":[49.0242697215,1.19907051079],"code_commune_insee":"27234"},"geometry":{"type":"Point","coordinates":[1.19907051079,49.0242697215]},"record_timestamp":"2016-05-09T15:17:00+02:00"},{"datasetid":"laposte_hexasmal","recordid":"57f57211194b28ab084a00ac4bfe6b25c7b844f7","fields":{"nom_de_la_commune":"LE FAVRIL","libell_d_acheminement":"LE FAVRIL","code_postal":"27230","coordonnees_gps":[49.1831075532,0.525458384869],"code_commune_insee":"27237"},"geometry":{"type":"Point","coordinates":[0.525458384869,49.1831075532]},"record_timestamp":"2016-05-09T15:17:00+02:00"},{"datasetid":"laposte_hexasmal","recordid":"7719a9c27388af8f72702340e2b0170c892a76ef","fields":{"nom_de_la_commune":"FLEURY SUR ANDELLE","libell_d_acheminement":"FLEURY SUR ANDELLE","code_postal":"27380","coordonnees_gps":[49.3635499787,1.35185720942],"code_commune_insee":"27246"},"geometry":{"type":"Point","coordinates":[1.35185720942,49.3635499787]},"record_timestamp":"2016-05-09T15:17:00+02:00"},{"datasetid":"laposte_hexasmal","recordid":"4aa40193e0aeeb1712bd6c7d5c63d60f898d01cd","fields":{"nom_de_la_commune":"FOLLEVILLE","libell_d_acheminement":"FOLLEVILLE","code_postal":"27230","coordonnees_gps":[49.1581049505,0.524835316917],"code_commune_insee":"27248"},"geometry":{"type":"Point","coordinates":[0.524835316917,49.1581049505]},"record_timestamp":"2016-05-09T15:17:00+02:00"},{"datasetid":"laposte_hexasmal","recordid":"67faf44f556317218815f202dfc55efb22ea9fed","fields":{"nom_de_la_commune":"FONTAINE LA LOUVET","libell_d_acheminement":"FONTAINE LA LOUVET","code_postal":"27230","coordonnees_gps":[49.1584396153,0.445984273017],"code_commune_insee":"27252"},"geometry":{"type":"Point","coordinates":[0.445984273017,49.1584396153]},"record_timestamp":"2016-05-09T15:17:00+02:00"},{"datasetid":"laposte_hexasmal","recordid":"496e9f457ae38942b8f3015845c0d391e1f57881","fields":{"nom_de_la_commune":"FRANCHEVILLE","libell_d_acheminement":"FRANCHEVILLE","code_postal":"27160","coordonnees_gps":[48.7942723344,0.838965152911],"code_commune_insee":"27265"},"geometry":{"type":"Point","coordinates":[0.838965152911,48.7942723344]},"record_timestamp":"2016-05-09T15:17:00+02:00"},{"datasetid":"laposte_hexasmal","recordid":"591517bdde03ebcffcdf808afe2b1d71a298a216","fields":{"nom_de_la_commune":"GAILLARDBOIS CRESSENVILLE","libell_d_acheminement":"GAILLARDBOIS CRESSENVILLE","code_postal":"27440","coordonnees_gps":[49.3391972504,1.39978566632],"code_commune_insee":"27274"},"geometry":{"type":"Point","coordinates":[1.39978566632,49.3391972504]},"record_timestamp":"2016-05-09T15:17:00+02:00"},{"datasetid":"laposte_hexasmal","recordid":"43f64cff630968b7b1ee32ebee45b55c54e22318","fields":{"nom_de_la_commune":"GAUVILLE LA CAMPAGNE","libell_d_acheminement":"GAUVILLE LA CAMPAGNE","code_postal":"27930","coordonnees_gps":[49.0492815413,1.08358712088],"code_commune_insee":"27282"},"geometry":{"type":"Point","coordinates":[1.08358712088,49.0492815413]},"record_timestamp":"2016-05-09T15:17:00+02:00"},{"datasetid":"laposte_hexasmal","recordid":"76e6d35174f7385e10b47107e40e5b8a6e3a7832","fields":{"nom_de_la_commune":"GISORS","libell_d_acheminement":"GISORS","code_postal":"27140","coordonnees_gps":[49.2786723691,1.76876649685],"code_commune_insee":"27284"},"geometry":{"type":"Point","coordinates":[1.76876649685,49.2786723691]},"record_timestamp":"2016-05-09T15:17:00+02:00"},{"datasetid":"laposte_hexasmal","recordid":"692a73bc21f7ac316393da664c27b43fafe3334e","fields":{"code_postal":"27240","code_commune_insee":"27297","libell_d_acheminement":"GRANDVILLIERS","ligne_5":"HELLENVILLIERS","nom_de_la_commune":"GRANDVILLIERS","coordonnees_gps":[48.8083735212,1.07572686226]},"geometry":{"type":"Point","coordinates":[1.07572686226,48.8083735212]},"record_timestamp":"2016-05-09T15:17:00+02:00"},{"datasetid":"laposte_hexasmal","recordid":"b84d53346d0d15da9eed2f187ae407eae9590ff9","fields":{"nom_de_la_commune":"GUERNY","libell_d_acheminement":"GUERNY","code_postal":"27720","coordonnees_gps":[49.2248519011,1.67988249527],"code_commune_insee":"27304"},"geometry":{"type":"Point","coordinates":[1.67988249527,49.2248519011]},"record_timestamp":"2016-05-09T15:17:00+02:00"},{"datasetid":"laposte_hexasmal","recordid":"0d126c3e982f1d32d941d05654ffe1fdcaf6d089","fields":{"nom_de_la_commune":"HAUVILLE","libell_d_acheminement":"HAUVILLE","code_postal":"27350","coordonnees_gps":[49.3970508691,0.766578744404],"code_commune_insee":"27316"},"geometry":{"type":"Point","coordinates":[0.766578744404,49.3970508691]},"record_timestamp":"2016-05-09T15:17:00+02:00"},{"datasetid":"laposte_hexasmal","recordid":"e85d5c26a7518053b47ffb46aa3da718a5584f84","fields":{"nom_de_la_commune":"LA HAYE DE ROUTOT","libell_d_acheminement":"LA HAYE DE ROUTOT","code_postal":"27350","coordonnees_gps":[49.4030066708,0.728082467511],"code_commune_insee":"27319"},"geometry":{"type":"Point","coordinates":[0.728082467511,49.4030066708]},"record_timestamp":"2016-05-09T15:17:00+02:00"},{"datasetid":"laposte_hexasmal","recordid":"fc4a19ce588cd453ad6c7b803638f31b3d1c7638","fields":{"nom_de_la_commune":"LA HAYE DU THEIL","libell_d_acheminement":"LA HAYE DU THEIL","code_postal":"27370","coordonnees_gps":[49.2376362253,0.875327964748],"code_commune_insee":"27320"},"geometry":{"type":"Point","coordinates":[0.875327964748,49.2376362253]},"record_timestamp":"2016-05-09T15:17:00+02:00"},{"datasetid":"laposte_hexasmal","recordid":"a07c4133bdd16fc621f26f8939393c74cba1b4fb","fields":{"nom_de_la_commune":"HECMANVILLE","libell_d_acheminement":"HECMANVILLE","code_postal":"27800","coordonnees_gps":[49.1726011508,0.66363488889],"code_commune_insee":"27325"},"geometry":{"type":"Point","coordinates":[0.66363488889,49.1726011508]},"record_timestamp":"2016-05-09T15:17:00+02:00"},{"datasetid":"laposte_hexasmal","recordid":"022c4d348516a637ee65ec744c24ff2de4499828","fields":{"nom_de_la_commune":"HEUDICOURT","libell_d_acheminement":"HEUDICOURT","code_postal":"27860","coordonnees_gps":[49.3343880911,1.66267351729],"code_commune_insee":"27333"},"geometry":{"type":"Point","coordinates":[1.66267351729,49.3343880911]},"record_timestamp":"2016-05-09T15:17:00+02:00"},{"datasetid":"laposte_hexasmal","recordid":"279163c2548a3cf338b55f66e689f8b68b1f31d4","fields":{"nom_de_la_commune":"HEUQUEVILLE","libell_d_acheminement":"HEUQUEVILLE","code_postal":"27700","coordonnees_gps":[49.2872109169,1.32070670028],"code_commune_insee":"27337"},"geometry":{"type":"Point","coordinates":[1.32070670028,49.2872109169]},"record_timestamp":"2016-05-09T15:17:00+02:00"},{"datasetid":"laposte_hexasmal","recordid":"84b22860a8db22ab34601487735a0ed082cb51ed","fields":{"nom_de_la_commune":"HUEST","libell_d_acheminement":"HUEST","code_postal":"27930","coordonnees_gps":[49.0369994127,1.20781487064],"code_commune_insee":"27347"},"geometry":{"type":"Point","coordinates":[1.20781487064,49.0369994127]},"record_timestamp":"2016-05-09T15:17:00+02:00"},{"datasetid":"laposte_hexasmal","recordid":"8300d88c8adaae52078a648a08d59c28b18ce0cd","fields":{"nom_de_la_commune":"INCARVILLE","libell_d_acheminement":"INCARVILLE","code_postal":"27400","coordonnees_gps":[49.2521511771,1.15231947532],"code_commune_insee":"27351"},"geometry":{"type":"Point","coordinates":[1.15231947532,49.2521511771]},"record_timestamp":"2016-05-09T15:17:00+02:00"},{"datasetid":"laposte_hexasmal","recordid":"205b05b111bbbd0277be46c851550ec82d284655","fields":{"nom_de_la_commune":"MALOUY","libell_d_acheminement":"MALOUY","code_postal":"27300","coordonnees_gps":[49.1279630257,0.528705330405],"code_commune_insee":"27381"},"geometry":{"type":"Point","coordinates":[0.528705330405,49.1279630257]},"record_timestamp":"2016-05-09T15:17:00+02:00"},{"datasetid":"laposte_hexasmal","recordid":"79b030a29b932e932527648d40afbdd2e0541c8c","fields":{"nom_de_la_commune":"MANDEVILLE","libell_d_acheminement":"MANDEVILLE","code_postal":"27370","coordonnees_gps":[49.2154721135,1.01292163537],"code_commune_insee":"27382"},"geometry":{"type":"Point","coordinates":[1.01292163537,49.2154721135]},"record_timestamp":"2016-05-09T15:17:00+02:00"},{"datasetid":"laposte_hexasmal","recordid":"9ae6580786a2d83edd69b3b722abe96894b7675c","fields":{"nom_de_la_commune":"MANDRES","libell_d_acheminement":"MANDRES","code_postal":"27130","coordonnees_gps":[48.752840487,0.85124788629],"code_commune_insee":"27383"},"geometry":{"type":"Point","coordinates":[0.85124788629,48.752840487]},"record_timestamp":"2016-05-09T15:17:00+02:00"},{"datasetid":"laposte_hexasmal","recordid":"35d0e16f082f0f6957ff4b0c8ca2d84b8a2b05ad","fields":{"nom_de_la_commune":"MARCILLY SUR EURE","libell_d_acheminement":"MARCILLY SUR EURE","code_postal":"27810","coordonnees_gps":[48.8213584613,1.33287296161],"code_commune_insee":"27391"},"geometry":{"type":"Point","coordinates":[1.33287296161,48.8213584613]},"record_timestamp":"2016-05-09T15:17:00+02:00"},{"datasetid":"laposte_hexasmal","recordid":"ba6d709510173b1d4e44b9ed720210eeaa7c25f4","fields":{"nom_de_la_commune":"MELICOURT","libell_d_acheminement":"MELICOURT","code_postal":"27390","coordonnees_gps":[48.912160796,0.502460109315],"code_commune_insee":"27395"},"geometry":{"type":"Point","coordinates":[0.502460109315,48.912160796]},"record_timestamp":"2016-05-09T15:17:00+02:00"},{"datasetid":"laposte_hexasmal","recordid":"fcc61ec0a583253b5ee07e06f98890f7f3a2d1f9","fields":{"nom_de_la_commune":"MEREY","libell_d_acheminement":"MEREY","code_postal":"27640","coordonnees_gps":[48.9586730122,1.39284165552],"code_commune_insee":"27400"},"geometry":{"type":"Point","coordinates":[1.39284165552,48.9586730122]},"record_timestamp":"2016-05-09T15:17:00+02:00"},{"datasetid":"laposte_hexasmal","recordid":"774d51b112f3c0795001416c70bcd44d9c1e8597","fields":{"nom_de_la_commune":"LE MESNIL HARDRAY","libell_d_acheminement":"LE MESNIL HARDRAY","code_postal":"27190","coordonnees_gps":[48.9344270816,0.987060764745],"code_commune_insee":"27402"},"geometry":{"type":"Point","coordinates":[0.987060764745,48.9344270816]},"record_timestamp":"2016-05-09T15:17:00+02:00"},{"datasetid":"laposte_hexasmal","recordid":"c158c7fb30cefe71fb4ee18e9b0618feed996c24","fields":{"nom_de_la_commune":"MESNIL VERCLIVES","libell_d_acheminement":"MESNIL VERCLIVES","code_postal":"27440","coordonnees_gps":[49.3227519896,1.46543126827],"code_commune_insee":"27407"},"geometry":{"type":"Point","coordinates":[1.46543126827,49.3227519896]},"record_timestamp":"2016-05-09T15:17:00+02:00"},{"datasetid":"laposte_hexasmal","recordid":"27b48f0b36fa401fc25b5f9b106fc153ba2893e5","fields":{"nom_de_la_commune":"MISEREY","libell_d_acheminement":"MISEREY","code_postal":"27930","coordonnees_gps":[49.0197062779,1.26108481938],"code_commune_insee":"27410"},"geometry":{"type":"Point","coordinates":[1.26108481938,49.0197062779]},"record_timestamp":"2016-05-09T15:17:00+02:00"},{"datasetid":"laposte_hexasmal","recordid":"b8602ba28e173a8cb731566b459939824b4e06e7","fields":{"nom_de_la_commune":"MONTFORT SUR RISLE","libell_d_acheminement":"MONTFORT SUR RISLE","code_postal":"27290","coordonnees_gps":[49.2945278867,0.670560456278],"code_commune_insee":"27413"},"geometry":{"type":"Point","coordinates":[0.670560456278,49.2945278867]},"record_timestamp":"2016-05-09T15:17:00+02:00"},{"datasetid":"laposte_hexasmal","recordid":"77b033eaf5a8ac0cf646bc19f3f2f3af06c9014f","fields":{"nom_de_la_commune":"MOUSSEAUX NEUVILLE","libell_d_acheminement":"MOUSSEAUX NEUVILLE","code_postal":"27220","coordonnees_gps":[48.90687343,1.33849084974],"code_commune_insee":"27421"},"geometry":{"type":"Point","coordinates":[1.33849084974,48.90687343]},"record_timestamp":"2016-05-09T15:17:00+02:00"},{"datasetid":"laposte_hexasmal","recordid":"217192a1599e859df0be1003f8e6a3c5c7c3a20a","fields":{"nom_de_la_commune":"MUIDS","libell_d_acheminement":"MUIDS","code_postal":"27430","coordonnees_gps":[49.2265789248,1.28569054904],"code_commune_insee":"27422"},"geometry":{"type":"Point","coordinates":[1.28569054904,49.2265789248]},"record_timestamp":"2016-05-09T15:17:00+02:00"},{"datasetid":"laposte_hexasmal","recordid":"5e7cc3545ffdd98aac252169576cba6be228f1f1","fields":{"nom_de_la_commune":"NEAUFLES AUVERGNY","libell_d_acheminement":"NEAUFLES AUVERGNY","code_postal":"27250","coordonnees_gps":[48.8743528336,0.74447514343],"code_commune_insee":"27427"},"geometry":{"type":"Point","coordinates":[0.74447514343,48.8743528336]},"record_timestamp":"2016-05-09T15:17:00+02:00"},{"datasetid":"laposte_hexasmal","recordid":"40d76f676605a5275932049254e4d806eeec42fc","fields":{"code_postal":"27250","code_commune_insee":"27427","libell_d_acheminement":"NEAUFLES AUVERGNY","ligne_5":"NEAUFLES SUR RISLE","nom_de_la_commune":"NEAUFLES AUVERGNY","coordonnees_gps":[48.8743528336,0.74447514343]},"geometry":{"type":"Point","coordinates":[0.74447514343,48.8743528336]},"record_timestamp":"2016-05-09T15:17:00+02:00"},{"datasetid":"laposte_hexasmal","recordid":"43e29351cb3eea76668404cf5d29584f10f252d5","fields":{"nom_de_la_commune":"LA NEUVE GRANGE","libell_d_acheminement":"LA NEUVE GRANGE","code_postal":"27150","coordonnees_gps":[49.3599472523,1.5584583469],"code_commune_insee":"27430"},"geometry":{"type":"Point","coordinates":[1.5584583469,49.3599472523]},"record_timestamp":"2016-05-09T15:17:00+02:00"},{"datasetid":"laposte_hexasmal","recordid":"a37fd44e52d12398b5783aa110ca4d2e9403a496","fields":{"nom_de_la_commune":"NOARDS","libell_d_acheminement":"NOARDS","code_postal":"27560","coordonnees_gps":[49.2105065692,0.509712795627],"code_commune_insee":"27434"},"geometry":{"type":"Point","coordinates":[0.509712795627,49.2105065692]},"record_timestamp":"2016-05-09T15:17:00+02:00"},{"datasetid":"laposte_hexasmal","recordid":"0d3967de6a9ae0e2be8fa2acf1c8427c3a0499ef","fields":{"nom_de_la_commune":"AIZIER","libell_d_acheminement":"AIZIER","code_postal":"27500","coordonnees_gps":[49.4307181998,0.626081675933],"code_commune_insee":"27006"},"geometry":{"type":"Point","coordinates":[0.626081675933,49.4307181998]},"record_timestamp":"2016-05-09T15:17:00+02:00"},{"datasetid":"laposte_hexasmal","recordid":"e891816935d6f9860694908269a886c075e83dad","fields":{"nom_de_la_commune":"ALIZAY","libell_d_acheminement":"ALIZAY","code_postal":"27460","coordonnees_gps":[49.3219074958,1.17828361031],"code_commune_insee":"27008"},"geometry":{"type":"Point","coordinates":[1.17828361031,49.3219074958]},"record_timestamp":"2016-05-09T15:17:00+02:00"},{"datasetid":"laposte_hexasmal","recordid":"6588e010d48218a9726ff4bd8617c03c760dd3d2","fields":{"nom_de_la_commune":"AMFREVILLE ST AMAND","libell_d_acheminement":"AMFREVILLE ST AMAND","code_postal":"27370","coordonnees_gps":[49.2130667488,0.925129802159],"code_commune_insee":"27011"},"geometry":{"type":"Point","coordinates":[0.925129802159,49.2130667488]},"record_timestamp":"2016-05-09T15:17:00+02:00"},{"datasetid":"laposte_hexasmal","recordid":"4adcde1d0afc1c0c7ebb85a89df7b2da8a7300b5","fields":{"code_postal":"27370","code_commune_insee":"27011","libell_d_acheminement":"AMFREVILLE ST AMAND","ligne_5":"ST AMAND DES HAUTES TERRES","nom_de_la_commune":"AMFREVILLE ST AMAND","coordonnees_gps":[49.2130667488,0.925129802159]},"geometry":{"type":"Point","coordinates":[0.925129802159,49.2130667488]},"record_timestamp":"2016-05-09T15:17:00+02:00"},{"datasetid":"laposte_hexasmal","recordid":"ae2c04562837c3ff23af2d167020e7e09c5d60aa","fields":{"nom_de_la_commune":"AMFREVILLE SUR ITON","libell_d_acheminement":"AMFREVILLE SUR ITON","code_postal":"27400","coordonnees_gps":[49.1567317794,1.14647315258],"code_commune_insee":"27014"},"geometry":{"type":"Point","coordinates":[1.14647315258,49.1567317794]},"record_timestamp":"2016-05-09T15:17:00+02:00"},{"datasetid":"laposte_hexasmal","recordid":"4e1c8cec47957c396e46743fb720a6c78d83a967","fields":{"nom_de_la_commune":"APPEVILLE ANNEBAULT","libell_d_acheminement":"APPEVILLE ANNEBAULT","code_postal":"27290","coordonnees_gps":[49.322265478,0.651047926386],"code_commune_insee":"27018"},"geometry":{"type":"Point","coordinates":[0.651047926386,49.322265478]},"record_timestamp":"2016-05-09T15:17:00+02:00"},{"datasetid":"laposte_hexasmal","recordid":"7a1086f4b05e4a912a73c299fc0c036d5c08519d","fields":{"nom_de_la_commune":"AULNAY SUR ITON","libell_d_acheminement":"AULNAY SUR ITON","code_postal":"27180","coordonnees_gps":[48.9939471399,1.05509802791],"code_commune_insee":"27023"},"geometry":{"type":"Point","coordinates":[1.05509802791,48.9939471399]},"record_timestamp":"2016-05-09T15:17:00+02:00"},{"datasetid":"laposte_hexasmal","recordid":"a0019ed2e8401ca898e003c56ef25d83e56af5bb","fields":{"nom_de_la_commune":"LES AUTHIEUX","libell_d_acheminement":"LES AUTHIEUX","code_postal":"27220","coordonnees_gps":[48.898268785,1.23438595727],"code_commune_insee":"27027"},"geometry":{"type":"Point","coordinates":[1.23438595727,48.898268785]},"record_timestamp":"2016-05-09T15:17:00+02:00"},{"datasetid":"laposte_hexasmal","recordid":"b8048ece91f02eb776c0bed43f14a5fc5989b0f5","fields":{"nom_de_la_commune":"AUTHOU","libell_d_acheminement":"AUTHOU","code_postal":"27290","coordonnees_gps":[49.2260820687,0.696761680662],"code_commune_insee":"27028"},"geometry":{"type":"Point","coordinates":[0.696761680662,49.2260820687]},"record_timestamp":"2016-05-09T15:17:00+02:00"},{"datasetid":"laposte_hexasmal","recordid":"ef14e50f952458953f4818cd6286c5435867fbfb","fields":{"code_postal":"27240","code_commune_insee":"27032","libell_d_acheminement":"CHAMBOIS","ligne_5":"CORNEUIL","nom_de_la_commune":"CHAMBOIS","coordonnees_gps":[48.9282451292,1.14607632884]},"geometry":{"type":"Point","coordinates":[1.14607632884,48.9282451292]},"record_timestamp":"2016-05-09T15:17:00+02:00"},{"datasetid":"laposte_hexasmal","recordid":"800731aa5d34ffdaa32cf15441b70e2135f7b943","fields":{"nom_de_la_commune":"LES BAUX DE BRETEUIL","libell_d_acheminement":"LES BAUX DE BRETEUIL","code_postal":"27160","coordonnees_gps":[48.8665244592,0.801607378601],"code_commune_insee":"27043"},"geometry":{"type":"Point","coordinates":[0.801607378601,48.8665244592]},"record_timestamp":"2016-05-09T15:17:00+02:00"},{"datasetid":"laposte_hexasmal","recordid":"0a80fd08d00b30ef42a329e5a2dfdbb44508be3e","fields":{"code_postal":"27410","code_commune_insee":"27049","libell_d_acheminement":"MESNIL EN OUCHE","ligne_5":"JONQUERETS DE LIVET","nom_de_la_commune":"MESNIL EN OUCHE","coordonnees_gps":[49.0090520551,0.696415474297]},"geometry":{"type":"Point","coordinates":[0.696415474297,49.0090520551]},"record_timestamp":"2016-05-09T15:17:00+02:00"},{"datasetid":"laposte_hexasmal","recordid":"b0e70ff8dd0dfc0b83e47587e7fa064d745f04b2","fields":{"code_postal":"27410","code_commune_insee":"27049","libell_d_acheminement":"MESNIL EN OUCHE","ligne_5":"STE MARGUERITE EN OUCHE","nom_de_la_commune":"MESNIL EN OUCHE","coordonnees_gps":[49.0090520551,0.696415474297]},"geometry":{"type":"Point","coordinates":[0.696415474297,49.0090520551]},"record_timestamp":"2016-05-09T15:17:00+02:00"},{"datasetid":"laposte_hexasmal","recordid":"835973d63a77e03df94078f69db0fb2fc589890a","fields":{"nom_de_la_commune":"BEAUMONT LE ROGER","libell_d_acheminement":"BEAUMONT LE ROGER","code_postal":"27170","coordonnees_gps":[49.0592104532,0.754833574426],"code_commune_insee":"27051"},"geometry":{"type":"Point","coordinates":[0.754833574426,49.0592104532]},"record_timestamp":"2016-05-09T15:17:00+02:00"},{"datasetid":"laposte_hexasmal","recordid":"457c6538ec0704481a15d85f359af85b143dbcd3","fields":{"nom_de_la_commune":"BERNIENVILLE","libell_d_acheminement":"BERNIENVILLE","code_postal":"27180","coordonnees_gps":[49.0744161962,1.02876644978],"code_commune_insee":"27057"},"geometry":{"type":"Point","coordinates":[1.02876644978,49.0744161962]},"record_timestamp":"2016-05-09T15:17:00+02:00"},{"datasetid":"laposte_hexasmal","recordid":"2a05ea48fb70aa00bd494322743da3efda0a771d","fields":{"nom_de_la_commune":"BERVILLE LA CAMPAGNE","libell_d_acheminement":"BERVILLE LA CAMPAGNE","code_postal":"27170","coordonnees_gps":[49.0261594843,0.89327089992],"code_commune_insee":"27063"},"geometry":{"type":"Point","coordinates":[0.89327089992,49.0261594843]},"record_timestamp":"2016-05-09T15:17:00+02:00"},{"datasetid":"laposte_hexasmal","recordid":"c5c82d729865d18ab5613e8f9f80bb26ab19611b","fields":{"nom_de_la_commune":"BOISNEY","libell_d_acheminement":"BOISNEY","code_postal":"27800","coordonnees_gps":[49.1561456712,0.649696309423],"code_commune_insee":"27074"},"geometry":{"type":"Point","coordinates":[0.649696309423,49.1561456712]},"record_timestamp":"2016-05-09T15:17:00+02:00"},{"datasetid":"laposte_hexasmal","recordid":"402540d4cfbd770e18145b767f05c8048b602d69","fields":{"nom_de_la_commune":"LA BOISSIERE","libell_d_acheminement":"LA BOISSIERE","code_postal":"27220","coordonnees_gps":[48.9511536533,1.36900012303],"code_commune_insee":"27078"},"geometry":{"type":"Point","coordinates":[1.36900012303,48.9511536533]},"record_timestamp":"2016-05-09T15:17:00+02:00"},{"datasetid":"laposte_hexasmal","recordid":"066633b7d37a4bb1625cad9e4d6004bba4eccd0f","fields":{"nom_de_la_commune":"LA BONNEVILLE SUR ITON","libell_d_acheminement":"LA BONNEVILLE SUR ITON","code_postal":"27190","coordonnees_gps":[48.997516605,1.03540164833],"code_commune_insee":"27082"},"geometry":{"type":"Point","coordinates":[1.03540164833,48.997516605]},"record_timestamp":"2016-05-09T15:17:00+02:00"},{"datasetid":"laposte_hexasmal","recordid":"caa472de17a28f0aff7cd653d4d7fbcf5e2cd090","fields":{"code_postal":"27310","code_commune_insee":"27085","libell_d_acheminement":"FLANCOURT CRESCY EN ROUMOIS","ligne_5":"FLANCOURT CATELON","nom_de_la_commune":"FLANCOURT CRESCY EN ROUMOIS","coordonnees_gps":[49.3166032869,0.807172708005]},"geometry":{"type":"Point","coordinates":[0.807172708005,49.3166032869]},"record_timestamp":"2016-05-09T15:17:00+02:00"},{"datasetid":"laposte_hexasmal","recordid":"660863031df32496ab2fd0fdd53251d167f8f4fd","fields":{"nom_de_la_commune":"BOSGUERARD DE MARCOUVILLE","libell_d_acheminement":"BOSGUERARD DE MARCOUVILLE","code_postal":"27520","coordonnees_gps":[49.2675107989,0.844017203432],"code_commune_insee":"27092"},"geometry":{"type":"Point","coordinates":[0.844017203432,49.2675107989]},"record_timestamp":"2016-05-09T15:17:00+02:00"},{"datasetid":"laposte_hexasmal","recordid":"976a30febac713ac245591df0f89d922ea29c651","fields":{"nom_de_la_commune":"BOUAFLES","libell_d_acheminement":"BOUAFLES","code_postal":"27700","coordonnees_gps":[49.2013162618,1.38671055772],"code_commune_insee":"27097"},"geometry":{"type":"Point","coordinates":[1.38671055772,49.2013162618]},"record_timestamp":"2016-05-09T15:17:00+02:00"},{"datasetid":"laposte_hexasmal","recordid":"01f68ee7b72078692fd4d69c172981d9c9c28c8a","fields":{"nom_de_la_commune":"BOUCHEVILLIERS","libell_d_acheminement":"BOUCHEVILLIERS","code_postal":"27150","coordonnees_gps":[49.3984802284,1.71160727896],"code_commune_insee":"27098"},"geometry":{"type":"Point","coordinates":[1.71160727896,49.3984802284]},"record_timestamp":"2016-05-09T15:17:00+02:00"},{"datasetid":"laposte_hexasmal","recordid":"b9ffce046bdd2447a9cf3be8b9d1bcd891b5a4a3","fields":{"code_postal":"27520","code_commune_insee":"27105","libell_d_acheminement":"GRAND BOURGTHEROULDE","ligne_5":"THUIT HEBERT","nom_de_la_commune":"GRAND BOURGTHEROULDE","coordonnees_gps":[49.2995530921,0.876522751918]},"geometry":{"type":"Point","coordinates":[0.876522751918,49.2995530921]},"record_timestamp":"2016-05-09T15:17:00+02:00"},{"datasetid":"laposte_hexasmal","recordid":"126ba8a5551358c59264b80fa51d5aeec2b08a41","fields":{"nom_de_la_commune":"BOURNAINVILLE FAVEROLLES","libell_d_acheminement":"BOURNAINVILLE FAVEROLLES","code_postal":"27230","coordonnees_gps":[49.122899642,0.50099426931],"code_commune_insee":"27106"},"geometry":{"type":"Point","coordinates":[0.50099426931,49.122899642]},"record_timestamp":"2016-05-09T15:17:00+02:00"},{"datasetid":"laposte_hexasmal","recordid":"ea5952c8a51a7861caac235576f6ffae9da3a8c1","fields":{"code_postal":"27230","code_commune_insee":"27106","libell_d_acheminement":"BOURNAINVILLE FAVEROLLES","ligne_5":"BOURNAINVILLE","nom_de_la_commune":"BOURNAINVILLE FAVEROLLES","coordonnees_gps":[49.122899642,0.50099426931]},"geometry":{"type":"Point","coordinates":[0.50099426931,49.122899642]},"record_timestamp":"2016-05-09T15:17:00+02:00"},{"datasetid":"laposte_hexasmal","recordid":"a7cf1042904b8a1b7d56e91912b6a656151b8bea","fields":{"nom_de_la_commune":"BRESTOT","libell_d_acheminement":"BRESTOT","code_postal":"27350","coordonnees_gps":[49.3428492268,0.68056972384],"code_commune_insee":"27110"},"geometry":{"type":"Point","coordinates":[0.68056972384,49.3428492268]},"record_timestamp":"2016-05-09T15:17:00+02:00"},{"datasetid":"laposte_hexasmal","recordid":"00b80e4de802980e46a71bdddad2b52b5bc7891e","fields":{"nom_de_la_commune":"BRETEUIL","libell_d_acheminement":"BRETEUIL","code_postal":"27160","coordonnees_gps":[48.8525387012,0.899890466074],"code_commune_insee":"27112"},"geometry":{"type":"Point","coordinates":[0.899890466074,48.8525387012]},"record_timestamp":"2016-05-09T15:17:00+02:00"},{"datasetid":"laposte_hexasmal","recordid":"36b6b270fdaee0659c1b387d9110454643a2a2a7","fields":{"nom_de_la_commune":"CAPELLE LES GRANDS","libell_d_acheminement":"CAPELLE LES GRANDS","code_postal":"27270","coordonnees_gps":[49.0486679011,0.472112443094],"code_commune_insee":"27130"},"geometry":{"type":"Point","coordinates":[0.472112443094,49.0486679011]},"record_timestamp":"2016-05-09T15:17:00+02:00"},{"datasetid":"laposte_hexasmal","recordid":"1522dd7c3429cc64dc0ffcf34febdf0e3f69209b","fields":{"nom_de_la_commune":"CAUGE","libell_d_acheminement":"CAUGE","code_postal":"27180","coordonnees_gps":[49.0249871767,1.04289589513],"code_commune_insee":"27132"},"geometry":{"type":"Point","coordinates":[1.04289589513,49.0249871767]},"record_timestamp":"2016-05-09T15:17:00+02:00"},{"datasetid":"laposte_hexasmal","recordid":"bd0ba60ef0d9bc04fb572f536b5333edf21d112e","fields":{"nom_de_la_commune":"LA CHAPELLE BAYVEL","libell_d_acheminement":"LA CHAPELLE BAYVEL","code_postal":"27260","coordonnees_gps":[49.2808661732,0.406356152617],"code_commune_insee":"27146"},"geometry":{"type":"Point","coordinates":[0.406356152617,49.2808661732]},"record_timestamp":"2016-05-09T15:17:00+02:00"},{"datasetid":"laposte_hexasmal","recordid":"6ce1a796ce1e12e24110a8d443bce3dec8bcc087","fields":{"nom_de_la_commune":"LA CHAPELLE GAUTHIER","libell_d_acheminement":"LA CHAPELLE GAUTHIER","code_postal":"27270","coordonnees_gps":[48.9851351393,0.463962400697],"code_commune_insee":"27148"},"geometry":{"type":"Point","coordinates":[0.463962400697,48.9851351393]},"record_timestamp":"2016-05-09T15:17:00+02:00"},{"datasetid":"laposte_hexasmal","recordid":"71f10a7d6d6471a639f5da53daa71b530df91413","fields":{"nom_de_la_commune":"LA CHAPELLE REANVILLE","libell_d_acheminement":"LA CHAPELLE REANVILLE","code_postal":"27950","coordonnees_gps":[49.0946165655,1.38085267285],"code_commune_insee":"27150"},"geometry":{"type":"Point","coordinates":[1.38085267285,49.0946165655]},"record_timestamp":"2016-05-09T15:17:00+02:00"},{"datasetid":"laposte_hexasmal","recordid":"97ac8a87f208f5da29bc15f759ad882f5bc996a7","fields":{"nom_de_la_commune":"CHARLEVAL","libell_d_acheminement":"CHARLEVAL","code_postal":"27380","coordonnees_gps":[49.3796508002,1.38961447522],"code_commune_insee":"27151"},"geometry":{"type":"Point","coordinates":[1.38961447522,49.3796508002]},"record_timestamp":"2016-05-09T15:17:00+02:00"},{"datasetid":"laposte_hexasmal","recordid":"3c1c4cb7f8f10bc6024ef9957b5564b0171ce390","fields":{"nom_de_la_commune":"CHERONVILLIERS","libell_d_acheminement":"CHERONVILLIERS","code_postal":"27250","coordonnees_gps":[48.7921490102,0.760679577502],"code_commune_insee":"27156"},"geometry":{"type":"Point","coordinates":[0.760679577502,48.7921490102]},"record_timestamp":"2016-05-09T15:17:00+02:00"},{"datasetid":"laposte_hexasmal","recordid":"a1b6e74535cb1a8b948b6bd8294d69effb98e821","fields":{"code_postal":"27160","code_commune_insee":"27157","libell_d_acheminement":"MARBOIS","ligne_5":"LE CHESNE","nom_de_la_commune":"MARBOIS","coordonnees_gps":[48.8910449707,0.93590219795]},"geometry":{"type":"Point","coordinates":[0.93590219795,48.8910449707]},"record_timestamp":"2016-05-09T15:17:00+02:00"},{"datasetid":"laposte_hexasmal","recordid":"909d6b1ff518e1fe7efe918481642ea5c9760bdd","fields":{"code_postal":"27160","code_commune_insee":"27157","libell_d_acheminement":"MARBOIS","ligne_5":"ST DENIS DU BEHELAN","nom_de_la_commune":"MARBOIS","coordonnees_gps":[48.8910449707,0.93590219795]},"geometry":{"type":"Point","coordinates":[0.93590219795,48.8910449707]},"record_timestamp":"2016-05-09T15:17:00+02:00"},{"datasetid":"laposte_hexasmal","recordid":"cf808d3297217058e30bc2c50b9a00ba7ac88bb2","fields":{"nom_de_la_commune":"CONTEVILLE","libell_d_acheminement":"CONTEVILLE","code_postal":"27210","coordonnees_gps":[49.4174960871,0.391276015721],"code_commune_insee":"27169"},"geometry":{"type":"Point","coordinates":[0.391276015721,49.4174960871]},"record_timestamp":"2016-05-09T15:17:00+02:00"},{"datasetid":"laposte_hexasmal","recordid":"427efe8ea85c5b48eac89bc8d5455ed04db3071a","fields":{"nom_de_la_commune":"CORNY","libell_d_acheminement":"CORNY","code_postal":"27700","coordonnees_gps":[49.2829378657,1.45742747921],"code_commune_insee":"27175"},"geometry":{"type":"Point","coordinates":[1.45742747921,49.2829378657]},"record_timestamp":"2016-05-09T15:17:00+02:00"},{"datasetid":"laposte_hexasmal","recordid":"309a8a9528bb20357b87904d9de5e72bb74c92a2","fields":{"nom_de_la_commune":"COUDRES","libell_d_acheminement":"COUDRES","code_postal":"27220","coordonnees_gps":[48.8631247309,1.23599075462],"code_commune_insee":"27177"},"geometry":{"type":"Point","coordinates":[1.23599075462,48.8631247309]},"record_timestamp":"2016-05-09T15:17:00+02:00"},{"datasetid":"laposte_hexasmal","recordid":"27ffc61b6f1043dc3bff4ab6a9618e4e51dae7db","fields":{"nom_de_la_commune":"CRESTOT","libell_d_acheminement":"CRESTOT","code_postal":"27110","coordonnees_gps":[49.2039621822,0.969531161079],"code_commune_insee":"27185"},"geometry":{"type":"Point","coordinates":[0.969531161079,49.2039621822]},"record_timestamp":"2016-05-09T15:17:00+02:00"},{"datasetid":"laposte_hexasmal","recordid":"cb9fd4fe3c03a6c44af07f67ed8fc4388bc4c942","fields":{"nom_de_la_commune":"LA CROISILLE","libell_d_acheminement":"LA CROISILLE","code_postal":"27190","coordonnees_gps":[48.9904943471,0.97564552342],"code_commune_insee":"27189"},"geometry":{"type":"Point","coordinates":[0.97564552342,48.9904943471]},"record_timestamp":"2016-05-09T15:17:00+02:00"},{"datasetid":"laposte_hexasmal","recordid":"261506b1fdcf98bc7516da1ffe2e80483a2c668a","fields":{"nom_de_la_commune":"CROISY SUR EURE","libell_d_acheminement":"CROISY SUR EURE","code_postal":"27120","coordonnees_gps":[49.0260942354,1.34202925312],"code_commune_insee":"27190"},"geometry":{"type":"Point","coordinates":[1.34202925312,49.0260942354]},"record_timestamp":"2016-05-09T15:17:00+02:00"},{"datasetid":"laposte_hexasmal","recordid":"87f972ca058a2289fbdc7921a38de95dbb26b4c0","fields":{"code_postal":"27490","code_commune_insee":"27191","libell_d_acheminement":"CLEF VALLEE D EURE","ligne_5":"LA CROIX ST LEUFROY","nom_de_la_commune":"CLEF VALLEE D EURE","coordonnees_gps":[49.1183025014,1.24841485646]},"geometry":{"type":"Point","coordinates":[1.24841485646,49.1183025014]},"record_timestamp":"2016-05-09T15:17:00+02:00"},{"datasetid":"laposte_hexasmal","recordid":"bf0d3834bc7f19a014e3eb461eb2162331b368fc","fields":{"code_postal":"27240","code_commune_insee":"27198","libell_d_acheminement":"MESNILS SUR ITON","ligne_5":"GOUVILLE","nom_de_la_commune":"MESNILS SUR ITON","coordonnees_gps":[48.8643668138,1.08042048322]},"geometry":{"type":"Point","coordinates":[1.08042048322,48.8643668138]},"record_timestamp":"2016-05-09T15:17:00+02:00"},{"datasetid":"laposte_hexasmal","recordid":"710e473d8fb5b6085f47191c653571edd212813e","fields":{"code_postal":"27240","code_commune_insee":"27198","libell_d_acheminement":"MESNILS SUR ITON","ligne_5":"LE RONCENAY AUTHENAY","nom_de_la_commune":"MESNILS SUR ITON","coordonnees_gps":[48.8643668138,1.08042048322]},"geometry":{"type":"Point","coordinates":[1.08042048322,48.8643668138]},"record_timestamp":"2016-05-09T15:17:00+02:00"},{"datasetid":"laposte_hexasmal","recordid":"d546456e3f1bce2d7c0ff3885c7efeb42871eab1","fields":{"code_postal":"27240","code_commune_insee":"27198","libell_d_acheminement":"MESNILS SUR ITON","ligne_5":"LES MINIERES","nom_de_la_commune":"MESNILS SUR ITON","coordonnees_gps":[48.8643668138,1.08042048322]},"geometry":{"type":"Point","coordinates":[1.08042048322,48.8643668138]},"record_timestamp":"2016-05-09T15:17:00+02:00"},{"datasetid":"laposte_hexasmal","recordid":"d951af7946c938bf8d4f3c061a868494c37a025c","fields":{"nom_de_la_commune":"DOUVILLE SUR ANDELLE","libell_d_acheminement":"DOUVILLE SUR ANDELLE","code_postal":"27380","coordonnees_gps":[49.3329198858,1.30756774405],"code_commune_insee":"27205"},"geometry":{"type":"Point","coordinates":[1.30756774405,49.3329198858]},"record_timestamp":"2016-05-09T15:17:00+02:00"},{"datasetid":"laposte_hexasmal","recordid":"6cc39c577b1e528f32986e5ec15b48c8c43ba9ff","fields":{"nom_de_la_commune":"DURANVILLE","libell_d_acheminement":"DURANVILLE","code_postal":"27230","coordonnees_gps":[49.1429973941,0.499704273238],"code_commune_insee":"27208"},"geometry":{"type":"Point","coordinates":[0.499704273238,49.1429973941]},"record_timestamp":"2016-05-09T15:17:00+02:00"},{"datasetid":"laposte_hexasmal","recordid":"6e936231f678df702e2591e899ce927779548a53","fields":{"nom_de_la_commune":"ECAQUELON","libell_d_acheminement":"ECAQUELON","code_postal":"27290","coordonnees_gps":[49.2887544007,0.716950300267],"code_commune_insee":"27209"},"geometry":{"type":"Point","coordinates":[0.716950300267,49.2887544007]},"record_timestamp":"2016-05-09T15:17:00+02:00"},