[{"datasetid":"laposte_hexasmal","recordid":"fdf261dae684890ec2e16b57a9ca48cde7b9d946","fields":{"nom_de_la_commune":"ALBIAC","libell_d_acheminement":"ALBIAC","code_postal":"46500","coordonnees_gps":[44.7677846601,1.81316980755],"code_commune_insee":"46002"},"geometry":{"type":"Point","coordinates":[1.81316980755,44.7677846601]},"record_timestamp":"2016-05-09T15:17:00+02:00"},{"datasetid":"laposte_hexasmal","recordid":"cea2ee142a20de157a4e3e2138bf027acac84716","fields":{"nom_de_la_commune":"BANNES","libell_d_acheminement":"BANNES","code_postal":"46400","coordonnees_gps":[44.8140344075,1.91798481725],"code_commune_insee":"46017"},"geometry":{"type":"Point","coordinates":[1.91798481725,44.8140344075]},"record_timestamp":"2016-05-09T15:17:00+02:00"},{"datasetid":"laposte_hexasmal","recordid":"7261b0d5eea08a12aea58e1fdd3fc061de3140ba","fields":{"nom_de_la_commune":"BOISSIERES","libell_d_acheminement":"BOISSIERES","code_postal":"46150","coordonnees_gps":[44.5478641839,1.40820020858],"code_commune_insee":"46032"},"geometry":{"type":"Point","coordinates":[1.40820020858,44.5478641839]},"record_timestamp":"2016-05-09T15:17:00+02:00"},{"datasetid":"laposte_hexasmal","recordid":"3ccba6d5ebbb3808ec66c8f5ced9422de22df144","fields":{"nom_de_la_commune":"CADRIEU","libell_d_acheminement":"CADRIEU","code_postal":"46160","coordonnees_gps":[44.4996325916,1.87599580969],"code_commune_insee":"46041"},"geometry":{"type":"Point","coordinates":[1.87599580969,44.4996325916]},"record_timestamp":"2016-05-09T15:17:00+02:00"},{"datasetid":"laposte_hexasmal","recordid":"d3596c0872bd6ea68faf5e50ee80fb3e129ddc1c","fields":{"nom_de_la_commune":"CALVIGNAC","libell_d_acheminement":"CALVIGNAC","code_postal":"46160","coordonnees_gps":[44.4491098487,1.78767969019],"code_commune_insee":"46049"},"geometry":{"type":"Point","coordinates":[1.78767969019,44.4491098487]},"record_timestamp":"2016-05-09T15:17:00+02:00"},{"datasetid":"laposte_hexasmal","recordid":"636fbcc826c19e19fc7f382cb3fcb9a2c131919d","fields":{"nom_de_la_commune":"CARDAILLAC","libell_d_acheminement":"CARDAILLAC","code_postal":"46100","coordonnees_gps":[44.6824882751,2.0138257443],"code_commune_insee":"46057"},"geometry":{"type":"Point","coordinates":[2.0138257443,44.6824882751]},"record_timestamp":"2016-05-09T15:17:00+02:00"},{"datasetid":"laposte_hexasmal","recordid":"94d24510f00ac15ba31233b9d93467346c8da24e","fields":{"nom_de_la_commune":"CAZILLAC","libell_d_acheminement":"CAZILLAC","code_postal":"46600","coordonnees_gps":[44.9883601521,1.59742105562],"code_commune_insee":"46067"},"geometry":{"type":"Point","coordinates":[1.59742105562,44.9883601521]},"record_timestamp":"2016-05-09T15:17:00+02:00"},{"datasetid":"laposte_hexasmal","recordid":"8b231aa2369c4f1caf2721116001b0ebca8627e8","fields":{"nom_de_la_commune":"CEZAC","libell_d_acheminement":"CEZAC","code_postal":"46170","coordonnees_gps":[44.3482882762,1.34038736361],"code_commune_insee":"46069"},"geometry":{"type":"Point","coordinates":[1.34038736361,44.3482882762]},"record_timestamp":"2016-05-09T15:17:00+02:00"},{"datasetid":"laposte_hexasmal","recordid":"6d6a6f73daf6d95d3d0b4980593fba222c2db3cf","fields":{"nom_de_la_commune":"COUZOU","libell_d_acheminement":"COUZOU","code_postal":"46500","coordonnees_gps":[44.7694704061,1.63206532223],"code_commune_insee":"46078"},"geometry":{"type":"Point","coordinates":[1.63206532223,44.7694704061]},"record_timestamp":"2016-05-09T15:17:00+02:00"},{"datasetid":"laposte_hexasmal","recordid":"95f7ada47ed37c8f449e31e13661e1c27bc71219","fields":{"nom_de_la_commune":"CUZANCE","libell_d_acheminement":"CUZANCE","code_postal":"46600","coordonnees_gps":[44.9618841392,1.52986914567],"code_commune_insee":"46086"},"geometry":{"type":"Point","coordinates":[1.52986914567,44.9618841392]},"record_timestamp":"2016-05-09T15:17:00+02:00"},{"datasetid":"laposte_hexasmal","recordid":"d3c0baaddcdc4186e3feb02c7d3550a2d2cece2d","fields":{"nom_de_la_commune":"DEGAGNAC","libell_d_acheminement":"DEGAGNAC","code_postal":"46340","coordonnees_gps":[44.6693459592,1.32745596587],"code_commune_insee":"46087"},"geometry":{"type":"Point","coordinates":[1.32745596587,44.6693459592]},"record_timestamp":"2016-05-09T15:17:00+02:00"},{"datasetid":"laposte_hexasmal","recordid":"6e78fb2959c1f0cab8cf9dc86282afeb7184698e","fields":{"nom_de_la_commune":"ESPEDAILLAC","libell_d_acheminement":"ESPEDAILLAC","code_postal":"46320","coordonnees_gps":[44.6313262107,1.77517916048],"code_commune_insee":"46094"},"geometry":{"type":"Point","coordinates":[1.77517916048,44.6313262107]},"record_timestamp":"2016-05-09T15:17:00+02:00"},{"datasetid":"laposte_hexasmal","recordid":"65ca008ee2ab0de09b736ab4109de6b8a0a97d8f","fields":{"nom_de_la_commune":"ST PAUL FLAUGNAC","libell_d_acheminement":"ST PAUL FLAUGNAC","code_postal":"46170","coordonnees_gps":[44.2910612603,1.40914730428],"code_commune_insee":"46103"},"geometry":{"type":"Point","coordinates":[1.40914730428,44.2910612603]},"record_timestamp":"2016-05-09T15:17:00+02:00"},{"datasetid":"laposte_hexasmal","recordid":"49ec846dac6b7390ee4702aec8d0d774585b6f8d","fields":{"nom_de_la_commune":"FOURMAGNAC","libell_d_acheminement":"FOURMAGNAC","code_postal":"46100","coordonnees_gps":[44.6657638987,1.98087268416],"code_commune_insee":"46111"},"geometry":{"type":"Point","coordinates":[1.98087268416,44.6657638987]},"record_timestamp":"2016-05-09T15:17:00+02:00"},{"datasetid":"laposte_hexasmal","recordid":"dfd4376b8e4b4ba5b99f833794187bd8d359198c","fields":{"nom_de_la_commune":"GIGOUZAC","libell_d_acheminement":"GIGOUZAC","code_postal":"46150","coordonnees_gps":[44.5837680481,1.43277988907],"code_commune_insee":"46119"},"geometry":{"type":"Point","coordinates":[1.43277988907,44.5837680481]},"record_timestamp":"2016-05-09T15:17:00+02:00"},{"datasetid":"laposte_hexasmal","recordid":"f6882838ba7cfc4442f9342b57ee4eff63614aa9","fields":{"nom_de_la_commune":"GINDOU","libell_d_acheminement":"GINDOU","code_postal":"46250","coordonnees_gps":[44.6266225054,1.26418092568],"code_commune_insee":"46120"},"geometry":{"type":"Point","coordinates":[1.26418092568,44.6266225054]},"record_timestamp":"2016-05-09T15:17:00+02:00"},{"datasetid":"laposte_hexasmal","recordid":"49425075ea69a7c95c5e12e71bd97526137212e0","fields":{"nom_de_la_commune":"GINOUILLAC","libell_d_acheminement":"GINOUILLAC","code_postal":"46300","coordonnees_gps":[44.726806862,1.53672996864],"code_commune_insee":"46121"},"geometry":{"type":"Point","coordinates":[1.53672996864,44.726806862]},"record_timestamp":"2016-05-09T15:17:00+02:00"},{"datasetid":"laposte_hexasmal","recordid":"3c0b5eaf51cdde616ba34406b0deec62d1cf5264","fields":{"nom_de_la_commune":"GINTRAC","libell_d_acheminement":"GINTRAC","code_postal":"46130","coordonnees_gps":[44.8834895326,1.75273757543],"code_commune_insee":"46122"},"geometry":{"type":"Point","coordinates":[1.75273757543,44.8834895326]},"record_timestamp":"2016-05-09T15:17:00+02:00"},{"datasetid":"laposte_hexasmal","recordid":"edf0ee1e051c734865ebddc423a924b7db59ae68","fields":{"nom_de_la_commune":"GREZELS","libell_d_acheminement":"GREZELS","code_postal":"46700","coordonnees_gps":[44.4680281643,1.14965078788],"code_commune_insee":"46130"},"geometry":{"type":"Point","coordinates":[1.14965078788,44.4680281643]},"record_timestamp":"2016-05-09T15:17:00+02:00"},{"datasetid":"laposte_hexasmal","recordid":"bae5a1050dd4165d8fa38fbc560e05a211a88ece","fields":{"nom_de_la_commune":"GREZES","libell_d_acheminement":"GREZES","code_postal":"46320","coordonnees_gps":[44.6207172976,1.82420709505],"code_commune_insee":"46131"},"geometry":{"type":"Point","coordinates":[1.82420709505,44.6207172976]},"record_timestamp":"2016-05-09T15:17:00+02:00"},{"datasetid":"laposte_hexasmal","recordid":"a4e1dd62836f31d3e6547b6f111a89bac3d35b82","fields":{"nom_de_la_commune":"ISSENDOLUS","libell_d_acheminement":"ISSENDOLUS","code_postal":"46500","coordonnees_gps":[44.7387423552,1.77955688281],"code_commune_insee":"46132"},"geometry":{"type":"Point","coordinates":[1.77955688281,44.7387423552]},"record_timestamp":"2016-05-09T15:17:00+02:00"},{"datasetid":"laposte_hexasmal","recordid":"6248a2bec4463908d17ab5c6a240757ec7abf830","fields":{"nom_de_la_commune":"LABASTIDE DU VERT","libell_d_acheminement":"LABASTIDE DU VERT","code_postal":"46150","coordonnees_gps":[44.5151357381,1.26565315705],"code_commune_insee":"46136"},"geometry":{"type":"Point","coordinates":[1.26565315705,44.5151357381]},"record_timestamp":"2016-05-09T15:17:00+02:00"},{"datasetid":"laposte_hexasmal","recordid":"673a6895e15233689094b5379d71bc8a2d668662","fields":{"nom_de_la_commune":"LABASTIDE MARNHAC","libell_d_acheminement":"LABASTIDE MARNHAC","code_postal":"46090","coordonnees_gps":[44.386742628,1.38959761841],"code_commune_insee":"46137"},"geometry":{"type":"Point","coordinates":[1.38959761841,44.386742628]},"record_timestamp":"2016-05-09T15:17:00+02:00"},{"datasetid":"laposte_hexasmal","recordid":"3ad40b06f2391e3fe5b645011b5d2a062a75ca4f","fields":{"code_postal":"46240","code_commune_insee":"46138","libell_d_acheminement":"COEUR DE CAUSSE","ligne_5":"BEAUMAT","nom_de_la_commune":"COEUR DE CAUSSE","coordonnees_gps":[44.6484325779,1.58028882268]},"geometry":{"type":"Point","coordinates":[1.58028882268,44.6484325779]},"record_timestamp":"2016-05-09T15:17:00+02:00"},{"datasetid":"laposte_hexasmal","recordid":"7ac5d5f5a2d32ba961ded1a9794e75133599a34d","fields":{"nom_de_la_commune":"LABURGADE","libell_d_acheminement":"LABURGADE","code_postal":"46230","coordonnees_gps":[44.3889348605,1.54038779175],"code_commune_insee":"46140"},"geometry":{"type":"Point","coordinates":[1.54038779175,44.3889348605]},"record_timestamp":"2016-05-09T15:17:00+02:00"},{"datasetid":"laposte_hexasmal","recordid":"74713a4f42ef3d7596b7ce386732f2b9a38d4729","fields":{"nom_de_la_commune":"LADIRAT","libell_d_acheminement":"LADIRAT","code_postal":"46400","coordonnees_gps":[44.8212245702,1.96821823356],"code_commune_insee":"46146"},"geometry":{"type":"Point","coordinates":[1.96821823356,44.8212245702]},"record_timestamp":"2016-05-09T15:17:00+02:00"},{"datasetid":"laposte_hexasmal","recordid":"001b03fb5f9a6594000182c08e1bf92fff3a1282","fields":{"nom_de_la_commune":"LAMOTHE FENELON","libell_d_acheminement":"LAMOTHE FENELON","code_postal":"46350","coordonnees_gps":[44.827504864,1.42494397821],"code_commune_insee":"46152"},"geometry":{"type":"Point","coordinates":[1.42494397821,44.827504864]},"record_timestamp":"2016-05-09T15:17:00+02:00"},{"datasetid":"laposte_hexasmal","recordid":"92b4e50dc0bdbd4ebb755bb29d1ba39f353cce4a","fields":{"nom_de_la_commune":"LARNAGOL","libell_d_acheminement":"LARNAGOL","code_postal":"46160","coordonnees_gps":[44.488515893,1.77727129228],"code_commune_insee":"46155"},"geometry":{"type":"Point","coordinates":[1.77727129228,44.488515893]},"record_timestamp":"2016-05-09T15:17:00+02:00"},{"datasetid":"laposte_hexasmal","recordid":"b21d76a18bf834a040b1be056c09f40357fd3e15","fields":{"nom_de_la_commune":"LARROQUE TOIRAC","libell_d_acheminement":"LARROQUE TOIRAC","code_postal":"46160","coordonnees_gps":[44.5204913779,1.93257507348],"code_commune_insee":"46157"},"geometry":{"type":"Point","coordinates":[1.93257507348,44.5204913779]},"record_timestamp":"2016-05-09T15:17:00+02:00"},{"datasetid":"laposte_hexasmal","recordid":"ce1b074e2f244841fe3ea691538a66c8031fcab0","fields":{"nom_de_la_commune":"LATOUILLE LENTILLAC","libell_d_acheminement":"LATOUILLE LENTILLAC","code_postal":"46400","coordonnees_gps":[44.8510729625,1.98049668844],"code_commune_insee":"46159"},"geometry":{"type":"Point","coordinates":[1.98049668844,44.8510729625]},"record_timestamp":"2016-05-09T15:17:00+02:00"},{"datasetid":"laposte_hexasmal","recordid":"b3f7908b613a0a0dd1194eaf1ee999723cce915b","fields":{"nom_de_la_commune":"LATRONQUIERE","libell_d_acheminement":"LATRONQUIERE","code_postal":"46210","coordonnees_gps":[44.8008999113,2.07093870837],"code_commune_insee":"46160"},"geometry":{"type":"Point","coordinates":[2.07093870837,44.8008999113]},"record_timestamp":"2016-05-09T15:17:00+02:00"},{"datasetid":"laposte_hexasmal","recordid":"a0ad17be81990c11cf54fcd7bd0f6e64faff2308","fields":{"nom_de_la_commune":"LENTILLAC DU CAUSSE","libell_d_acheminement":"LENTILLAC DU CAUSSE","code_postal":"46330","coordonnees_gps":[44.5528093464,1.63790392885],"code_commune_insee":"46167"},"geometry":{"type":"Point","coordinates":[1.63790392885,44.5528093464]},"record_timestamp":"2016-05-09T15:17:00+02:00"},{"datasetid":"laposte_hexasmal","recordid":"52ec8bd378137c3102ec7f2028ff238911da9a8c","fields":{"nom_de_la_commune":"LENTILLAC ST BLAISE","libell_d_acheminement":"LENTILLAC ST BLAISE","code_postal":"46100","coordonnees_gps":[44.5887571233,2.11729481925],"code_commune_insee":"46168"},"geometry":{"type":"Point","coordinates":[2.11729481925,44.5887571233]},"record_timestamp":"2016-05-09T15:17:00+02:00"},{"datasetid":"laposte_hexasmal","recordid":"6a31086cffc788ba3d1d24be003d0c48c9e22e1f","fields":{"nom_de_la_commune":"LHERM","libell_d_acheminement":"LHERM","code_postal":"46150","coordonnees_gps":[44.5699106208,1.24112071813],"code_commune_insee":"46171"},"geometry":{"type":"Point","coordinates":[1.24112071813,44.5699106208]},"record_timestamp":"2016-05-09T15:17:00+02:00"},{"datasetid":"laposte_hexasmal","recordid":"9f10ab2a0e2bc24b69ac39a8c406834a4f336737","fields":{"nom_de_la_commune":"LISSAC ET MOURET","libell_d_acheminement":"LISSAC ET MOURET","code_postal":"46100","coordonnees_gps":[44.6228358432,1.97160948476],"code_commune_insee":"46175"},"geometry":{"type":"Point","coordinates":[1.97160948476,44.6228358432]},"record_timestamp":"2016-05-09T15:17:00+02:00"},{"datasetid":"laposte_hexasmal","recordid":"804d6e70818a77cf11e48a149d9e398df77b6e15","fields":{"nom_de_la_commune":"LOUPIAC","libell_d_acheminement":"LOUPIAC","code_postal":"46350","coordonnees_gps":[44.826492947,1.47337068734],"code_commune_insee":"46178"},"geometry":{"type":"Point","coordinates":[1.47337068734,44.826492947]},"record_timestamp":"2016-05-09T15:17:00+02:00"},{"datasetid":"laposte_hexasmal","recordid":"798a3d3c38334fa5868feffadb3e90b7c37220ee","fields":{"nom_de_la_commune":"MARMINIAC","libell_d_acheminement":"MARMINIAC","code_postal":"46250","coordonnees_gps":[44.6622898108,1.18403946197],"code_commune_insee":"46184"},"geometry":{"type":"Point","coordinates":[1.18403946197,44.6622898108]},"record_timestamp":"2016-05-09T15:17:00+02:00"},{"datasetid":"laposte_hexasmal","recordid":"6cf08495a9283c8d758a6c536d86a478f11dfb8b","fields":{"nom_de_la_commune":"MASCLAT","libell_d_acheminement":"MASCLAT","code_postal":"46350","coordonnees_gps":[44.8326739925,1.38072033414],"code_commune_insee":"46186"},"geometry":{"type":"Point","coordinates":[1.38072033414,44.8326739925]},"record_timestamp":"2016-05-09T15:17:00+02:00"},{"datasetid":"laposte_hexasmal","recordid":"504f9d03c6c9ab1c7137e2d34f33570bd2c70319","fields":{"nom_de_la_commune":"MONTCLERA","libell_d_acheminement":"MONTCLERA","code_postal":"46250","coordonnees_gps":[44.6203221327,1.19833953446],"code_commune_insee":"46200"},"geometry":{"type":"Point","coordinates":[1.19833953446,44.6203221327]},"record_timestamp":"2016-05-09T15:17:00+02:00"},{"datasetid":"laposte_hexasmal","recordid":"52e1211bf7e03bedad084e2854dc764f27358ec8","fields":{"nom_de_la_commune":"MONTREDON","libell_d_acheminement":"MONTREDON","code_postal":"46270","coordonnees_gps":[44.6130585802,2.18467035164],"code_commune_insee":"46207"},"geometry":{"type":"Point","coordinates":[2.18467035164,44.6130585802]},"record_timestamp":"2016-05-09T15:17:00+02:00"},{"datasetid":"laposte_hexasmal","recordid":"3b2f19620cdb71a815ad730d35a5a4f0256e5550","fields":{"nom_de_la_commune":"NADILLAC","libell_d_acheminement":"NADILLAC","code_postal":"46360","coordonnees_gps":[44.5639146169,1.51053421394],"code_commune_insee":"46210"},"geometry":{"type":"Point","coordinates":[1.51053421394,44.5639146169]},"record_timestamp":"2016-05-09T15:17:00+02:00"},{"datasetid":"laposte_hexasmal","recordid":"9d47ac279bf9eeb46a98502a498517fff15a4ebb","fields":{"nom_de_la_commune":"PARNAC","libell_d_acheminement":"PARNAC","code_postal":"46140","coordonnees_gps":[44.4811948006,1.31867316292],"code_commune_insee":"46214"},"geometry":{"type":"Point","coordinates":[1.31867316292,44.4811948006]},"record_timestamp":"2016-05-09T15:17:00+02:00"},{"datasetid":"laposte_hexasmal","recordid":"b5a6168f241d820a309a2cc30b99e6a32cef0af6","fields":{"nom_de_la_commune":"PAYRIGNAC","libell_d_acheminement":"PAYRIGNAC","code_postal":"46300","coordonnees_gps":[44.7629337139,1.34345331858],"code_commune_insee":"46216"},"geometry":{"type":"Point","coordinates":[1.34345331858,44.7629337139]},"record_timestamp":"2016-05-09T15:17:00+02:00"},{"datasetid":"laposte_hexasmal","recordid":"9008fe8bbd5e13821d0285cdb41193aad6d3d98a","fields":{"nom_de_la_commune":"PESCADOIRES","libell_d_acheminement":"PESCADOIRES","code_postal":"46220","coordonnees_gps":[44.4994584805,1.15835515488],"code_commune_insee":"46218"},"geometry":{"type":"Point","coordinates":[1.15835515488,44.4994584805]},"record_timestamp":"2016-05-09T15:17:00+02:00"},{"datasetid":"laposte_hexasmal","recordid":"4e34fa5eb460abc407a838998b63bee6f7044598","fields":{"nom_de_la_commune":"PRENDEIGNES","libell_d_acheminement":"PRENDEIGNES","code_postal":"46270","coordonnees_gps":[44.6977109541,2.07671859473],"code_commune_insee":"46226"},"geometry":{"type":"Point","coordinates":[2.07671859473,44.6977109541]},"record_timestamp":"2016-05-09T15:17:00+02:00"},{"datasetid":"laposte_hexasmal","recordid":"bbab39222ade5a836c6297041fdb6c2c1fcfbab6","fields":{"nom_de_la_commune":"LES QUATRE ROUTES DU LOT","libell_d_acheminement":"LES QUATRE ROUTES DU LOT","code_postal":"46110","coordonnees_gps":[44.9962499088,1.63795364343],"code_commune_insee":"46232"},"geometry":{"type":"Point","coordinates":[1.63795364343,44.9962499088]},"record_timestamp":"2016-05-09T15:17:00+02:00"},{"datasetid":"laposte_hexasmal","recordid":"f6ef5ccf228694cbdf6adea0f7cc454d076477dc","fields":{"nom_de_la_commune":"ROCAMADOUR","libell_d_acheminement":"ROCAMADOUR","code_postal":"46500","coordonnees_gps":[44.8148525753,1.62220346544],"code_commune_insee":"46240"},"geometry":{"type":"Point","coordinates":[1.62220346544,44.8148525753]},"record_timestamp":"2016-05-09T15:17:00+02:00"},{"datasetid":"laposte_hexasmal","recordid":"1345fab9878a12f93fdf355e81c0a0b812217055","fields":{"nom_de_la_commune":"ROUFFILHAC","libell_d_acheminement":"ROUFFILHAC","code_postal":"46300","coordonnees_gps":[44.7969748573,1.41366274165],"code_commune_insee":"46241"},"geometry":{"type":"Point","coordinates":[1.41366274165,44.7969748573]},"record_timestamp":"2016-05-09T15:17:00+02:00"},{"datasetid":"laposte_hexasmal","recordid":"f1e814052de92d2eddcb5cd1551e4a643f8e68aa","fields":{"nom_de_la_commune":"ST CHAMARAND","libell_d_acheminement":"ST CHAMARAND","code_postal":"46310","coordonnees_gps":[44.6842825979,1.45932378106],"code_commune_insee":"46253"},"geometry":{"type":"Point","coordinates":[1.45932378106,44.6842825979]},"record_timestamp":"2016-05-09T15:17:00+02:00"},{"datasetid":"laposte_hexasmal","recordid":"1a9065ec6afccd21875e74f13b0d2590c4bd7c4d","fields":{"nom_de_la_commune":"ST CIRQ SOUILLAGUET","libell_d_acheminement":"ST CIRQ SOUILLAGUET","code_postal":"46300","coordonnees_gps":[44.7052928988,1.44133375749],"code_commune_insee":"46258"},"geometry":{"type":"Point","coordinates":[1.44133375749,44.7052928988]},"record_timestamp":"2016-05-09T15:17:00+02:00"},{"datasetid":"laposte_hexasmal","recordid":"d93c899595e5ccc43be495d8b857450eb8fd027e","fields":{"nom_de_la_commune":"STE COLOMBE","libell_d_acheminement":"STE COLOMBE","code_postal":"46120","coordonnees_gps":[44.7204297846,2.01266388255],"code_commune_insee":"46260"},"geometry":{"type":"Point","coordinates":[2.01266388255,44.7204297846]},"record_timestamp":"2016-05-09T15:17:00+02:00"},{"datasetid":"laposte_hexasmal","recordid":"306ff5bda393300fbf1b9f6175ba9847fff23a26","fields":{"nom_de_la_commune":"ST DAUNES","libell_d_acheminement":"ST DAUNES","code_postal":"46800","coordonnees_gps":[44.3601858859,1.22469783155],"code_commune_insee":"46263"},"geometry":{"type":"Point","coordinates":[1.22469783155,44.3601858859]},"record_timestamp":"2016-05-09T15:17:00+02:00"},{"datasetid":"laposte_hexasmal","recordid":"2e3f203e892b74fcb0c0e205b5eacaf5f01ea1b5","fields":{"nom_de_la_commune":"ST MARTIN LABOUVAL","libell_d_acheminement":"ST MARTIN LABOUVAL","code_postal":"46330","coordonnees_gps":[44.4795975074,1.72861355188],"code_commune_insee":"46276"},"geometry":{"type":"Point","coordinates":[1.72861355188,44.4795975074]},"record_timestamp":"2016-05-09T15:17:00+02:00"},{"datasetid":"laposte_hexasmal","recordid":"c8d4082761670224042c54864dd4a1c78f542f5b","fields":{"nom_de_la_commune":"ST MARTIN LE REDON","libell_d_acheminement":"ST MARTIN LE REDON","code_postal":"46700","coordonnees_gps":[44.5343809724,1.03448043775],"code_commune_insee":"46277"},"geometry":{"type":"Point","coordinates":[1.03448043775,44.5343809724]},"record_timestamp":"2016-05-09T15:17:00+02:00"},{"datasetid":"laposte_hexasmal","recordid":"ac4d968000ceb11c37ac8df68049aa8a02f34892","fields":{"nom_de_la_commune":"ST MAURICE EN QUERCY","libell_d_acheminement":"ST MAURICE EN QUERCY","code_postal":"46120","coordonnees_gps":[44.7493866027,1.95646196861],"code_commune_insee":"46279"},"geometry":{"type":"Point","coordinates":[1.95646196861,44.7493866027]},"record_timestamp":"2016-05-09T15:17:00+02:00"},{"datasetid":"laposte_hexasmal","recordid":"831e561776de06b083d50b547b0e167f7ba19084","fields":{"nom_de_la_commune":"ST MEDARD DE PRESQUE","libell_d_acheminement":"ST MEDARD DE PRESQUE","code_postal":"46400","coordonnees_gps":[44.8523355559,1.84227954038],"code_commune_insee":"46281"},"geometry":{"type":"Point","coordinates":[1.84227954038,44.8523355559]},"record_timestamp":"2016-05-09T15:17:00+02:00"},{"datasetid":"laposte_hexasmal","recordid":"17be1ffd6071901f97b763e7205223d56349309f","fields":{"nom_de_la_commune":"ST MEDARD NICOURBY","libell_d_acheminement":"ST MEDARD NICOURBY","code_postal":"46210","coordonnees_gps":[44.7654922895,2.01091154394],"code_commune_insee":"46282"},"geometry":{"type":"Point","coordinates":[2.01091154394,44.7654922895]},"record_timestamp":"2016-05-09T15:17:00+02:00"},{"datasetid":"laposte_hexasmal","recordid":"65beda33cd52431c5b99be4b2f83644dc10a70e2","fields":{"nom_de_la_commune":"ST MICHEL DE BANNIERES","libell_d_acheminement":"ST MICHEL DE BANNIERES","code_postal":"46110","coordonnees_gps":[44.9755608245,1.68434656642],"code_commune_insee":"46283"},"geometry":{"type":"Point","coordinates":[1.68434656642,44.9755608245]},"record_timestamp":"2016-05-09T15:17:00+02:00"},{"datasetid":"laposte_hexasmal","recordid":"e0ae42b0bad23a961afeff3ccdeeba6cbfb2c910","fields":{"nom_de_la_commune":"ST MICHEL LOUBEJOU","libell_d_acheminement":"ST MICHEL LOUBEJOU","code_postal":"46130","coordonnees_gps":[44.8881827852,1.85309104006],"code_commune_insee":"46284"},"geometry":{"type":"Point","coordinates":[1.85309104006,44.8881827852]},"record_timestamp":"2016-05-09T15:17:00+02:00"},{"datasetid":"laposte_hexasmal","recordid":"902ad62afd61c14b1763d0479cbeb07a8d4e5d83","fields":{"nom_de_la_commune":"ST PERDOUX","libell_d_acheminement":"ST PERDOUX","code_postal":"46100","coordonnees_gps":[44.6797707425,2.04878159126],"code_commune_insee":"46288"},"geometry":{"type":"Point","coordinates":[2.04878159126,44.6797707425]},"record_timestamp":"2016-05-09T15:17:00+02:00"},{"datasetid":"laposte_hexasmal","recordid":"ba3b4c5736a60d0c0e8ec9ea3b16f480c92e4566","fields":{"nom_de_la_commune":"ST PROJET","libell_d_acheminement":"ST PROJET","code_postal":"46300","coordonnees_gps":[44.7472704411,1.51114352201],"code_commune_insee":"46290"},"geometry":{"type":"Point","coordinates":[1.51114352201,44.7472704411]},"record_timestamp":"2016-05-09T15:17:00+02:00"},{"datasetid":"laposte_hexasmal","recordid":"6156668d3d4248f0229bf606348d7b0606d67ca9","fields":{"nom_de_la_commune":"ST SIMON","libell_d_acheminement":"ST SIMON","code_postal":"46320","coordonnees_gps":[44.7006878199,1.82811413555],"code_commune_insee":"46292"},"geometry":{"type":"Point","coordinates":[1.82811413555,44.7006878199]},"record_timestamp":"2016-05-09T15:17:00+02:00"},{"datasetid":"laposte_hexasmal","recordid":"b48635964b4b8608c7d574a5b417283b6dd6432a","fields":{"nom_de_la_commune":"SAULIAC SUR CELE","libell_d_acheminement":"SAULIAC SUR CELE","code_postal":"46330","coordonnees_gps":[44.5227418077,1.71784528789],"code_commune_insee":"46299"},"geometry":{"type":"Point","coordinates":[1.71784528789,44.5227418077]},"record_timestamp":"2016-05-09T15:17:00+02:00"},{"datasetid":"laposte_hexasmal","recordid":"f0fc562a73ce4c02da1944632c34ed90cd5a9de6","fields":{"nom_de_la_commune":"SENAILLAC LATRONQUIERE","libell_d_acheminement":"SENAILLAC LATRONQUIERE","code_postal":"46210","coordonnees_gps":[44.8362230698,2.07406186694],"code_commune_insee":"46302"},"geometry":{"type":"Point","coordinates":[2.07406186694,44.8362230698]},"record_timestamp":"2016-05-09T15:17:00+02:00"},{"datasetid":"laposte_hexasmal","recordid":"e7e4a33fa6c7f048af63563212de5d35bea261ae","fields":{"nom_de_la_commune":"SOUSCEYRAC EN QUERCY","libell_d_acheminement":"SOUSCEYRAC EN QUERCY","code_postal":"46190","coordonnees_gps":[44.8806327764,2.03547276303],"code_commune_insee":"46311"},"geometry":{"type":"Point","coordinates":[2.03547276303,44.8806327764]},"record_timestamp":"2016-05-09T15:17:00+02:00"},{"datasetid":"laposte_hexasmal","recordid":"f76c90bd4facd8ea21a40d74c1f35641944381f0","fields":{"code_postal":"46190","code_commune_insee":"46311","libell_d_acheminement":"SOUSCEYRAC EN QUERCY","ligne_5":"LAMATIVIE","nom_de_la_commune":"SOUSCEYRAC EN QUERCY","coordonnees_gps":[44.8806327764,2.03547276303]},"geometry":{"type":"Point","coordinates":[2.03547276303,44.8806327764]},"record_timestamp":"2016-05-09T15:17:00+02:00"},{"datasetid":"laposte_hexasmal","recordid":"ab4d9b9c5e0f5c8023551a26575505a86774475c","fields":{"nom_de_la_commune":"THEDIRAC","libell_d_acheminement":"THEDIRAC","code_postal":"46150","coordonnees_gps":[44.5993894609,1.32059065502],"code_commune_insee":"46316"},"geometry":{"type":"Point","coordinates":[1.32059065502,44.5993894609]},"record_timestamp":"2016-05-09T15:17:00+02:00"},{"datasetid":"laposte_hexasmal","recordid":"455d023a461ea082dc52ad344a647b7b06c4d665","fields":{"nom_de_la_commune":"THEGRA","libell_d_acheminement":"THEGRA","code_postal":"46500","coordonnees_gps":[44.8242153584,1.75171823166],"code_commune_insee":"46317"},"geometry":{"type":"Point","coordinates":[1.75171823166,44.8242153584]},"record_timestamp":"2016-05-09T15:17:00+02:00"},{"datasetid":"laposte_hexasmal","recordid":"19885b9728f9f052e5045499863affffe8a1f8e1","fields":{"nom_de_la_commune":"VAYRAC","libell_d_acheminement":"VAYRAC","code_postal":"46110","coordonnees_gps":[44.9450597014,1.69320675098],"code_commune_insee":"46330"},"geometry":{"type":"Point","coordinates":[1.69320675098,44.9450597014]},"record_timestamp":"2016-05-09T15:17:00+02:00"},{"datasetid":"laposte_hexasmal","recordid":"0d58d71ac044826f13f8f9b1f8ae45f1fae3530c","fields":{"nom_de_la_commune":"LE VIGAN","libell_d_acheminement":"LE VIGAN","code_postal":"46300","coordonnees_gps":[44.7394789138,1.45239554217],"code_commune_insee":"46334"},"geometry":{"type":"Point","coordinates":[1.45239554217,44.7394789138]},"record_timestamp":"2016-05-09T15:17:00+02:00"},{"datasetid":"laposte_hexasmal","recordid":"4f478941894cbcec3739990647ec6782ded54cc3","fields":{"nom_de_la_commune":"ST JEAN LAGINESTE","libell_d_acheminement":"ST JEAN LAGINESTE","code_postal":"46400","coordonnees_gps":[44.8253267169,1.852018408],"code_commune_insee":"46339"},"geometry":{"type":"Point","coordinates":[1.852018408,44.8253267169]},"record_timestamp":"2016-05-09T15:17:00+02:00"},{"datasetid":"laposte_hexasmal","recordid":"81be7c3ffd21d67b02b0a87a669620a32de3d9f6","fields":{"nom_de_la_commune":"ST PIERRE LAFEUILLE","libell_d_acheminement":"ST PIERRE LAFEUILLE","code_postal":"46090","coordonnees_gps":[44.5174745884,1.45454544343],"code_commune_insee":"46340"},"geometry":{"type":"Point","coordinates":[1.45454544343,44.5174745884]},"record_timestamp":"2016-05-09T15:17:00+02:00"},{"datasetid":"laposte_hexasmal","recordid":"018ec7f8933eec7a6397391fc1293a6bc478c7ca","fields":{"nom_de_la_commune":"ALBAS","libell_d_acheminement":"ALBAS","code_postal":"46140","coordonnees_gps":[44.461394449,1.24016214719],"code_commune_insee":"46001"},"geometry":{"type":"Point","coordinates":[1.24016214719,44.461394449]},"record_timestamp":"2016-05-09T15:17:00+02:00"},{"datasetid":"laposte_hexasmal","recordid":"306e36c17ec214b98b2fc00e0c53d7dffdcdf771","fields":{"nom_de_la_commune":"AUTOIRE","libell_d_acheminement":"AUTOIRE","code_postal":"46400","coordonnees_gps":[44.8583081491,1.82558835092],"code_commune_insee":"46011"},"geometry":{"type":"Point","coordinates":[1.82558835092,44.8583081491]},"record_timestamp":"2016-05-09T15:17:00+02:00"},{"datasetid":"laposte_hexasmal","recordid":"a199d7afd6c5db8b11ad68f2a43ced1dad469d08","fields":{"nom_de_la_commune":"BALADOU","libell_d_acheminement":"BALADOU","code_postal":"46600","coordonnees_gps":[44.9240844611,1.55512235753],"code_commune_insee":"46016"},"geometry":{"type":"Point","coordinates":[1.55512235753,44.9240844611]},"record_timestamp":"2016-05-09T15:17:00+02:00"},{"datasetid":"laposte_hexasmal","recordid":"34846e2305d9ac373b22d03384168d5ac30a723d","fields":{"nom_de_la_commune":"BEAUREGARD","libell_d_acheminement":"BEAUREGARD","code_postal":"46260","coordonnees_gps":[44.3524666438,1.77958568726],"code_commune_insee":"46020"},"geometry":{"type":"Point","coordinates":[1.77958568726,44.3524666438]},"record_timestamp":"2016-05-09T15:17:00+02:00"},{"datasetid":"laposte_hexasmal","recordid":"0ac101288f8adc6a597b271b1a1c80f6330a6e80","fields":{"nom_de_la_commune":"BELFORT DU QUERCY","libell_d_acheminement":"BELFORT DU QUERCY","code_postal":"46230","coordonnees_gps":[44.2691232817,1.54997739016],"code_commune_insee":"46023"},"geometry":{"type":"Point","coordinates":[1.54997739016,44.2691232817]},"record_timestamp":"2016-05-09T15:17:00+02:00"},{"datasetid":"laposte_hexasmal","recordid":"eeda4b862940ed30d0a0ad762ddb9f75e8162762","fields":{"nom_de_la_commune":"BELMONT BRETENOUX","libell_d_acheminement":"BELMONT BRETENOUX","code_postal":"46130","coordonnees_gps":[44.8887906556,1.88174957113],"code_commune_insee":"46024"},"geometry":{"type":"Point","coordinates":[1.88174957113,44.8887906556]},"record_timestamp":"2016-05-09T15:17:00+02:00"},{"datasetid":"laposte_hexasmal","recordid":"fbbcce970dc96d81de4e511231ad00f29f0cee78","fields":{"nom_de_la_commune":"BERGANTY","libell_d_acheminement":"BERGANTY","code_postal":"46090","coordonnees_gps":[44.443494853,1.62900308265],"code_commune_insee":"46027"},"geometry":{"type":"Point","coordinates":[1.62900308265,44.443494853]},"record_timestamp":"2016-05-09T15:17:00+02:00"},{"datasetid":"laposte_hexasmal","recordid":"72d1edfe3759de1bf97b0a0cc4e1782804b3bb22","fields":{"nom_de_la_commune":"CAHUS","libell_d_acheminement":"CAHUS","code_postal":"46130","coordonnees_gps":[44.9631975501,1.91432329808],"code_commune_insee":"46043"},"geometry":{"type":"Point","coordinates":[1.91432329808,44.9631975501]},"record_timestamp":"2016-05-09T15:17:00+02:00"},{"datasetid":"laposte_hexasmal","recordid":"07d28d3c15a95dce27ef69c4706334c00aeb8112","fields":{"nom_de_la_commune":"CARLUCET","libell_d_acheminement":"CARLUCET","code_postal":"46500","coordonnees_gps":[44.731542751,1.61018363639],"code_commune_insee":"46059"},"geometry":{"type":"Point","coordinates":[1.61018363639,44.731542751]},"record_timestamp":"2016-05-09T15:17:00+02:00"},{"datasetid":"laposte_hexasmal","recordid":"62a6ddbcdc830d9cbbbdf148887a607e9249379e","fields":{"nom_de_la_commune":"CASSAGNES","libell_d_acheminement":"CASSAGNES","code_postal":"46700","coordonnees_gps":[44.5630523777,1.1285177981],"code_commune_insee":"46061"},"geometry":{"type":"Point","coordinates":[1.1285177981,44.5630523777]},"record_timestamp":"2016-05-09T15:17:00+02:00"},{"datasetid":"laposte_hexasmal","recordid":"a324ee595f59272fa5c42309a24d07058153ac57","fields":{"nom_de_la_commune":"CASTELNAU MONTRATIER","libell_d_acheminement":"CASTELNAU MONTRATIER","code_postal":"46170","coordonnees_gps":[44.2618964554,1.34787377419],"code_commune_insee":"46063"},"geometry":{"type":"Point","coordinates":[1.34787377419,44.2618964554]},"record_timestamp":"2016-05-09T15:17:00+02:00"},{"datasetid":"laposte_hexasmal","recordid":"10724053df84aa6f56362f1d3c324d397b248ca4","fields":{"nom_de_la_commune":"CENEVIERES","libell_d_acheminement":"CENEVIERES","code_postal":"46330","coordonnees_gps":[44.4455008428,1.73871325371],"code_commune_insee":"46068"},"geometry":{"type":"Point","coordinates":[1.73871325371,44.4455008428]},"record_timestamp":"2016-05-09T15:17:00+02:00"},{"datasetid":"laposte_hexasmal","recordid":"622fbb26150de4b8665dc63bed4f5670af625cce","fields":{"nom_de_la_commune":"CIEURAC","libell_d_acheminement":"CIEURAC","code_postal":"46230","coordonnees_gps":[44.3708750908,1.49838889295],"code_commune_insee":"46070"},"geometry":{"type":"Point","coordinates":[1.49838889295,44.3708750908]},"record_timestamp":"2016-05-09T15:17:00+02:00"},{"datasetid":"laposte_hexasmal","recordid":"1dba66b11f3d0ad6a97d97eb6d866ee511149f2f","fields":{"nom_de_la_commune":"CRAS","libell_d_acheminement":"CRAS","code_postal":"46360","coordonnees_gps":[44.5567067306,1.54091897332],"code_commune_insee":"46079"},"geometry":{"type":"Point","coordinates":[1.54091897332,44.5567067306]},"record_timestamp":"2016-05-09T15:17:00+02:00"},{"datasetid":"laposte_hexasmal","recordid":"fa9dd621e39e5dfe3feaa9b485e8f5e7f4e5ff51","fields":{"nom_de_la_commune":"CREGOLS","libell_d_acheminement":"CREGOLS","code_postal":"46330","coordonnees_gps":[44.429580085,1.6857006854],"code_commune_insee":"46081"},"geometry":{"type":"Point","coordinates":[1.6857006854,44.429580085]},"record_timestamp":"2016-05-09T15:17:00+02:00"},{"datasetid":"laposte_hexasmal","recordid":"1e7f6a6d8e6dea96046768b4da378f635709de3a","fields":{"nom_de_la_commune":"ESPERE","libell_d_acheminement":"ESPERE","code_postal":"46090","coordonnees_gps":[44.5141184572,1.37059320975],"code_commune_insee":"46095"},"geometry":{"type":"Point","coordinates":[1.37059320975,44.5141184572]},"record_timestamp":"2016-05-09T15:17:00+02:00"},{"datasetid":"laposte_hexasmal","recordid":"99e54009557594d7c5c98e1a8896fd308cc4e168","fields":{"nom_de_la_commune":"ESPEYROUX","libell_d_acheminement":"ESPEYROUX","code_postal":"46120","coordonnees_gps":[44.7651724416,1.9255839312],"code_commune_insee":"46096"},"geometry":{"type":"Point","coordinates":[1.9255839312,44.7651724416]},"record_timestamp":"2016-05-09T15:17:00+02:00"},{"datasetid":"laposte_hexasmal","recordid":"e43533a21cbde2da4c2b1d8d82440e4665bd9b66","fields":{"nom_de_la_commune":"ESTAL","libell_d_acheminement":"ESTAL","code_postal":"46130","coordonnees_gps":[44.9193285418,1.91880253206],"code_commune_insee":"46097"},"geometry":{"type":"Point","coordinates":[1.91880253206,44.9193285418]},"record_timestamp":"2016-05-09T15:17:00+02:00"},{"datasetid":"laposte_hexasmal","recordid":"d33dcfa0087cefd85c404d980d8c93383f8c9256","fields":{"nom_de_la_commune":"FARGUES","libell_d_acheminement":"FARGUES","code_postal":"46800","coordonnees_gps":[44.4024667075,1.1836288875],"code_commune_insee":"46099"},"geometry":{"type":"Point","coordinates":[1.1836288875,44.4024667075]},"record_timestamp":"2016-05-09T15:17:00+02:00"},{"datasetid":"laposte_hexasmal","recordid":"76e2905efc054fcb63be6d09108ce01f8928fb34","fields":{"nom_de_la_commune":"FELZINS","libell_d_acheminement":"FELZINS","code_postal":"46270","coordonnees_gps":[44.6095612656,2.15053532047],"code_commune_insee":"46101"},"geometry":{"type":"Point","coordinates":[2.15053532047,44.6095612656]},"record_timestamp":"2016-05-09T15:17:00+02:00"},{"datasetid":"laposte_hexasmal","recordid":"0c7bc4f4fd5194fe379d50aa14db913b2a7f8344","fields":{"nom_de_la_commune":"FLAUJAC GARE","libell_d_acheminement":"FLAUJAC GARE","code_postal":"46320","coordonnees_gps":[44.707043004,1.77185249529],"code_commune_insee":"46104"},"geometry":{"type":"Point","coordinates":[1.77185249529,44.707043004]},"record_timestamp":"2016-05-09T15:17:00+02:00"},{"datasetid":"laposte_hexasmal","recordid":"e45a34109bd14ad5510d43bc1e5be90415add710","fields":{"nom_de_la_commune":"FONS","libell_d_acheminement":"FONS","code_postal":"46100","coordonnees_gps":[44.6597558601,1.9530741182],"code_commune_insee":"46108"},"geometry":{"type":"Point","coordinates":[1.9530741182,44.6597558601]},"record_timestamp":"2016-05-09T15:17:00+02:00"},{"datasetid":"laposte_hexasmal","recordid":"0e1b61cc2c98822bcda34054092e9420d602ef49","fields":{"nom_de_la_commune":"FRAYSSINET LE GELAT","libell_d_acheminement":"FRAYSSINET LE GELAT","code_postal":"46250","coordonnees_gps":[44.5902258251,1.14402120648],"code_commune_insee":"46114"},"geometry":{"type":"Point","coordinates":[1.14402120648,44.5902258251]},"record_timestamp":"2016-05-09T15:17:00+02:00"},{"datasetid":"laposte_hexasmal","recordid":"61d35871ca26773e16a77a5fe8b557d5b5a29b4a","fields":{"nom_de_la_commune":"FRONTENAC","libell_d_acheminement":"FRONTENAC","code_postal":"46160","coordonnees_gps":[44.5445619042,1.97060806346],"code_commune_insee":"46116"},"geometry":{"type":"Point","coordinates":[1.97060806346,44.5445619042]},"record_timestamp":"2016-05-09T15:17:00+02:00"},{"datasetid":"laposte_hexasmal","recordid":"f597220201dc0f246d84d22b145606a41ff3f6d0","fields":{"nom_de_la_commune":"GOURDON","libell_d_acheminement":"GOURDON","code_postal":"46300","coordonnees_gps":[44.734795608,1.37712768596],"code_commune_insee":"46127"},"geometry":{"type":"Point","coordinates":[1.37712768596,44.734795608]},"record_timestamp":"2016-05-09T15:17:00+02:00"},{"datasetid":"laposte_hexasmal","recordid":"dcd2ada0f394e923976b0983997f0d1a0f6e1dc4","fields":{"nom_de_la_commune":"GRAMAT","libell_d_acheminement":"GRAMAT","code_postal":"46500","coordonnees_gps":[44.7635603644,1.71620459363],"code_commune_insee":"46128"},"geometry":{"type":"Point","coordinates":[1.71620459363,44.7635603644]},"record_timestamp":"2016-05-09T15:17:00+02:00"},{"datasetid":"laposte_hexasmal","recordid":"067d77472815cd8a6345242dd956ded67449124b","fields":{"nom_de_la_commune":"LABASTIDE DU HAUT MONT","libell_d_acheminement":"LABASTIDE DU HAUT MONT","code_postal":"46210","coordonnees_gps":[44.828705363,2.11362965204],"code_commune_insee":"46135"},"geometry":{"type":"Point","coordinates":[2.11362965204,44.828705363]},"record_timestamp":"2016-05-09T15:17:00+02:00"},{"datasetid":"laposte_hexasmal","recordid":"85836ea337db54d3f4c5bb963f06cb194ac535eb","fields":{"code_postal":"46240","code_commune_insee":"46138","libell_d_acheminement":"COEUR DE CAUSSE","ligne_5":"LABASTIDE MURAT","nom_de_la_commune":"COEUR DE CAUSSE","coordonnees_gps":[44.6484325779,1.58028882268]},"geometry":{"type":"Point","coordinates":[1.58028882268,44.6484325779]},"record_timestamp":"2016-05-09T15:17:00+02:00"},{"datasetid":"laposte_hexasmal","recordid":"3412798de57bb0c057ff57f9705311ec940f7686","fields":{"nom_de_la_commune":"LACHAPELLE AUZAC","libell_d_acheminement":"LACHAPELLE AUZAC","code_postal":"46200","coordonnees_gps":[44.9380023584,1.48031197912],"code_commune_insee":"46145"},"geometry":{"type":"Point","coordinates":[1.48031197912,44.9380023584]},"record_timestamp":"2016-05-09T15:17:00+02:00"},{"datasetid":"laposte_hexasmal","recordid":"f6268009f48b2abc499f5b930a19410ad27ad582","fields":{"nom_de_la_commune":"LAURESSES","libell_d_acheminement":"LAURESSES","code_postal":"46210","coordonnees_gps":[44.7840183574,2.10885299987],"code_commune_insee":"46161"},"geometry":{"type":"Point","coordinates":[2.10885299987,44.7840183574]},"record_timestamp":"2016-05-09T15:17:00+02:00"},{"datasetid":"laposte_hexasmal","recordid":"3c5148eeeb0acd295fcbbf0b99094c631d69aa91","fields":{"nom_de_la_commune":"LAUZES","libell_d_acheminement":"LAUZES","code_postal":"46360","coordonnees_gps":[44.5630061039,1.57779528998],"code_commune_insee":"46162"},"geometry":{"type":"Point","coordinates":[1.57779528998,44.5630061039]},"record_timestamp":"2016-05-09T15:17:00+02:00"},{"datasetid":"laposte_hexasmal","recordid":"628afa428227bf4610f0ff8a5cf29f7366026a3e","fields":{"nom_de_la_commune":"LOUBRESSAC","libell_d_acheminement":"LOUBRESSAC","code_postal":"46130","coordonnees_gps":[44.8660989972,1.79065883803],"code_commune_insee":"46177"},"geometry":{"type":"Point","coordinates":[1.79065883803,44.8660989972]},"record_timestamp":"2016-05-09T15:17:00+02:00"},{"datasetid":"laposte_hexasmal","recordid":"13a9a33aeb0d8c2b88bd3610b6d70e6d6ff88512","fields":{"nom_de_la_commune":"LUGAGNAC","libell_d_acheminement":"LUGAGNAC","code_postal":"46260","coordonnees_gps":[44.412063989,1.72089592713],"code_commune_insee":"46179"},"geometry":{"type":"Point","coordinates":[1.72089592713,44.412063989]},"record_timestamp":"2016-05-09T15:17:00+02:00"},{"datasetid":"laposte_hexasmal","recordid":"bc4f3a52140c612708dc631c4c4207eccebcf61a","fields":{"nom_de_la_commune":"MECHMONT","libell_d_acheminement":"MECHMONT","code_postal":"46150","coordonnees_gps":[44.5830981041,1.46298986385],"code_commune_insee":"46190"},"geometry":{"type":"Point","coordinates":[1.46298986385,44.5830981041]},"record_timestamp":"2016-05-09T15:17:00+02:00"},{"datasetid":"laposte_hexasmal","recordid":"8130e3cf09f8fa34cac942310074cbc9e9cb5585","fields":{"nom_de_la_commune":"MEYRONNE","libell_d_acheminement":"MEYRONNE","code_postal":"46200","coordonnees_gps":[44.8678105571,1.58876671405],"code_commune_insee":"46192"},"geometry":{"type":"Point","coordinates":[1.58876671405,44.8678105571]},"record_timestamp":"2016-05-09T15:17:00+02:00"},{"datasetid":"laposte_hexasmal","recordid":"9b9ce0e831dd52af800fa1f5fe2ad285aa5e7855","fields":{"code_postal":"46800","code_commune_insee":"46201","libell_d_acheminement":"MONTCUQ EN QUERCY BLANC","ligne_5":"VALPRIONDE","nom_de_la_commune":"MONTCUQ EN QUERCY BLANC","coordonnees_gps":[44.335497631,1.21192283879]},"geometry":{"type":"Point","coordinates":[1.21192283879,44.335497631]},"record_timestamp":"2016-05-09T15:17:00+02:00"},{"datasetid":"laposte_hexasmal","recordid":"1cca35e18937649b9c498a2151aa17fcf73482e0","fields":{"nom_de_la_commune":"MONTVALENT","libell_d_acheminement":"MONTVALENT","code_postal":"46600","coordonnees_gps":[44.8740684333,1.63555769286],"code_commune_insee":"46208"},"geometry":{"type":"Point","coordinates":[1.63555769286,44.8740684333]},"record_timestamp":"2016-05-09T15:17:00+02:00"},{"datasetid":"laposte_hexasmal","recordid":"4a6809ed9e955c150a20bbc36ed5a59ba99cfe71","fields":{"nom_de_la_commune":"PINSAC","libell_d_acheminement":"PINSAC","code_postal":"46200","coordonnees_gps":[44.8610534659,1.51873154289],"code_commune_insee":"46220"},"geometry":{"type":"Point","coordinates":[1.51873154289,44.8610534659]},"record_timestamp":"2016-05-09T15:17:00+02:00"},{"datasetid":"laposte_hexasmal","recordid":"3b8c2b66e7f932eb7d0275d64bce7abf188d06a8","fields":{"nom_de_la_commune":"PRADINES","libell_d_acheminement":"PRADINES","code_postal":"46090","coordonnees_gps":[44.464606105,1.38849304756],"code_commune_insee":"46224"},"geometry":{"type":"Point","coordinates":[1.38849304756,44.464606105]},"record_timestamp":"2016-05-09T15:17:00+02:00"},{"datasetid":"laposte_hexasmal","recordid":"609eb8c37954084dfc052dfa90ecbdd64a0aaf93","fields":{"nom_de_la_commune":"PROMILHANES","libell_d_acheminement":"PROMILHANES","code_postal":"46260","coordonnees_gps":[44.3763205696,1.83026899393],"code_commune_insee":"46227"},"geometry":{"type":"Point","coordinates":[1.83026899393,44.3763205696]},"record_timestamp":"2016-05-09T15:17:00+02:00"},{"datasetid":"laposte_hexasmal","recordid":"319d2ffd5cf4efd4d133216832d3f53f4ac8c637","fields":{"nom_de_la_commune":"PUY L EVEQUE","libell_d_acheminement":"PUY L EVEQUE","code_postal":"46700","coordonnees_gps":[44.5166104791,1.13576954751],"code_commune_insee":"46231"},"geometry":{"type":"Point","coordinates":[1.13576954751,44.5166104791]},"record_timestamp":"2016-05-09T15:17:00+02:00"},{"datasetid":"laposte_hexasmal","recordid":"dafbc97aa43b64f35ac4430189f7b73b71a8bab5","fields":{"nom_de_la_commune":"RUDELLE","libell_d_acheminement":"RUDELLE","code_postal":"46120","coordonnees_gps":[44.7292835526,1.87794922914],"code_commune_insee":"46242"},"geometry":{"type":"Point","coordinates":[1.87794922914,44.7292835526]},"record_timestamp":"2016-05-09T15:17:00+02:00"},{"datasetid":"laposte_hexasmal","recordid":"2f883d233c7031c5d52cf8426e2a815961873a7a","fields":{"nom_de_la_commune":"RUEYRES","libell_d_acheminement":"RUEYRES","code_postal":"46120","coordonnees_gps":[44.7537580585,1.85554615594],"code_commune_insee":"46243"},"geometry":{"type":"Point","coordinates":[1.85554615594,44.7537580585]},"record_timestamp":"2016-05-09T15:17:00+02:00"},{"datasetid":"laposte_hexasmal","recordid":"3c43a8e5d8eef6a1d5033ca4cd91e76b9f1dcce4","fields":{"nom_de_la_commune":"SAILLAC","libell_d_acheminement":"SAILLAC","code_postal":"46260","coordonnees_gps":[44.3295466737,1.74148864793],"code_commune_insee":"46247"},"geometry":{"type":"Point","coordinates":[1.74148864793,44.3295466737]},"record_timestamp":"2016-05-09T15:17:00+02:00"},{"datasetid":"laposte_hexasmal","recordid":"1177b7de1847dfd029c494138f5fd015c7286cce","fields":{"nom_de_la_commune":"ST CERE","libell_d_acheminement":"ST CERE","code_postal":"46400","coordonnees_gps":[44.8531827667,1.89258045388],"code_commune_insee":"46251"},"geometry":{"type":"Point","coordinates":[1.89258045388,44.8531827667]},"record_timestamp":"2016-05-09T15:17:00+02:00"},{"datasetid":"laposte_hexasmal","recordid":"b61f3acd36448b9d956436b264402b6458676a2d","fields":{"nom_de_la_commune":"ST CIRGUES","libell_d_acheminement":"ST CIRGUES","code_postal":"46210","coordonnees_gps":[44.7359417432,2.11647884119],"code_commune_insee":"46255"},"geometry":{"type":"Point","coordinates":[2.11647884119,44.7359417432]},"record_timestamp":"2016-05-09T15:17:00+02:00"},{"datasetid":"laposte_hexasmal","recordid":"fd700c3ba40a7ffa9d208a42acd148864feb5dbc","fields":{"nom_de_la_commune":"ST CIRQ MADELON","libell_d_acheminement":"ST CIRQ MADELON","code_postal":"46300","coordonnees_gps":[44.7896986381,1.31685222838],"code_commune_insee":"46257"},"geometry":{"type":"Point","coordinates":[1.31685222838,44.7896986381]},"record_timestamp":"2016-05-09T15:17:00+02:00"},{"datasetid":"laposte_hexasmal","recordid":"f89cf07af68cf4dc2ea012db735cc43e5dfbb7d9","fields":{"nom_de_la_commune":"ST GERY","libell_d_acheminement":"ST GERY","code_postal":"46330","coordonnees_gps":[44.4863902583,1.6001798484],"code_commune_insee":"46268"},"geometry":{"type":"Point","coordinates":[1.6001798484,44.4863902583]},"record_timestamp":"2016-05-09T15:17:00+02:00"},{"datasetid":"laposte_hexasmal","recordid":"18091372d83b1d11c3f48620c0b31f4d17c0a3b2","fields":{"nom_de_la_commune":"ST JEAN MIRABEL","libell_d_acheminement":"ST JEAN MIRABEL","code_postal":"46270","coordonnees_gps":[44.632783042,2.10766721275],"code_commune_insee":"46272"},"geometry":{"type":"Point","coordinates":[2.10766721275,44.632783042]},"record_timestamp":"2016-05-09T15:17:00+02:00"},{"datasetid":"laposte_hexasmal","recordid":"2f4dde0dab80f8883f1dc2df70c174a78769358e","fields":{"nom_de_la_commune":"ST LAURENT LES TOURS","libell_d_acheminement":"ST LAURENT LES TOURS","code_postal":"46400","coordonnees_gps":[44.8817459131,1.90434395957],"code_commune_insee":"46273"},"geometry":{"type":"Point","coordinates":[1.90434395957,44.8817459131]},"record_timestamp":"2016-05-09T15:17:00+02:00"},{"datasetid":"laposte_hexasmal","recordid":"bd16d7b19293b7a798c90b7e250ab823ae41e57a","fields":{"nom_de_la_commune":"ST PAUL DE VERN","libell_d_acheminement":"ST PAUL DE VERN","code_postal":"46400","coordonnees_gps":[44.8378106011,1.94214207363],"code_commune_insee":"46286"},"geometry":{"type":"Point","coordinates":[1.94214207363,44.8378106011]},"record_timestamp":"2016-05-09T15:17:00+02:00"},{"datasetid":"laposte_hexasmal","recordid":"60ee084a8714820e25f0f290b65a8f4d592412c2","fields":{"nom_de_la_commune":"SOUILLAC","libell_d_acheminement":"SOUILLAC","code_postal":"46200","coordonnees_gps":[44.9069531608,1.46396482842],"code_commune_insee":"46309"},"geometry":{"type":"Point","coordinates":[1.46396482842,44.9069531608]},"record_timestamp":"2016-05-09T15:17:00+02:00"},{"datasetid":"laposte_hexasmal","recordid":"08af3f687483c11b2c3f1e41cc56ceffe6f62f99","fields":{"code_postal":"46190","code_commune_insee":"46311","libell_d_acheminement":"SOUSCEYRAC EN QUERCY","ligne_5":"CALVIAC","nom_de_la_commune":"SOUSCEYRAC EN QUERCY","coordonnees_gps":[44.8806327764,2.03547276303]},"geometry":{"type":"Point","coordinates":[2.03547276303,44.8806327764]},"record_timestamp":"2016-05-09T15:17:00+02:00"},{"datasetid":"laposte_hexasmal","recordid":"089b6077f374485a10c3573709245ecce8532a7a","fields":{"nom_de_la_commune":"VAYLATS","libell_d_acheminement":"VAYLATS","code_postal":"46230","coordonnees_gps":[44.3249960013,1.64994675645],"code_commune_insee":"46329"},"geometry":{"type":"Point","coordinates":[1.64994675645,44.3249960013]},"record_timestamp":"2016-05-09T15:17:00+02:00"},{"datasetid":"laposte_hexasmal","recordid":"2425478160fa916e17a914f0e63cb86837ec2e24","fields":{"nom_de_la_commune":"VIAZAC","libell_d_acheminement":"VIAZAC","code_postal":"46100","coordonnees_gps":[44.6523523693,2.07287851725],"code_commune_insee":"46332"},"geometry":{"type":"Point","coordinates":[2.07287851725,44.6523523693]},"record_timestamp":"2016-05-09T15:17:00+02:00"},{"datasetid":"laposte_hexasmal","recordid":"469cd09599f00859a2614f1021b8f0da17cb4765","fields":{"nom_de_la_commune":"ANGLARS JUILLAC","libell_d_acheminement":"ANGLARS JUILLAC","code_postal":"46140","coordonnees_gps":[44.4865010847,1.20855960816],"code_commune_insee":"46005"},"geometry":{"type":"Point","coordinates":[1.20855960816,44.4865010847]},"record_timestamp":"2016-05-09T15:17:00+02:00"},{"datasetid":"laposte_hexasmal","recordid":"e463d6b0fcbe8c66284d2b5761f0c45b017a9e37","fields":{"nom_de_la_commune":"ARCAMBAL","libell_d_acheminement":"ARCAMBAL","code_postal":"46090","coordonnees_gps":[44.4543698318,1.54748898105],"code_commune_insee":"46007"},"geometry":{"type":"Point","coordinates":[1.54748898105,44.4543698318]},"record_timestamp":"2016-05-09T15:17:00+02:00"},{"datasetid":"laposte_hexasmal","recordid":"27ec6f33df702d7b0f1abba2b038d04a220e8202","fields":{"nom_de_la_commune":"ASSIER","libell_d_acheminement":"ASSIER","code_postal":"46320","coordonnees_gps":[44.6722095867,1.87432181008],"code_commune_insee":"46009"},"geometry":{"type":"Point","coordinates":[1.87432181008,44.6722095867]},"record_timestamp":"2016-05-09T15:17:00+02:00"},{"datasetid":"laposte_hexasmal","recordid":"813abedbddd62e40d632fbece4f139e9742d81ab","fields":{"nom_de_la_commune":"BAGNAC SUR CELE","libell_d_acheminement":"BAGNAC SUR CELE","code_postal":"46270","coordonnees_gps":[44.6622315963,2.14887166878],"code_commune_insee":"46015"},"geometry":{"type":"Point","coordinates":[2.14887166878,44.6622315963]},"record_timestamp":"2016-05-09T15:17:00+02:00"},{"datasetid":"laposte_hexasmal","recordid":"96f3c481937f7618c35fb3f5ecf09bd0da3bba18","fields":{"nom_de_la_commune":"BIARS SUR CERE","libell_d_acheminement":"BIARS SUR CERE","code_postal":"46130","coordonnees_gps":[44.9281999917,1.85705877079],"code_commune_insee":"46029"},"geometry":{"type":"Point","coordinates":[1.85705877079,44.9281999917]},"record_timestamp":"2016-05-09T15:17:00+02:00"},{"datasetid":"laposte_hexasmal","recordid":"b669fd504232fc3d602e6956acd4131d08e41f22","fields":{"nom_de_la_commune":"BLARS","libell_d_acheminement":"BLARS","code_postal":"46330","coordonnees_gps":[44.5750441827,1.72683431794],"code_commune_insee":"46031"},"geometry":{"type":"Point","coordinates":[1.72683431794,44.5750441827]},"record_timestamp":"2016-05-09T15:17:00+02:00"},{"datasetid":"laposte_hexasmal","recordid":"15d32e89ca3735a38696e9d4fd419297948e1601","fields":{"nom_de_la_commune":"CAILLAC","libell_d_acheminement":"CAILLAC","code_postal":"46140","coordonnees_gps":[44.4923815798,1.34696885739],"code_commune_insee":"46044"},"geometry":{"type":"Point","coordinates":[1.34696885739,44.4923815798]},"record_timestamp":"2016-05-09T15:17:00+02:00"},{"datasetid":"laposte_hexasmal","recordid":"86bb6466f9b32d26fcd42ec736ffff75559861ae","fields":{"nom_de_la_commune":"CAJARC","libell_d_acheminement":"CAJARC","code_postal":"46160","coordonnees_gps":[44.494117576,1.83859373388],"code_commune_insee":"46045"},"geometry":{"type":"Point","coordinates":[1.83859373388,44.494117576]},"record_timestamp":"2016-05-09T15:17:00+02:00"},{"datasetid":"laposte_hexasmal","recordid":"de92a1e105cfff6349cfb26d5cd18d3ec917491c","fields":{"nom_de_la_commune":"CALES","libell_d_acheminement":"CALES","code_postal":"46350","coordonnees_gps":[44.7953417042,1.54576222775],"code_commune_insee":"46047"},"geometry":{"type":"Point","coordinates":[1.54576222775,44.7953417042]},"record_timestamp":"2016-05-09T15:17:00+02:00"},{"datasetid":"laposte_hexasmal","recordid":"7c99703be5bbe7fc26459d8ee6f6780e98541f08","fields":{"nom_de_la_commune":"CAPDENAC","libell_d_acheminement":"CAPDENAC","code_postal":"46100","coordonnees_gps":[44.5849536866,2.06705309524],"code_commune_insee":"46055"},"geometry":{"type":"Point","coordinates":[2.06705309524,44.5849536866]},"record_timestamp":"2016-05-09T15:17:00+02:00"},{"datasetid":"laposte_hexasmal","recordid":"ee78d7f352419e7632e34fd2d0f692106d0890fc","fields":{"nom_de_la_commune":"CARENNAC","libell_d_acheminement":"CARENNAC","code_postal":"46110","coordonnees_gps":[44.9054973553,1.72378675129],"code_commune_insee":"46058"},"geometry":{"type":"Point","coordinates":[1.72378675129,44.9054973553]},"record_timestamp":"2016-05-09T15:17:00+02:00"},{"datasetid":"laposte_hexasmal","recordid":"850df00798c834dd32843955f5f2710262c563ad","fields":{"nom_de_la_commune":"CARNAC ROUFFIAC","libell_d_acheminement":"CARNAC ROUFFIAC","code_postal":"46140","coordonnees_gps":[44.4171586039,1.22177505149],"code_commune_insee":"46060"},"geometry":{"type":"Point","coordinates":[1.22177505149,44.4171586039]},"record_timestamp":"2016-05-09T15:17:00+02:00"},{"datasetid":"laposte_hexasmal","recordid":"3167a47f74b466bbb651680e0276061df95fae32","fields":{"nom_de_la_commune":"CONDAT","libell_d_acheminement":"CONDAT","code_postal":"46110","coordonnees_gps":[44.9916728807,1.67036030848],"code_commune_insee":"46074"},"geometry":{"type":"Point","coordinates":[1.67036030848,44.9916728807]},"record_timestamp":"2016-05-09T15:17:00+02:00"},{"datasetid":"laposte_hexasmal","recordid":"c9a2cbb93c8d1563605f22ce44f58b814e51a81f","fields":{"nom_de_la_commune":"CORN","libell_d_acheminement":"CORN","code_postal":"46100","coordonnees_gps":[44.6061471898,1.88882538803],"code_commune_insee":"46075"},"geometry":{"type":"Point","coordinates":[1.88882538803,44.6061471898]},"record_timestamp":"2016-05-09T15:17:00+02:00"},{"datasetid":"laposte_hexasmal","recordid":"cd0dbbcdb2978efae09dd42cd006dbb720eaea3d","fields":{"nom_de_la_commune":"CORNAC","libell_d_acheminement":"CORNAC","code_postal":"46130","coordonnees_gps":[44.9018775155,1.9180519973],"code_commune_insee":"46076"},"geometry":{"type":"Point","coordinates":[1.9180519973,44.9018775155]},"record_timestamp":"2016-05-09T15:17:00+02:00"},{"datasetid":"laposte_hexasmal","recordid":"548a5e65ab61834510b4e970c61699cc39514ed0","fields":{"nom_de_la_commune":"CREMPS","libell_d_acheminement":"CREMPS","code_postal":"46230","coordonnees_gps":[44.3877412529,1.58297001651],"code_commune_insee":"46082"},"geometry":{"type":"Point","coordinates":[1.58297001651,44.3877412529]},"record_timestamp":"2016-05-09T15:17:00+02:00"},{"datasetid":"laposte_hexasmal","recordid":"156424850119185a333e02154c36b3a6750bc9fb","fields":{"nom_de_la_commune":"CREYSSE","libell_d_acheminement":"CREYSSE","code_postal":"46600","coordonnees_gps":[44.8990704572,1.59459247498],"code_commune_insee":"46084"},"geometry":{"type":"Point","coordinates":[1.59459247498,44.8990704572]},"record_timestamp":"2016-05-09T15:17:00+02:00"},{"datasetid":"laposte_hexasmal","recordid":"3415c882525741eaec823ffeb4093fdc2baa2903","fields":{"nom_de_la_commune":"ESCAMPS","libell_d_acheminement":"ESCAMPS","code_postal":"46230","coordonnees_gps":[44.3645701478,1.61954720229],"code_commune_insee":"46091"},"geometry":{"type":"Point","coordinates":[1.61954720229,44.3645701478]},"record_timestamp":"2016-05-09T15:17:00+02:00"},{"datasetid":"laposte_hexasmal","recordid":"7b59ad2414f0c59f6d27bcb5af8ff31a3f027c27","fields":{"nom_de_la_commune":"ESPAGNAC STE EULALIE","libell_d_acheminement":"ESPAGNAC STE EULALIE","code_postal":"46320","coordonnees_gps":[44.5924781077,1.86121136331],"code_commune_insee":"46093"},"geometry":{"type":"Point","coordinates":[1.86121136331,44.5924781077]},"record_timestamp":"2016-05-09T15:17:00+02:00"},{"datasetid":"laposte_hexasmal","recordid":"d102bbc36db3d0b8242766e2722dc65df723a82e","fields":{"nom_de_la_commune":"FRAYSSINHES","libell_d_acheminement":"FRAYSSINHES","code_postal":"46400","coordonnees_gps":[44.8726104417,1.94132532683],"code_commune_insee":"46115"},"geometry":{"type":"Point","coordinates":[1.94132532683,44.8726104417]},"record_timestamp":"2016-05-09T15:17:00+02:00"},{"datasetid":"laposte_hexasmal","recordid":"d4bcc3a8be5cd15ac3bb84453b9e7f88214561e0","fields":{"nom_de_la_commune":"GAGNAC SUR CERE","libell_d_acheminement":"GAGNAC SUR CERE","code_postal":"46130","coordonnees_gps":[44.9387966672,1.88455364485],"code_commune_insee":"46117"},"geometry":{"type":"Point","coordinates":[1.88455364485,44.9387966672]},"record_timestamp":"2016-05-09T15:17:00+02:00"},{"datasetid":"laposte_hexasmal","recordid":"9b476e6dade440b8e2c15c9e917571ef0f179c12","fields":{"nom_de_la_commune":"GLANES","libell_d_acheminement":"GLANES","code_postal":"46130","coordonnees_gps":[44.9190594045,1.87327454002],"code_commune_insee":"46124"},"geometry":{"type":"Point","coordinates":[1.87327454002,44.9190594045]},"record_timestamp":"2016-05-09T15:17:00+02:00"},{"datasetid":"laposte_hexasmal","recordid":"c3b95d24917d2d7868ba897819113f9eb3ab8902","fields":{"nom_de_la_commune":"GOUJOUNAC","libell_d_acheminement":"GOUJOUNAC","code_postal":"46250","coordonnees_gps":[44.5750476412,1.20089199371],"code_commune_insee":"46126"},"geometry":{"type":"Point","coordinates":[1.20089199371,44.5750476412]},"record_timestamp":"2016-05-09T15:17:00+02:00"},{"datasetid":"laposte_hexasmal","recordid":"cbf64105aebd94e6545f3bf925743f2065386e55","fields":{"nom_de_la_commune":"LACAPELLE MARIVAL","libell_d_acheminement":"LACAPELLE MARIVAL","code_postal":"46120","coordonnees_gps":[44.7253588918,1.93631584115],"code_commune_insee":"46143"},"geometry":{"type":"Point","coordinates":[1.93631584115,44.7253588918]},"record_timestamp":"2016-05-09T15:17:00+02:00"},{"datasetid":"laposte_hexasmal","recordid":"eb2c4642e54f97d6f493a96edd09d92debf8b16e","fields":{"nom_de_la_commune":"LARAMIERE","libell_d_acheminement":"LARAMIERE","code_postal":"46260","coordonnees_gps":[44.359541732,1.87031104921],"code_commune_insee":"46154"},"geometry":{"type":"Point","coordinates":[1.87031104921,44.359541732]},"record_timestamp":"2016-05-09T15:17:00+02:00"},{"datasetid":"laposte_hexasmal","recordid":"cf144297814014b64d24d7aa79c41db0202421dc","fields":{"nom_de_la_commune":"LASCABANES","libell_d_acheminement":"LASCABANES","code_postal":"46800","coordonnees_gps":[44.3369299667,1.29272637382],"code_commune_insee":"46158"},"geometry":{"type":"Point","coordinates":[1.29272637382,44.3369299667]},"record_timestamp":"2016-05-09T15:17:00+02:00"},{"datasetid":"laposte_hexasmal","recordid":"52030449fabb941220645543dd661ef90f8fb578","fields":{"nom_de_la_commune":"LAVERGNE","libell_d_acheminement":"LAVERGNE","code_postal":"46500","coordonnees_gps":[44.8015351339,1.76588588621],"code_commune_insee":"46165"},"geometry":{"type":"Point","coordinates":[1.76588588621,44.8015351339]},"record_timestamp":"2016-05-09T15:17:00+02:00"},{"datasetid":"laposte_hexasmal","recordid":"f609220b1fce17c3fad51eadf9378d2604e2778f","fields":{"nom_de_la_commune":"LEYME","libell_d_acheminement":"LEYME","code_postal":"46120","coordonnees_gps":[44.7838029634,1.89700443992],"code_commune_insee":"46170"},"geometry":{"type":"Point","coordinates":[1.89700443992,44.7838029634]},"record_timestamp":"2016-05-09T15:17:00+02:00"},{"datasetid":"laposte_hexasmal","recordid":"6591007548667cd824c4bb2f7eb0c50d5dc09124","fields":{"nom_de_la_commune":"LHOSPITALET","libell_d_acheminement":"LHOSPITALET","code_postal":"46170","coordonnees_gps":[44.3536160886,1.42807252232],"code_commune_insee":"46172"},"geometry":{"type":"Point","coordinates":[1.42807252232,44.3536160886]},"record_timestamp":"2016-05-09T15:17:00+02:00"},{"datasetid":"laposte_hexasmal","recordid":"3486e600ea397ff8c61a624b9ec9c218a93c4741","fields":{"nom_de_la_commune":"LUNEGARDE","libell_d_acheminement":"LUNEGARDE","code_postal":"46240","coordonnees_gps":[44.6839954762,1.69297449351],"code_commune_insee":"46181"},"geometry":{"type":"Point","coordinates":[1.69297449351,44.6839954762]},"record_timestamp":"2016-05-09T15:17:00+02:00"},{"datasetid":"laposte_hexasmal","recordid":"4397c0b932552b346b0e08e7c2f5755d3e63d31e","fields":{"nom_de_la_commune":"MERCUES","libell_d_acheminement":"MERCUES","code_postal":"46090","coordonnees_gps":[44.4979192471,1.38947522255],"code_commune_insee":"46191"},"geometry":{"type":"Point","coordinates":[1.38947522255,44.4979192471]},"record_timestamp":"2016-05-09T15:17:00+02:00"},{"datasetid":"laposte_hexasmal","recordid":"958b468379e924c8e1b5c635c244cf436bb1addc","fields":{"nom_de_la_commune":"MILHAC","libell_d_acheminement":"MILHAC","code_postal":"46300","coordonnees_gps":[44.7967572097,1.34841422414],"code_commune_insee":"46194"},"geometry":{"type":"Point","coordinates":[1.34841422414,44.7967572097]},"record_timestamp":"2016-05-09T15:17:00+02:00"},{"datasetid":"laposte_hexasmal","recordid":"defcd629e70376d6e4b81959e6ae22d336d3e218","fields":{"code_postal":"46800","code_commune_insee":"46201","libell_d_acheminement":"MONTCUQ EN QUERCY BLANC","ligne_5":"BELMONTET","nom_de_la_commune":"MONTCUQ EN QUERCY BLANC","coordonnees_gps":[44.335497631,1.21192283879]},"geometry":{"type":"Point","coordinates":[1.21192283879,44.335497631]},"record_timestamp":"2016-05-09T15:17:00+02:00"},{"datasetid":"laposte_hexasmal","recordid":"d2993baaad234e6afa04db30135aab86f7782aa1","fields":{"nom_de_la_commune":"MONTGESTY","libell_d_acheminement":"MONTGESTY","code_postal":"46150","coordonnees_gps":[44.5751144304,1.29312666435],"code_commune_insee":"46205"},"geometry":{"type":"Point","coordinates":[1.29312666435,44.5751144304]},"record_timestamp":"2016-05-09T15:17:00+02:00"},{"datasetid":"laposte_hexasmal","recordid":"46b0b91be4a74bb16342b1741f4089d33f7491de","fields":{"nom_de_la_commune":"NUZEJOULS","libell_d_acheminement":"NUZEJOULS","code_postal":"46150","coordonnees_gps":[44.5360995607,1.373984961],"code_commune_insee":"46211"},"geometry":{"type":"Point","coordinates":[1.373984961,44.5360995607]},"record_timestamp":"2016-05-09T15:17:00+02:00"},{"datasetid":"laposte_hexasmal","recordid":"c8571918866a25b7da67fe0a81ef88148abe2941","fields":{"nom_de_la_commune":"ORNIAC","libell_d_acheminement":"ORNIAC","code_postal":"46330","coordonnees_gps":[44.5429306051,1.67747447618],"code_commune_insee":"46212"},"geometry":{"type":"Point","coordinates":[1.67747447618,44.5429306051]},"record_timestamp":"2016-05-09T15:17:00+02:00"},{"datasetid":"laposte_hexasmal","recordid":"d0a85c3a2c058d0b6112c9352dcea8038d47c4dc","fields":{"nom_de_la_commune":"PADIRAC","libell_d_acheminement":"PADIRAC","code_postal":"46500","coordonnees_gps":[44.8503221914,1.75624205079],"code_commune_insee":"46213"},"geometry":{"type":"Point","coordinates":[1.75624205079,44.8503221914]},"record_timestamp":"2016-05-09T15:17:00+02:00"},{"datasetid":"laposte_hexasmal","recordid":"ec83a45fcf08207039396c7b01f78006b1ebf8bf","fields":{"nom_de_la_commune":"PAYRAC","libell_d_acheminement":"PAYRAC","code_postal":"46350","coordonnees_gps":[44.7938474371,1.46578080794],"code_commune_insee":"46215"},"geometry":{"type":"Point","coordinates":[1.46578080794,44.7938474371]},"record_timestamp":"2016-05-09T15:17:00+02:00"},{"datasetid":"laposte_hexasmal","recordid":"4b3c0a0c2faa7309195a26368d6b74fd046ce678","fields":{"nom_de_la_commune":"PERN","libell_d_acheminement":"PERN","code_postal":"46170","coordonnees_gps":[44.3345123172,1.40726154278],"code_commune_insee":"46217"},"geometry":{"type":"Point","coordinates":[1.40726154278,44.3345123172]},"record_timestamp":"2016-05-09T15:17:00+02:00"},{"datasetid":"laposte_hexasmal","recordid":"a501b963229566645d6d194e3e67ce28f28e2f07","fields":{"nom_de_la_commune":"PEYRILLES","libell_d_acheminement":"PEYRILLES","code_postal":"46310","coordonnees_gps":[44.6213062372,1.39338062663],"code_commune_insee":"46219"},"geometry":{"type":"Point","coordinates":[1.39338062663,44.6213062372]},"record_timestamp":"2016-05-09T15:17:00+02:00"},{"datasetid":"laposte_hexasmal","recordid":"2542e441ad7f07f82beba86ccbfffa0ebbf9f1ac","fields":{"nom_de_la_commune":"PLANIOLES","libell_d_acheminement":"PLANIOLES","code_postal":"46100","coordonnees_gps":[44.6420092578,2.02813348021],"code_commune_insee":"46221"},"geometry":{"type":"Point","coordinates":[2.02813348021,44.6420092578]},"record_timestamp":"2016-05-09T15:17:00+02:00"},{"datasetid":"laposte_hexasmal","recordid":"98399c1227dc73616f6fb85f04dd010b52d5907d","fields":{"nom_de_la_commune":"PRAYSSAC","libell_d_acheminement":"PRAYSSAC","code_postal":"46220","coordonnees_gps":[44.5137023932,1.18723639208],"code_commune_insee":"46225"},"geometry":{"type":"Point","coordinates":[1.18723639208,44.5137023932]},"record_timestamp":"2016-05-09T15:17:00+02:00"},{"datasetid":"laposte_hexasmal","recordid":"97db7eeb063bb6f7168cd86c21e5331d9f147fbf","fields":{"nom_de_la_commune":"PUYBRUN","libell_d_acheminement":"PUYBRUN","code_postal":"46130","coordonnees_gps":[44.9213943929,1.78724150128],"code_commune_insee":"46229"},"geometry":{"type":"Point","coordinates":[1.78724150128,44.9213943929]},"record_timestamp":"2016-05-09T15:17:00+02:00"},{"datasetid":"laposte_hexasmal","recordid":"43db26e8c70ea37e0a40cd5c7d8049d60a96c8fd","fields":{"nom_de_la_commune":"RAMPOUX","libell_d_acheminement":"RAMPOUX","code_postal":"46340","coordonnees_gps":[44.6398724646,1.29448075247],"code_commune_insee":"46234"},"geometry":{"type":"Point","coordinates":[1.29448075247,44.6398724646]},"record_timestamp":"2016-05-09T15:17:00+02:00"},{"datasetid":"laposte_hexasmal","recordid":"5f9078d2b82201bbfd3f1262bf2531ebd2418464","fields":{"nom_de_la_commune":"REILHAGUET","libell_d_acheminement":"REILHAGUET","code_postal":"46350","coordonnees_gps":[44.7790219668,1.50802496994],"code_commune_insee":"46236"},"geometry":{"type":"Point","coordinates":[1.50802496994,44.7790219668]},"record_timestamp":"2016-05-09T15:17:00+02:00"},{"datasetid":"laposte_hexasmal","recordid":"6ad41f3d434264214eded4657fd7c04643115dc5","fields":{"nom_de_la_commune":"RIGNAC","libell_d_acheminement":"RIGNAC","code_postal":"46500","coordonnees_gps":[44.8065259652,1.70450822621],"code_commune_insee":"46238"},"geometry":{"type":"Point","coordinates":[1.70450822621,44.8065259652]},"record_timestamp":"2016-05-09T15:17:00+02:00"},{"datasetid":"laposte_hexasmal","recordid":"55f54e907e622d2d661a179355b548a2545e00c6","fields":{"nom_de_la_commune":"SABADEL LAUZES","libell_d_acheminement":"SABADEL LAUZES","code_postal":"46360","coordonnees_gps":[44.5597362449,1.6075760767],"code_commune_insee":"46245"},"geometry":{"type":"Point","coordinates":[1.6075760767,44.5597362449]},"record_timestamp":"2016-05-09T15:17:00+02:00"},{"datasetid":"laposte_hexasmal","recordid":"ca99c0bd64240056a71159527cdeb338956a68a3","fields":{"nom_de_la_commune":"SAIGNES","libell_d_acheminement":"SAIGNES","code_postal":"46500","coordonnees_gps":[44.7891039927,1.82108642363],"code_commune_insee":"46246"},"geometry":{"type":"Point","coordinates":[1.82108642363,44.7891039927]},"record_timestamp":"2016-05-09T15:17:00+02:00"},{"datasetid":"laposte_hexasmal","recordid":"d3c0616cc512ba85e424b79473331945be8bbc5d","fields":{"nom_de_la_commune":"ST BRESSOU","libell_d_acheminement":"ST BRESSOU","code_postal":"46120","coordonnees_gps":[44.6967820287,1.9760982727],"code_commune_insee":"46249"},"geometry":{"type":"Point","coordinates":[1.9760982727,44.6967820287]},"record_timestamp":"2016-05-09T15:17:00+02:00"},{"datasetid":"laposte_hexasmal","recordid":"87040c5d0b41ec5700f93ecd997fcfb644dcc156","fields":{"nom_de_la_commune":"ST CHELS","libell_d_acheminement":"ST CHELS","code_postal":"46160","coordonnees_gps":[44.5261400894,1.81487808912],"code_commune_insee":"46254"},"geometry":{"type":"Point","coordinates":[1.81487808912,44.5261400894]},"record_timestamp":"2016-05-09T15:17:00+02:00"},{"datasetid":"laposte_hexasmal","recordid":"826a17cabb6739625c4d5ff421587587e3d1e7fe","fields":{"nom_de_la_commune":"ST DENIS CATUS","libell_d_acheminement":"ST DENIS CATUS","code_postal":"46150","coordonnees_gps":[44.5692422139,1.38819379343],"code_commune_insee":"46264"},"geometry":{"type":"Point","coordinates":[1.38819379343,44.5692422139]},"record_timestamp":"2016-05-09T15:17:00+02:00"},{"datasetid":"laposte_hexasmal","recordid":"f64e2ebb723b179562ac50b85417eac8f2b6a385","fields":{"nom_de_la_commune":"ST FELIX","libell_d_acheminement":"ST FELIX","code_postal":"46100","coordonnees_gps":[44.6124237532,2.11317845009],"code_commune_insee":"46266"},"geometry":{"type":"Point","coordinates":[2.11317845009,44.6124237532]},"record_timestamp":"2016-05-09T15:17:00+02:00"},{"datasetid":"laposte_hexasmal","recordid":"81cff96a0bfd21f5cc50f7f663a840b31c6bb635","fields":{"nom_de_la_commune":"ST PIERRE TOIRAC","libell_d_acheminement":"ST PIERRE TOIRAC","code_postal":"46160","coordonnees_gps":[44.5365701769,1.95356991688],"code_commune_insee":"46289"},"geometry":{"type":"Point","coordinates":[1.95356991688,44.5365701769]},"record_timestamp":"2016-05-09T15:17:00+02:00"},{"datasetid":"laposte_hexasmal","recordid":"e5d1b926d0a69beac1da8af70eaed575f476f6ca","fields":{"nom_de_la_commune":"ST SOZY","libell_d_acheminement":"ST SOZY","code_postal":"46200","coordonnees_gps":[44.8817461552,1.55074989769],"code_commune_insee":"46293"},"geometry":{"type":"Point","coordinates":[1.55074989769,44.8817461552]},"record_timestamp":"2016-05-09T15:17:00+02:00"},{"datasetid":"laposte_hexasmal","recordid":"d7ab023b02300379dc662002ee5921d1efd428a6","fields":{"nom_de_la_commune":"ST SULPICE","libell_d_acheminement":"ST SULPICE","code_postal":"46160","coordonnees_gps":[44.5791760633,1.79550043647],"code_commune_insee":"46294"},"geometry":{"type":"Point","coordinates":[1.79550043647,44.5791760633]},"record_timestamp":"2016-05-09T15:17:00+02:00"},{"datasetid":"laposte_hexasmal","recordid":"6f3d516aac3fb95e2b533524effa2b1ce1b385d4","fields":{"nom_de_la_commune":"ST VINCENT DU PENDIT","libell_d_acheminement":"ST VINCENT DU PENDIT","code_postal":"46400","coordonnees_gps":[44.8338408589,1.9041542502],"code_commune_insee":"46295"},"geometry":{"type":"Point","coordinates":[1.9041542502,44.8338408589]},"record_timestamp":"2016-05-09T15:17:00+02:00"},{"datasetid":"laposte_hexasmal","recordid":"47750d2e0b39913995989bc1a82c12717d1f6dc5","fields":{"nom_de_la_commune":"SARRAZAC","libell_d_acheminement":"SARRAZAC","code_postal":"46600","coordonnees_gps":[45.0168784249,1.57945390824],"code_commune_insee":"46298"},"geometry":{"type":"Point","coordinates":[1.57945390824,45.0168784249]},"record_timestamp":"2016-05-09T15:17:00+02:00"},{"datasetid":"laposte_hexasmal","recordid":"cd717bd251d2a7ff1a22ca9b6d13734b18250679","fields":{"nom_de_la_commune":"SAUX","libell_d_acheminement":"SAUX","code_postal":"46800","coordonnees_gps":[44.3939091155,1.07823527054],"code_commune_insee":"46300"},"geometry":{"type":"Point","coordinates":[1.07823527054,44.3939091155]},"record_timestamp":"2016-05-09T15:17:00+02:00"},{"datasetid":"laposte_hexasmal","recordid":"43fef39517d3c7857adbbf59d3d63b3d3a7daaf2","fields":{"nom_de_la_commune":"SENIERGUES","libell_d_acheminement":"SENIERGUES","code_postal":"46240","coordonnees_gps":[44.714653063,1.560844102],"code_commune_insee":"46304"},"geometry":{"type":"Point","coordinates":[1.560844102,44.714653063]},"record_timestamp":"2016-05-09T15:17:00+02:00"},{"datasetid":"laposte_hexasmal","recordid":"c8b283ab349c2bb4f02f30d8859c58db552a5ebd","fields":{"nom_de_la_commune":"SERIGNAC","libell_d_acheminement":"SERIGNAC","code_postal":"46700","coordonnees_gps":[44.4278702673,1.08610284521],"code_commune_insee":"46305"},"geometry":{"type":"Point","coordinates":[1.08610284521,44.4278702673]},"record_timestamp":"2016-05-09T15:17:00+02:00"},{"datasetid":"laposte_hexasmal","recordid":"1885d42e33c99c5a425df2cf43c1bc7750f17e81","fields":{"code_postal":"46190","code_commune_insee":"46311","libell_d_acheminement":"SOUSCEYRAC EN QUERCY","ligne_5":"COMIAC","nom_de_la_commune":"SOUSCEYRAC EN QUERCY","coordonnees_gps":[44.8806327764,2.03547276303]},"geometry":{"type":"Point","coordinates":[2.03547276303,44.8806327764]},"record_timestamp":"2016-05-09T15:17:00+02:00"},{"datasetid":"laposte_hexasmal","recordid":"3b3d2b122b3c81d4d9bb1125b3a5467118ae73c4","fields":{"nom_de_la_commune":"TAURIAC","libell_d_acheminement":"TAURIAC","code_postal":"46130","coordonnees_gps":[44.9103810308,1.77420237883],"code_commune_insee":"46313"},"geometry":{"type":"Point","coordinates":[1.77420237883,44.9103810308]},"record_timestamp":"2016-05-09T15:17:00+02:00"},{"datasetid":"laposte_hexasmal","recordid":"6b624b8d6fb5eab725eed1ad49e6112989d9d7f5","fields":{"nom_de_la_commune":"TERROU","libell_d_acheminement":"TERROU","code_postal":"46120","coordonnees_gps":[44.7824469874,1.97624209767],"code_commune_insee":"46314"},"geometry":{"type":"Point","coordinates":[1.97624209767,44.7824469874]},"record_timestamp":"2016-05-09T15:17:00+02:00"},{"datasetid":"laposte_hexasmal","recordid":"6b092b5aae94c0b5d57cb7a52a812424c1d01fdb","fields":{"nom_de_la_commune":"TOUZAC","libell_d_acheminement":"TOUZAC","code_postal":"46700","coordonnees_gps":[44.4962914866,1.05945113782],"code_commune_insee":"46321"},"geometry":{"type":"Point","coordinates":[1.05945113782,44.4962914866]},"record_timestamp":"2016-05-09T15:17:00+02:00"},{"datasetid":"laposte_hexasmal","recordid":"c17a8218c6ac6125d392e7307acb7c82eb827b50","fields":{"nom_de_la_commune":"TRESPOUX RASSIELS","libell_d_acheminement":"TRESPOUX RASSIELS","code_postal":"46090","coordonnees_gps":[44.4215309294,1.35834286851],"code_commune_insee":"46322"},"geometry":{"type":"Point","coordinates":[1.35834286851,44.4215309294]},"record_timestamp":"2016-05-09T15:17:00+02:00"},{"datasetid":"laposte_hexasmal","recordid":"7d6f66e02b0d97a3036d05834c0daec434978332","fields":{"nom_de_la_commune":"VARAIRE","libell_d_acheminement":"VARAIRE","code_postal":"46260","coordonnees_gps":[44.3684009412,1.71781204622],"code_commune_insee":"46328"},"geometry":{"type":"Point","coordinates":[1.71781204622,44.3684009412]},"record_timestamp":"2016-05-09T15:17:00+02:00"},{"datasetid":"laposte_hexasmal","recordid":"fa5d8eeed15ff99a4849359391bd35ebcf189d6a","fields":{"nom_de_la_commune":"VILLESEQUE","libell_d_acheminement":"VILLESEQUE","code_postal":"46090","coordonnees_gps":[44.3978080627,1.31439035193],"code_commune_insee":"46335"},"geometry":{"type":"Point","coordinates":[1.31439035193,44.3978080627]},"record_timestamp":"2016-05-09T15:17:00+02:00"},{"datasetid":"laposte_hexasmal","recordid":"c2714f5dfa72e6dad7140b9edd07e039918c57f0","fields":{"nom_de_la_commune":"ALVIGNAC","libell_d_acheminement":"ALVIGNAC","code_postal":"46500","coordonnees_gps":[44.8338975947,1.68546472783],"code_commune_insee":"46003"},"geometry":{"type":"Point","coordinates":[1.68546472783,44.8338975947]},"record_timestamp":"2016-05-09T15:17:00+02:00"},{"datasetid":"laposte_hexasmal","recordid":"c7bbbda617e9ea879e4beea3a4d1ccdb48dc36e2","fields":{"nom_de_la_commune":"ANGLARS","libell_d_acheminement":"ANGLARS","code_postal":"46120","coordonnees_gps":[44.7474871579,1.89850060381],"code_commune_insee":"46004"},"geometry":{"type":"Point","coordinates":[1.89850060381,44.7474871579]},"record_timestamp":"2016-05-09T15:17:00+02:00"},{"datasetid":"laposte_hexasmal","recordid":"b48f85368e9b93151dd1ca49ebd73fb05a3689e1","fields":{"nom_de_la_commune":"ANGLARS NOZAC","libell_d_acheminement":"ANGLARS NOZAC","code_postal":"46300","coordonnees_gps":[44.7827204407,1.40862887217],"code_commune_insee":"46006"},"geometry":{"type":"Point","coordinates":[1.40862887217,44.7827204407]},"record_timestamp":"2016-05-09T15:17:00+02:00"},{"datasetid":"laposte_hexasmal","recordid":"d4bdd9d7e534e928f89460fed79d9cf4b946ca03","fields":{"nom_de_la_commune":"LES ARQUES","libell_d_acheminement":"LES ARQUES","code_postal":"46250","coordonnees_gps":[44.5993732049,1.24553751761],"code_commune_insee":"46008"},"geometry":{"type":"Point","coordinates":[1.24553751761,44.5993732049]},"record_timestamp":"2016-05-09T15:17:00+02:00"},{"datasetid":"laposte_hexasmal","recordid":"eabdb9145c861f617ca38760cdb4f7c1f3c17064","fields":{"nom_de_la_commune":"AYNAC","libell_d_acheminement":"AYNAC","code_postal":"46120","coordonnees_gps":[44.7879676429,1.85677368836],"code_commune_insee":"46012"},"geometry":{"type":"Point","coordinates":[1.85677368836,44.7879676429]},"record_timestamp":"2016-05-09T15:17:00+02:00"},{"datasetid":"laposte_hexasmal","recordid":"27d2999362692bce7142124df326c183440750eb","fields":{"nom_de_la_commune":"BAGAT EN QUERCY","libell_d_acheminement":"BAGAT EN QUERCY","code_postal":"46800","coordonnees_gps":[44.3844144129,1.22801974152],"code_commune_insee":"46014"},"geometry":{"type":"Point","coordinates":[1.22801974152,44.3844144129]},"record_timestamp":"2016-05-09T15:17:00+02:00"},{"datasetid":"laposte_hexasmal","recordid":"6ba86c409c3d1bb63e9d0a07a21000305e7f3495","fields":{"nom_de_la_commune":"LE BASTIT","libell_d_acheminement":"LE BASTIT","code_postal":"46500","coordonnees_gps":[44.7155811431,1.67355931002],"code_commune_insee":"46018"},"geometry":{"type":"Point","coordinates":[1.67355931002,44.7155811431]},"record_timestamp":"2016-05-09T15:17:00+02:00"},{"datasetid":"laposte_hexasmal","recordid":"d6e5ee24066962bb150df75e9cd43f1e9e8d7edd","fields":{"nom_de_la_commune":"BELMONT STE FOI","libell_d_acheminement":"BELMONT STE FOI","code_postal":"46230","coordonnees_gps":[44.2897689625,1.63023470112],"code_commune_insee":"46026"},"geometry":{"type":"Point","coordinates":[1.63023470112,44.2897689625]},"record_timestamp":"2016-05-09T15:17:00+02:00"},{"datasetid":"laposte_hexasmal","recordid":"f40ce7b522ef9a93131f2f7072ae7aa066403488","fields":{"nom_de_la_commune":"BIO","libell_d_acheminement":"BIO","code_postal":"46500","coordonnees_gps":[44.777991663,1.78785016782],"code_commune_insee":"46030"},"geometry":{"type":"Point","coordinates":[1.78785016782,44.777991663]},"record_timestamp":"2016-05-09T15:17:00+02:00"},{"datasetid":"laposte_hexasmal","recordid":"d9628a07e1a4ea14b0f9cec570576deca776b59c","fields":{"nom_de_la_commune":"BOUSSAC","libell_d_acheminement":"BOUSSAC","code_postal":"46100","coordonnees_gps":[44.5955239384,1.91907377788],"code_commune_insee":"46035"},"geometry":{"type":"Point","coordinates":[1.91907377788,44.5955239384]},"record_timestamp":"2016-05-09T15:17:00+02:00"},{"datasetid":"laposte_hexasmal","recordid":"9f32d1202e2118c74e243a2182529e971a4a7175","fields":{"nom_de_la_commune":"BOUZIES","libell_d_acheminement":"BOUZIES","code_postal":"46330","coordonnees_gps":[44.4798801695,1.63591249054],"code_commune_insee":"46037"},"geometry":{"type":"Point","coordinates":[1.63591249054,44.4798801695]},"record_timestamp":"2016-05-09T15:17:00+02:00"},{"datasetid":"laposte_hexasmal","recordid":"59443db1719ee8854b3ca41ac31f08ee207d1843","fields":{"nom_de_la_commune":"BRETENOUX","libell_d_acheminement":"BRETENOUX","code_postal":"46130","coordonnees_gps":[44.9142894383,1.84254876727],"code_commune_insee":"46038"},"geometry":{"type":"Point","coordinates":[1.84254876727,44.9142894383]},"record_timestamp":"2016-05-09T15:17:00+02:00"},{"datasetid":"laposte_hexasmal","recordid":"92527079885f736c8c43a8b17e971b06c14611b9","fields":{"nom_de_la_commune":"CAHORS","libell_d_acheminement":"CAHORS","code_postal":"46000","coordonnees_gps":[44.4507370916,1.44075837848],"code_commune_insee":"46042"},"geometry":{"type":"Point","coordinates":[1.44075837848,44.4507370916]},"record_timestamp":"2016-05-09T15:17:00+02:00"},{"datasetid":"laposte_hexasmal","recordid":"7ee58e3e90945f5b800c3339339005ab65cf55ea","fields":{"nom_de_la_commune":"CALAMANE","libell_d_acheminement":"CALAMANE","code_postal":"46150","coordonnees_gps":[44.5198122343,1.41032272742],"code_commune_insee":"46046"},"geometry":{"type":"Point","coordinates":[1.41032272742,44.5198122343]},"record_timestamp":"2016-05-09T15:17:00+02:00"},{"datasetid":"laposte_hexasmal","recordid":"f551c52a5df3e4826e6b0701ed21e54df77fa58f","fields":{"nom_de_la_commune":"CARAYAC","libell_d_acheminement":"CARAYAC","code_postal":"46160","coordonnees_gps":[44.5413491991,1.92274875489],"code_commune_insee":"46056"},"geometry":{"type":"Point","coordinates":[1.92274875489,44.5413491991]},"record_timestamp":"2016-05-09T15:17:00+02:00"},{"datasetid":"laposte_hexasmal","recordid":"7f5d8fe8ed34283563af36c15d16d0112fd41640","fields":{"nom_de_la_commune":"CAZALS","libell_d_acheminement":"CAZALS","code_postal":"46250","coordonnees_gps":[44.6457631404,1.22061089675],"code_commune_insee":"46066"},"geometry":{"type":"Point","coordinates":[1.22061089675,44.6457631404]},"record_timestamp":"2016-05-09T15:17:00+02:00"},{"datasetid":"laposte_hexasmal","recordid":"02fa4a2e5b3057cbef8cb6e4766d0ee537107435","fields":{"nom_de_la_commune":"CONCOTS","libell_d_acheminement":"CONCOTS","code_postal":"46260","coordonnees_gps":[44.3966512584,1.6428976522],"code_commune_insee":"46073"},"geometry":{"type":"Point","coordinates":[1.6428976522,44.3966512584]},"record_timestamp":"2016-05-09T15:17:00+02:00"},{"datasetid":"laposte_hexasmal","recordid":"fce9965803665db2d7f8743d437aeb064fb24c1c","fields":{"nom_de_la_commune":"COURS","libell_d_acheminement":"COURS","code_postal":"46090","coordonnees_gps":[44.5237046868,1.53038009913],"code_commune_insee":"46077"},"geometry":{"type":"Point","coordinates":[1.53038009913,44.5237046868]},"record_timestamp":"2016-05-09T15:17:00+02:00"},{"datasetid":"laposte_hexasmal","recordid":"dd233e01d9a2d805027b885038b66e786f6a43ff","fields":{"nom_de_la_commune":"FAJOLES","libell_d_acheminement":"FAJOLES","code_postal":"46300","coordonnees_gps":[44.8070487445,1.38268887877],"code_commune_insee":"46098"},"geometry":{"type":"Point","coordinates":[1.38268887877,44.8070487445]},"record_timestamp":"2016-05-09T15:17:00+02:00"},{"datasetid":"laposte_hexasmal","recordid":"3f84a1a474e22b3231900301e177355c9269e736","fields":{"nom_de_la_commune":"FAYCELLES","libell_d_acheminement":"FAYCELLES","code_postal":"46100","coordonnees_gps":[44.5656631085,1.99228446364],"code_commune_insee":"46100"},"geometry":{"type":"Point","coordinates":[1.99228446364,44.5656631085]},"record_timestamp":"2016-05-09T15:17:00+02:00"},{"datasetid":"laposte_hexasmal","recordid":"e98dc6f3e3186096845d51b0951950232f6b3b2b","fields":{"nom_de_la_commune":"FONTANES","libell_d_acheminement":"FONTANES","code_postal":"46230","coordonnees_gps":[44.3250209825,1.49032915385],"code_commune_insee":"46109"},"geometry":{"type":"Point","coordinates":[1.49032915385,44.3250209825]},"record_timestamp":"2016-05-09T15:17:00+02:00"},{"datasetid":"laposte_hexasmal","recordid":"36bc10157b63f4dc5076fa35070fd15e15e26017","fields":{"nom_de_la_commune":"FRANCOULES","libell_d_acheminement":"FRANCOULES","code_postal":"46090","coordonnees_gps":[44.5564275436,1.4876971855],"code_commune_insee":"46112"},"geometry":{"type":"Point","coordinates":[1.4876971855,44.5564275436]},"record_timestamp":"2016-05-09T15:17:00+02:00"},{"datasetid":"laposte_hexasmal","recordid":"f5fb5397a22f62bb74d310f75a15df0686dc88e7","fields":{"nom_de_la_commune":"GIRAC","libell_d_acheminement":"GIRAC","code_postal":"46130","coordonnees_gps":[44.9270878845,1.82484872808],"code_commune_insee":"46123"},"geometry":{"type":"Point","coordinates":[1.82484872808,44.9270878845]},"record_timestamp":"2016-05-09T15:17:00+02:00"},{"datasetid":"laposte_hexasmal","recordid":"4b022734f3926c07bafaf29e1efd45c5851db0b8","fields":{"nom_de_la_commune":"ISSEPTS","libell_d_acheminement":"ISSEPTS","code_postal":"46320","coordonnees_gps":[44.6769137032,1.91696387098],"code_commune_insee":"46133"},"geometry":{"type":"Point","coordinates":[1.91696387098,44.6769137032]},"record_timestamp":"2016-05-09T15:17:00+02:00"},{"datasetid":"laposte_hexasmal","recordid":"b8f7aa6bb2fa3cee1a6528e914a88dc8f269f807","fields":{"code_postal":"46240","code_commune_insee":"46138","libell_d_acheminement":"COEUR DE CAUSSE","ligne_5":"FONTANES DU CAUSSE","nom_de_la_commune":"COEUR DE CAUSSE","coordonnees_gps":[44.6484325779,1.58028882268]},"geometry":{"type":"Point","coordinates":[1.58028882268,44.6484325779]},"record_timestamp":"2016-05-09T15:17:00+02:00"},{"datasetid":"laposte_hexasmal","recordid":"f78fc0c9e4428df5a1672f48815e24a0aeb3de71","fields":{"code_postal":"46240","code_commune_insee":"46138","libell_d_acheminement":"COEUR DE CAUSSE","ligne_5":"ST SAUVEUR LA VALLEE","nom_de_la_commune":"COEUR DE CAUSSE","coordonnees_gps":[44.6484325779,1.58028882268]},"geometry":{"type":"Point","coordinates":[1.58028882268,44.6484325779]},"record_timestamp":"2016-05-09T15:17:00+02:00"},{"datasetid":"laposte_hexasmal","recordid":"08f53d4942b40fbfb324490160a87cf83a66948f","fields":{"nom_de_la_commune":"LABATHUDE","libell_d_acheminement":"LABATHUDE","code_postal":"46120","coordonnees_gps":[44.7362766747,1.98534615992],"code_commune_insee":"46139"},"geometry":{"type":"Point","coordinates":[1.98534615992,44.7362766747]},"record_timestamp":"2016-05-09T15:17:00+02:00"},{"datasetid":"laposte_hexasmal","recordid":"eb9cdd098fca753eb5b8d92ca37a0824eca73476","fields":{"nom_de_la_commune":"LACAVE","libell_d_acheminement":"LACAVE","code_postal":"46200","coordonnees_gps":[44.8404498298,1.55849192483],"code_commune_insee":"46144"},"geometry":{"type":"Point","coordinates":[1.55849192483,44.8404498298]},"record_timestamp":"2016-05-09T15:17:00+02:00"},{"datasetid":"laposte_hexasmal","recordid":"7fde1c42d4a5c441e4723b86282c3d43fbbcf5aa","fields":{"nom_de_la_commune":"LAGARDELLE","libell_d_acheminement":"LAGARDELLE","code_postal":"46220","coordonnees_gps":[44.4870907058,1.17069333497],"code_commune_insee":"46147"},"geometry":{"type":"Point","coordinates":[1.17069333497,44.4870907058]},"record_timestamp":"2016-05-09T15:17:00+02:00"},{"datasetid":"laposte_hexasmal","recordid":"0aa7f07df75959f141f4128214e43ab8d375ea93","fields":{"nom_de_la_commune":"LALBENQUE","libell_d_acheminement":"LALBENQUE","code_postal":"46230","coordonnees_gps":[44.3330164253,1.56498727825],"code_commune_insee":"46148"},"geometry":{"type":"Point","coordinates":[1.56498727825,44.3330164253]},"record_timestamp":"2016-05-09T15:17:00+02:00"},{"datasetid":"laposte_hexasmal","recordid":"ad91d20682341089e6d0c85700892826f86db411","fields":{"nom_de_la_commune":"LANZAC","libell_d_acheminement":"LANZAC","code_postal":"46200","coordonnees_gps":[44.8698887305,1.46972764942],"code_commune_insee":"46153"},"geometry":{"type":"Point","coordinates":[1.46972764942,44.8698887305]},"record_timestamp":"2016-05-09T15:17:00+02:00"},{"datasetid":"laposte_hexasmal","recordid":"66dcb892a9e470c2aacd1fa599188f971fc2cd82","fields":{"nom_de_la_commune":"LUNAN","libell_d_acheminement":"LUNAN","code_postal":"46100","coordonnees_gps":[44.6107026353,2.08424669582],"code_commune_insee":"46180"},"geometry":{"type":"Point","coordinates":[2.08424669582,44.6107026353]},"record_timestamp":"2016-05-09T15:17:00+02:00"},{"datasetid":"laposte_hexasmal","recordid":"ee98cc87aa487f877b9fb0f31e1f988ce10e8b76","fields":{"nom_de_la_commune":"MARTEL","libell_d_acheminement":"MARTEL","code_postal":"46600","coordonnees_gps":[44.9401536689,1.60734355344],"code_commune_insee":"46185"},"geometry":{"type":"Point","coordinates":[1.60734355344,44.9401536689]},"record_timestamp":"2016-05-09T15:17:00+02:00"},{"datasetid":"laposte_hexasmal","recordid":"2c0c838e00aca4390bc13ca04b65accd3dd1536e","fields":{"nom_de_la_commune":"MAUROUX","libell_d_acheminement":"MAUROUX","code_postal":"46700","coordonnees_gps":[44.4529573701,1.04640335319],"code_commune_insee":"46187"},"geometry":{"type":"Point","coordinates":[1.04640335319,44.4529573701]},"record_timestamp":"2016-05-09T15:17:00+02:00"},{"datasetid":"laposte_hexasmal","recordid":"91ce9222d36850f3f556f9ff308c6ec2fcee2954","fields":{"nom_de_la_commune":"MAXOU","libell_d_acheminement":"MAXOU","code_postal":"46090","coordonnees_gps":[44.5460613398,1.44746075267],"code_commune_insee":"46188"},"geometry":{"type":"Point","coordinates":[1.44746075267,44.5460613398]},"record_timestamp":"2016-05-09T15:17:00+02:00"},{"datasetid":"laposte_hexasmal","recordid":"72c08762e04078b2316d264d6546a3dc66c193a2","fields":{"nom_de_la_commune":"MAYRINHAC LENTOUR","libell_d_acheminement":"MAYRINHAC LENTOUR","code_postal":"46500","coordonnees_gps":[44.8130239525,1.80546272438],"code_commune_insee":"46189"},"geometry":{"type":"Point","coordinates":[1.80546272438,44.8130239525]},"record_timestamp":"2016-05-09T15:17:00+02:00"},{"datasetid":"laposte_hexasmal","recordid":"6a5729d5157bb5f8e84611de534207f3d638f896","fields":{"nom_de_la_commune":"LE MONTAT","libell_d_acheminement":"LE MONTAT","code_postal":"46090","coordonnees_gps":[44.3804715298,1.45487916761],"code_commune_insee":"46197"},"geometry":{"type":"Point","coordinates":[1.45487916761,44.3804715298]},"record_timestamp":"2016-05-09T15:17:00+02:00"},{"datasetid":"laposte_hexasmal","recordid":"3c07913aba81541d8715aec4d452f676406a6d72","fields":{"nom_de_la_commune":"MONTCABRIER","libell_d_acheminement":"MONTCABRIER","code_postal":"46700","coordonnees_gps":[44.5509026435,1.0816003002],"code_commune_insee":"46199"},"geometry":{"type":"Point","coordinates":[1.0816003002,44.5509026435]},"record_timestamp":"2016-05-09T15:17:00+02:00"},{"datasetid":"laposte_hexasmal","recordid":"8cda6a99e748e36aaaa9aa06ba9a6fa5903d52cd","fields":{"nom_de_la_commune":"MONTCUQ EN QUERCY BLANC","libell_d_acheminement":"MONTCUQ EN QUERCY BLANC","code_postal":"46800","coordonnees_gps":[44.335497631,1.21192283879],"code_commune_insee":"46201"},"geometry":{"type":"Point","coordinates":[1.21192283879,44.335497631]},"record_timestamp":"2016-05-09T15:17:00+02:00"},{"datasetid":"laposte_hexasmal","recordid":"e3d27b1e86d60964113356305d242621a8d82102","fields":{"nom_de_la_commune":"MONTET ET BOUXAL","libell_d_acheminement":"MONTET ET BOUXAL","code_postal":"46210","coordonnees_gps":[44.7484825909,2.03579923388],"code_commune_insee":"46203"},"geometry":{"type":"Point","coordinates":[2.03579923388,44.7484825909]},"record_timestamp":"2016-05-09T15:17:00+02:00"},{"datasetid":"laposte_hexasmal","recordid":"f829590eb8cd233f55bd7ca355db89ab19c67e42","fields":{"nom_de_la_commune":"MONTLAUZUN","libell_d_acheminement":"MONTLAUZUN","code_postal":"46800","coordonnees_gps":[44.296637625,1.19344943646],"code_commune_insee":"46206"},"geometry":{"type":"Point","coordinates":[1.19344943646,44.296637625]},"record_timestamp":"2016-05-09T15:17:00+02:00"},{"datasetid":"laposte_hexasmal","recordid":"8e4753a8b06a7829436be96ee5182de795dc0541","fields":{"nom_de_la_commune":"PONTCIRQ","libell_d_acheminement":"PONTCIRQ","code_postal":"46150","coordonnees_gps":[44.5453068327,1.26488009495],"code_commune_insee":"46223"},"geometry":{"type":"Point","coordinates":[1.26488009495,44.5453068327]},"record_timestamp":"2016-05-09T15:17:00+02:00"},{"datasetid":"laposte_hexasmal","recordid":"2036631f2f72d825c5a85cbde7798f0f13cdc982","fields":{"nom_de_la_commune":"PUYJOURDES","libell_d_acheminement":"PUYJOURDES","code_postal":"46260","coordonnees_gps":[44.401822561,1.85525892069],"code_commune_insee":"46230"},"geometry":{"type":"Point","coordinates":[1.85525892069,44.401822561]},"record_timestamp":"2016-05-09T15:17:00+02:00"},{"datasetid":"laposte_hexasmal","recordid":"602cbef9856c28d137640eebfcda2d3595663a6a","fields":{"nom_de_la_commune":"REILHAC","libell_d_acheminement":"REILHAC","code_postal":"46500","coordonnees_gps":[44.7017845632,1.72572975091],"code_commune_insee":"46235"},"geometry":{"type":"Point","coordinates":[1.72572975091,44.7017845632]},"record_timestamp":"2016-05-09T15:17:00+02:00"},{"datasetid":"laposte_hexasmal","recordid":"66f818ddfb52bea7ea4fffbc94244979967e22b5","fields":{"nom_de_la_commune":"REYREVIGNES","libell_d_acheminement":"REYREVIGNES","code_postal":"46320","coordonnees_gps":[44.6454378088,1.9117181352],"code_commune_insee":"46237"},"geometry":{"type":"Point","coordinates":[1.9117181352,44.6454378088]},"record_timestamp":"2016-05-09T15:17:00+02:00"},{"datasetid":"laposte_hexasmal","recordid":"f8e658027a364c3bf97600ef6d47d8c6c375b3e5","fields":{"code_postal":"46360","code_commune_insee":"46252","libell_d_acheminement":"LES PECHS DU VERS","ligne_5":"ST CERNIN","nom_de_la_commune":"LES PECHS DU VERS","coordonnees_gps":[44.5992781487,1.58540945458]},"geometry":{"type":"Point","coordinates":[1.58540945458,44.5992781487]},"record_timestamp":"2016-05-09T15:17:00+02:00"},{"datasetid":"laposte_hexasmal","recordid":"f0c09f17e79813d1a02b5698554fe032528f44ff","fields":{"nom_de_la_commune":"ST CIRQ LAPOPIE","libell_d_acheminement":"ST CIRQ LAPOPIE","code_postal":"46330","coordonnees_gps":[44.456177199,1.65375113458],"code_commune_insee":"46256"},"geometry":{"type":"Point","coordinates":[1.65375113458,44.456177199]},"record_timestamp":"2016-05-09T15:17:00+02:00"},{"datasetid":"laposte_hexasmal","recordid":"93de9ba4eab8e88a2c68a545b1333914f51d8025","fields":{"nom_de_la_commune":"ST CLAIR","libell_d_acheminement":"ST CLAIR","code_postal":"46300","coordonnees_gps":[44.6939193723,1.39885688127],"code_commune_insee":"46259"},"geometry":{"type":"Point","coordinates":[1.39885688127,44.6939193723]},"record_timestamp":"2016-05-09T15:17:00+02:00"},{"datasetid":"laposte_hexasmal","recordid":"80fe23ccf1fa9cde4e118ac2d1066782d4060bfc","fields":{"nom_de_la_commune":"ST CYPRIEN","libell_d_acheminement":"ST CYPRIEN","code_postal":"46800","coordonnees_gps":[44.3040998679,1.26251296057],"code_commune_insee":"46262"},"geometry":{"type":"Point","coordinates":[1.26251296057,44.3040998679]},"record_timestamp":"2016-05-09T15:17:00+02:00"},{"datasetid":"laposte_hexasmal","recordid":"26fb34e86999684b9522b84aa3ca3c754024f3b4","fields":{"nom_de_la_commune":"ST DENIS LES MARTEL","libell_d_acheminement":"ST DENIS LES MARTEL","code_postal":"46600","coordonnees_gps":[44.9453250919,1.6588440719],"code_commune_insee":"46265"},"geometry":{"type":"Point","coordinates":[1.6588440719,44.9453250919]},"record_timestamp":"2016-05-09T15:17:00+02:00"},{"datasetid":"laposte_hexasmal","recordid":"6650e78ae8c688463470097bd6117516a4f2a40c","fields":{"nom_de_la_commune":"ST GERMAIN DU BEL AIR","libell_d_acheminement":"ST GERMAIN DU BEL AIR","code_postal":"46310","coordonnees_gps":[44.6460780421,1.44147433368],"code_commune_insee":"46267"},"geometry":{"type":"Point","coordinates":[1.44147433368,44.6460780421]},"record_timestamp":"2016-05-09T15:17:00+02:00"},{"datasetid":"laposte_hexasmal","recordid":"395f417675d44816ca551550dca3a5923b6eee34","fields":{"nom_de_la_commune":"ST JEAN DE LAUR","libell_d_acheminement":"ST JEAN DE LAUR","code_postal":"46260","coordonnees_gps":[44.4301259055,1.83118318259],"code_commune_insee":"46270"},"geometry":{"type":"Point","coordinates":[1.83118318259,44.4301259055]},"record_timestamp":"2016-05-09T15:17:00+02:00"},{"datasetid":"laposte_hexasmal","recordid":"e57b53467443eaf74ef919a3edebb9c423971b9a","fields":{"nom_de_la_commune":"ST JEAN LESPINASSE","libell_d_acheminement":"ST JEAN LESPINASSE","code_postal":"46400","coordonnees_gps":[44.8581768481,1.85968660028],"code_commune_insee":"46271"},"geometry":{"type":"Point","coordinates":[1.85968660028,44.8581768481]},"record_timestamp":"2016-05-09T15:17:00+02:00"},{"datasetid":"laposte_hexasmal","recordid":"f590dba0a28244cb573c898c44bdd39611d366e3","fields":{"nom_de_la_commune":"SALVIAC","libell_d_acheminement":"SALVIAC","code_postal":"46340","coordonnees_gps":[44.6854910837,1.26478802676],"code_commune_insee":"46297"},"geometry":{"type":"Point","coordinates":[1.26478802676,44.6854910837]},"record_timestamp":"2016-05-09T15:17:00+02:00"},{"datasetid":"laposte_hexasmal","recordid":"2b64480901892f37736722f9d98837a03e943f26","fields":{"nom_de_la_commune":"SOTURAC","libell_d_acheminement":"SOTURAC","code_postal":"46700","coordonnees_gps":[44.5081490577,1.023587785],"code_commune_insee":"46307"},"geometry":{"type":"Point","coordinates":[1.023587785,44.5081490577]},"record_timestamp":"2016-05-09T15:17:00+02:00"},{"datasetid":"laposte_hexasmal","recordid":"3d34d3bde222520efc1c636dd17c51c060ec1f27","fields":{"nom_de_la_commune":"SOUCIRAC","libell_d_acheminement":"SOUCIRAC","code_postal":"46300","coordonnees_gps":[44.7068820239,1.50396524795],"code_commune_insee":"46308"},"geometry":{"type":"Point","coordinates":[1.50396524795,44.7068820239]},"record_timestamp":"2016-05-09T15:17:00+02:00"},{"datasetid":"laposte_hexasmal","recordid":"ef54b04f58443df092d64e5217385c235087a054","fields":{"nom_de_la_commune":"SOULOMES","libell_d_acheminement":"SOULOMES","code_postal":"46240","coordonnees_gps":[44.6269246895,1.59005920617],"code_commune_insee":"46310"},"geometry":{"type":"Point","coordinates":[1.59005920617,44.6269246895]},"record_timestamp":"2016-05-09T15:17:00+02:00"},{"datasetid":"laposte_hexasmal","recordid":"de51acce863ef1712597293b69ffc3bd38eb46fa","fields":{"code_postal":"46190","code_commune_insee":"46311","libell_d_acheminement":"SOUSCEYRAC EN QUERCY","ligne_5":"LACAM D OURCET","nom_de_la_commune":"SOUSCEYRAC EN QUERCY","coordonnees_gps":[44.8806327764,2.03547276303]},"geometry":{"type":"Point","coordinates":[2.03547276303,44.8806327764]},"record_timestamp":"2016-05-09T15:17:00+02:00"},{"datasetid":"laposte_hexasmal","recordid":"0883fffadf1624fc7f8d0321cae5cd9f718b3826","fields":{"nom_de_la_commune":"TEYSSIEU","libell_d_acheminement":"TEYSSIEU","code_postal":"46190","coordonnees_gps":[44.9167422017,1.95733992168],"code_commune_insee":"46315"},"geometry":{"type":"Point","coordinates":[1.95733992168,44.9167422017]},"record_timestamp":"2016-05-09T15:17:00+02:00"},{"datasetid":"laposte_hexasmal","recordid":"c40f3d14b3a5afcf9dab8d0943fc6da9f778e540","fields":{"nom_de_la_commune":"TOUR DE FAURE","libell_d_acheminement":"TOUR DE FAURE","code_postal":"46330","coordonnees_gps":[44.4763123907,1.68646550409],"code_commune_insee":"46320"},"geometry":{"type":"Point","coordinates":[1.68646550409,44.4763123907]},"record_timestamp":"2016-05-09T15:17:00+02:00"},{"datasetid":"laposte_hexasmal","recordid":"0af0dd8af5adabd7d4ae7602ecabea5f1ac400d1","fields":{"nom_de_la_commune":"USSEL","libell_d_acheminement":"USSEL","code_postal":"46240","coordonnees_gps":[44.5918903079,1.49596449018],"code_commune_insee":"46323"},"geometry":{"type":"Point","coordinates":[1.49596449018,44.5918903079]},"record_timestamp":"2016-05-09T15:17:00+02:00"},{"datasetid":"laposte_hexasmal","recordid":"48079e779ee5ec5f4791e74277f91288e0e109d2","fields":{"nom_de_la_commune":"VALROUFIE","libell_d_acheminement":"VALROUFIE","code_postal":"46090","coordonnees_gps":[44.5135576262,1.48695613582],"code_commune_insee":"46327"},"geometry":{"type":"Point","coordinates":[1.48695613582,44.5135576262]},"record_timestamp":"2016-05-09T15:17:00+02:00"},{"datasetid":"laposte_hexasmal","recordid":"0fbbe8746812cb6009e76ec9d6f04c52bfe1fdb6","fields":{"nom_de_la_commune":"VIDAILLAC","libell_d_acheminement":"VIDAILLAC","code_postal":"46260","coordonnees_gps":[44.346009469,1.81940730105],"code_commune_insee":"46333"},"geometry":{"type":"Point","coordinates":[1.81940730105,44.346009469]},"record_timestamp":"2016-05-09T15:17:00+02:00"},{"datasetid":"laposte_hexasmal","recordid":"1c477171ee5fa8295a68010ad22cf74fa50fef89","fields":{"nom_de_la_commune":"BESSONIES","libell_d_acheminement":"BESSONIES","code_postal":"46210","coordonnees_gps":[44.8085327316,2.14444051482],"code_commune_insee":"46338"},"geometry":{"type":"Point","coordinates":[2.14444051482,44.8085327316]},"record_timestamp":"2016-05-09T15:17:00+02:00"},