[{"datasetid":"laposte_hexasmal","recordid":"1984c67f0f70f2edd6c5241073f7a0af79e4ef37","fields":{"nom_de_la_commune":"ST MAURICE D IBIE","libell_d_acheminement":"ST MAURICE D IBIE","code_postal":"07170","coordonnees_gps":[44.4835993539,4.4824459032],"code_commune_insee":"07273"},"geometry":{"type":"Point","coordinates":[4.4824459032,44.4835993539]},"record_timestamp":"2016-05-09T15:17:00+02:00"},{"datasetid":"laposte_hexasmal","recordid":"ca2adc923810c2645d89f394cb4fb43fbd6df154","fields":{"nom_de_la_commune":"ST MAURICE EN CHALENCON","libell_d_acheminement":"ST MAURICE EN CHALENCON","code_postal":"07190","coordonnees_gps":[44.8548081951,4.58245400667],"code_commune_insee":"07274"},"geometry":{"type":"Point","coordinates":[4.58245400667,44.8548081951]},"record_timestamp":"2016-05-09T15:17:00+02:00"},{"datasetid":"laposte_hexasmal","recordid":"7bc20d232dd2bd7c99f0fb3a897a78deb8c5592a","fields":{"nom_de_la_commune":"ST MICHEL DE BOULOGNE","libell_d_acheminement":"ST MICHEL DE BOULOGNE","code_postal":"07200","coordonnees_gps":[44.6991000225,4.4327463684],"code_commune_insee":"07277"},"geometry":{"type":"Point","coordinates":[4.4327463684,44.6991000225]},"record_timestamp":"2016-05-09T15:17:00+02:00"},{"datasetid":"laposte_hexasmal","recordid":"11ba71c6a5178c2edc9c318baf8216f2530d24a4","fields":{"nom_de_la_commune":"ST MONTAN","libell_d_acheminement":"ST MONTAN","code_postal":"07220","coordonnees_gps":[44.4341193457,4.63258472487],"code_commune_insee":"07279"},"geometry":{"type":"Point","coordinates":[4.63258472487,44.4341193457]},"record_timestamp":"2016-05-09T15:17:00+02:00"},{"datasetid":"laposte_hexasmal","recordid":"2a7ccf2aee9c82276bc24f31b2c0d6b5e7a33a22","fields":{"nom_de_la_commune":"ST PIERRE ST JEAN","libell_d_acheminement":"ST PIERRE ST JEAN","code_postal":"07140","coordonnees_gps":[44.4825896332,4.10164484089],"code_commune_insee":"07284"},"geometry":{"type":"Point","coordinates":[4.10164484089,44.4825896332]},"record_timestamp":"2016-05-09T15:17:00+02:00"},{"datasetid":"laposte_hexasmal","recordid":"bf19ef40bc76552374f20c115f33dd1e539c6745","fields":{"nom_de_la_commune":"ST PIERRE SUR DOUX","libell_d_acheminement":"ST PIERRE SUR DOUX","code_postal":"07520","coordonnees_gps":[45.1287002576,4.48532647522],"code_commune_insee":"07285"},"geometry":{"type":"Point","coordinates":[4.48532647522,45.1287002576]},"record_timestamp":"2016-05-09T15:17:00+02:00"},{"datasetid":"laposte_hexasmal","recordid":"c64571adbd1061415f3b85dbc08066fc4132b162","fields":{"nom_de_la_commune":"ST PIERREVILLE","libell_d_acheminement":"ST PIERREVILLE","code_postal":"07190","coordonnees_gps":[44.819009873,4.48134078114],"code_commune_insee":"07286"},"geometry":{"type":"Point","coordinates":[4.48134078114,44.819009873]},"record_timestamp":"2016-05-09T15:17:00+02:00"},{"datasetid":"laposte_hexasmal","recordid":"a30a416b95617546ad0f04319866efcb13ba8e61","fields":{"nom_de_la_commune":"ST PONS","libell_d_acheminement":"ST PONS","code_postal":"07580","coordonnees_gps":[44.5987337858,4.57192531163],"code_commune_insee":"07287"},"geometry":{"type":"Point","coordinates":[4.57192531163,44.5987337858]},"record_timestamp":"2016-05-09T15:17:00+02:00"},{"datasetid":"laposte_hexasmal","recordid":"338a21694f631ad0e16562bddd4ba487f0e85775","fields":{"nom_de_la_commune":"LES SALELLES","libell_d_acheminement":"LES SALELLES","code_postal":"07140","coordonnees_gps":[44.4365281515,4.09837976088],"code_commune_insee":"07305"},"geometry":{"type":"Point","coordinates":[4.09837976088,44.4365281515]},"record_timestamp":"2016-05-09T15:17:00+02:00"},{"datasetid":"laposte_hexasmal","recordid":"2d491a4be64fb3199f3fffc9f80a9aa91654d686","fields":{"nom_de_la_commune":"SARRAS","libell_d_acheminement":"SARRAS","code_postal":"07370","coordonnees_gps":[45.1872505321,4.78407766188],"code_commune_insee":"07308"},"geometry":{"type":"Point","coordinates":[4.78407766188,45.1872505321]},"record_timestamp":"2016-05-09T15:17:00+02:00"},{"datasetid":"laposte_hexasmal","recordid":"7c84f65379f992ae1bd98ff09196d88c5060a68e","fields":{"nom_de_la_commune":"SATILLIEU","libell_d_acheminement":"SATILLIEU","code_postal":"07290","coordonnees_gps":[45.1414705974,4.58761138968],"code_commune_insee":"07309"},"geometry":{"type":"Point","coordinates":[4.58761138968,45.1414705974]},"record_timestamp":"2016-05-09T15:17:00+02:00"},{"datasetid":"laposte_hexasmal","recordid":"a9ed891a67ac6d2eff036a33f3f19aee22d33c2f","fields":{"nom_de_la_commune":"SCEAUTRES","libell_d_acheminement":"SCEAUTRES","code_postal":"07400","coordonnees_gps":[44.6167012065,4.60776940667],"code_commune_insee":"07311"},"geometry":{"type":"Point","coordinates":[4.60776940667,44.6167012065]},"record_timestamp":"2016-05-09T15:17:00+02:00"},{"datasetid":"laposte_hexasmal","recordid":"6def3a4d1c03fb4e80d61783a82c013a3e382cf8","fields":{"nom_de_la_commune":"SECHERAS","libell_d_acheminement":"SECHERAS","code_postal":"07610","coordonnees_gps":[45.1291892251,4.77685404459],"code_commune_insee":"07312"},"geometry":{"type":"Point","coordinates":[4.77685404459,45.1291892251]},"record_timestamp":"2016-05-09T15:17:00+02:00"},{"datasetid":"laposte_hexasmal","recordid":"c735312e5649e3337a63da82041c3a5262ccbe7a","fields":{"nom_de_la_commune":"SOYONS","libell_d_acheminement":"SOYONS","code_postal":"07130","coordonnees_gps":[44.8920478488,4.85094581265],"code_commune_insee":"07316"},"geometry":{"type":"Point","coordinates":[4.85094581265,44.8920478488]},"record_timestamp":"2016-05-09T15:17:00+02:00"},{"datasetid":"laposte_hexasmal","recordid":"656cc27c83c2c9ed549e280516834e90251ee6f8","fields":{"nom_de_la_commune":"USCLADES ET RIEUTORD","libell_d_acheminement":"USCLADES ET RIEUTORD","code_postal":"07510","coordonnees_gps":[44.7709560867,4.1691617243],"code_commune_insee":"07326"},"geometry":{"type":"Point","coordinates":[4.1691617243,44.7709560867]},"record_timestamp":"2016-05-09T15:17:00+02:00"},{"datasetid":"laposte_hexasmal","recordid":"3d960315a4fc5cf61a51da1a81f6286ac910d03c","fields":{"nom_de_la_commune":"VALLON PONT D ARC","libell_d_acheminement":"VALLON PONT D ARC","code_postal":"07150","coordonnees_gps":[44.4003012449,4.40537086036],"code_commune_insee":"07330"},"geometry":{"type":"Point","coordinates":[4.40537086036,44.4003012449]},"record_timestamp":"2016-05-09T15:17:00+02:00"},{"datasetid":"laposte_hexasmal","recordid":"9b9eec0492703e78088346ab83024e43ebaed1cf","fields":{"nom_de_la_commune":"VALVIGNERES","libell_d_acheminement":"VALVIGNERES","code_postal":"07400","coordonnees_gps":[44.5005207324,4.56110237736],"code_commune_insee":"07332"},"geometry":{"type":"Point","coordinates":[4.56110237736,44.5005207324]},"record_timestamp":"2016-05-09T15:17:00+02:00"},{"datasetid":"laposte_hexasmal","recordid":"4837ee97efd5eb6bb32467db6db4818be544409b","fields":{"nom_de_la_commune":"VILLEVOCANCE","libell_d_acheminement":"VILLEVOCANCE","code_postal":"07690","coordonnees_gps":[45.2257853403,4.59519658449],"code_commune_insee":"07342"},"geometry":{"type":"Point","coordinates":[4.59519658449,45.2257853403]},"record_timestamp":"2016-05-09T15:17:00+02:00"},{"datasetid":"laposte_hexasmal","recordid":"576c876675e2b9e8452ae7b12da1089c387c4f6a","fields":{"nom_de_la_commune":"LA VOULTE SUR RHONE","libell_d_acheminement":"LA VOULTE SUR RHONE","code_postal":"07800","coordonnees_gps":[44.8015403943,4.78018830634],"code_commune_insee":"07349"},"geometry":{"type":"Point","coordinates":[4.78018830634,44.8015403943]},"record_timestamp":"2016-05-09T15:17:00+02:00"},{"datasetid":"laposte_hexasmal","recordid":"98a9345407425ee5df724a5a94ed21766ec84aa9","fields":{"nom_de_la_commune":"AILHON","libell_d_acheminement":"AILHON","code_postal":"07200","coordonnees_gps":[44.5986106793,4.33305809833],"code_commune_insee":"07002"},"geometry":{"type":"Point","coordinates":[4.33305809833,44.5986106793]},"record_timestamp":"2016-05-09T15:17:00+02:00"},{"datasetid":"laposte_hexasmal","recordid":"77e650f1eac270c9a265d97cf7c8d0b6bdc1a244","fields":{"nom_de_la_commune":"ALBOUSSIERE","libell_d_acheminement":"ALBOUSSIERE","code_postal":"07440","coordonnees_gps":[44.9397584607,4.73413213329],"code_commune_insee":"07007"},"geometry":{"type":"Point","coordinates":[4.73413213329,44.9397584607]},"record_timestamp":"2016-05-09T15:17:00+02:00"},{"datasetid":"laposte_hexasmal","recordid":"a32f7ec0c27c282ef1c38f7a65b6b68a3e57e7d9","fields":{"nom_de_la_commune":"ALISSAS","libell_d_acheminement":"ALISSAS","code_postal":"07210","coordonnees_gps":[44.7070337034,4.6240636083],"code_commune_insee":"07008"},"geometry":{"type":"Point","coordinates":[4.6240636083,44.7070337034]},"record_timestamp":"2016-05-09T15:17:00+02:00"},{"datasetid":"laposte_hexasmal","recordid":"d41db48e3380140b1c31651e9558bb69aba4c664","fields":{"nom_de_la_commune":"ARLEBOSC","libell_d_acheminement":"ARLEBOSC","code_postal":"07410","coordonnees_gps":[45.0403037816,4.63051185018],"code_commune_insee":"07014"},"geometry":{"type":"Point","coordinates":[4.63051185018,45.0403037816]},"record_timestamp":"2016-05-09T15:17:00+02:00"},{"datasetid":"laposte_hexasmal","recordid":"9dd95a23018afe9535a51cdc3ca9189661198082","fields":{"nom_de_la_commune":"BAIX","libell_d_acheminement":"BAIX","code_postal":"07210","coordonnees_gps":[44.7063788805,4.75106497533],"code_commune_insee":"07022"},"geometry":{"type":"Point","coordinates":[4.75106497533,44.7063788805]},"record_timestamp":"2016-05-09T15:17:00+02:00"},{"datasetid":"laposte_hexasmal","recordid":"5c512d422961fcda635094a35ffd5cbc5cb0dab7","fields":{"nom_de_la_commune":"BANNE","libell_d_acheminement":"BANNE","code_postal":"07460","coordonnees_gps":[44.3607782702,4.15113804507],"code_commune_insee":"07024"},"geometry":{"type":"Point","coordinates":[4.15113804507,44.3607782702]},"record_timestamp":"2016-05-09T15:17:00+02:00"},{"datasetid":"laposte_hexasmal","recordid":"f52d81613b07264b6c2879f17d480bfbc915505d","fields":{"nom_de_la_commune":"BARNAS","libell_d_acheminement":"BARNAS","code_postal":"07330","coordonnees_gps":[44.6689664287,4.15925851766],"code_commune_insee":"07025"},"geometry":{"type":"Point","coordinates":[4.15925851766,44.6689664287]},"record_timestamp":"2016-05-09T15:17:00+02:00"},{"datasetid":"laposte_hexasmal","recordid":"dc1dc8d1d7ec53fa9b13f205bbda7841555b8485","fields":{"nom_de_la_commune":"LE BEAGE","libell_d_acheminement":"LE BEAGE","code_postal":"07630","coordonnees_gps":[44.8556634675,4.13043465741],"code_commune_insee":"07026"},"geometry":{"type":"Point","coordinates":[4.13043465741,44.8556634675]},"record_timestamp":"2016-05-09T15:17:00+02:00"},{"datasetid":"laposte_hexasmal","recordid":"07ed3a39092951908063ac166544f03451238504","fields":{"nom_de_la_commune":"BOFFRES","libell_d_acheminement":"BOFFRES","code_postal":"07440","coordonnees_gps":[44.919020401,4.69606511142],"code_commune_insee":"07035"},"geometry":{"type":"Point","coordinates":[4.69606511142,44.919020401]},"record_timestamp":"2016-05-09T15:17:00+02:00"},{"datasetid":"laposte_hexasmal","recordid":"d8cd6f06e80a3183899dcf6ef211bb3e2e369010","fields":{"nom_de_la_commune":"BOGY","libell_d_acheminement":"BOGY","code_postal":"07340","coordonnees_gps":[45.2801067144,4.76743317012],"code_commune_insee":"07036"},"geometry":{"type":"Point","coordinates":[4.76743317012,45.2801067144]},"record_timestamp":"2016-05-09T15:17:00+02:00"},{"datasetid":"laposte_hexasmal","recordid":"b77d02558c988c2cefca98439d9b996a8eb3a587","fields":{"nom_de_la_commune":"BOZAS","libell_d_acheminement":"BOZAS","code_postal":"07410","coordonnees_gps":[45.0587357457,4.64835888675],"code_commune_insee":"07039"},"geometry":{"type":"Point","coordinates":[4.64835888675,45.0587357457]},"record_timestamp":"2016-05-09T15:17:00+02:00"},{"datasetid":"laposte_hexasmal","recordid":"342182f3ca5c3c6ab2fe8c73b752c56591b3aa88","fields":{"nom_de_la_commune":"BOURG ST ANDEOL","libell_d_acheminement":"BOURG ST ANDEOL","code_postal":"07700","coordonnees_gps":[44.3830866916,4.61398365069],"code_commune_insee":"07042"},"geometry":{"type":"Point","coordinates":[4.61398365069,44.3830866916]},"record_timestamp":"2016-05-09T15:17:00+02:00"},{"datasetid":"laposte_hexasmal","recordid":"60045e25ccfbb8dceb1143e5b230ec20378a8887","fields":{"nom_de_la_commune":"CELLIER DU LUC","libell_d_acheminement":"CELLIER DU LUC","code_postal":"07590","coordonnees_gps":[44.6734677534,3.90176725594],"code_commune_insee":"07047"},"geometry":{"type":"Point","coordinates":[3.90176725594,44.6734677534]},"record_timestamp":"2016-05-09T15:17:00+02:00"},{"datasetid":"laposte_hexasmal","recordid":"cc4115e6704b57f93561eb279f82a74832883f07","fields":{"nom_de_la_commune":"CHAUZON","libell_d_acheminement":"CHAUZON","code_postal":"07120","coordonnees_gps":[44.4913888491,4.34449609751],"code_commune_insee":"07061"},"geometry":{"type":"Point","coordinates":[4.34449609751,44.4913888491]},"record_timestamp":"2016-05-09T15:17:00+02:00"},{"datasetid":"laposte_hexasmal","recordid":"3f3fc50c9b541c248910ca428f10cc61b4e60d30","fields":{"nom_de_la_commune":"CHEMINAS","libell_d_acheminement":"CHEMINAS","code_postal":"07300","coordonnees_gps":[45.1307657233,4.74087907307],"code_commune_insee":"07063"},"geometry":{"type":"Point","coordinates":[4.74087907307,45.1307657233]},"record_timestamp":"2016-05-09T15:17:00+02:00"},{"datasetid":"laposte_hexasmal","recordid":"9731539d504f1cd1eb7dd9a213cfd7c56567fa54","fields":{"nom_de_la_commune":"COLOMBIER LE JEUNE","libell_d_acheminement":"COLOMBIER LE JEUNE","code_postal":"07270","coordonnees_gps":[45.0115690732,4.71536623274],"code_commune_insee":"07068"},"geometry":{"type":"Point","coordinates":[4.71536623274,45.0115690732]},"record_timestamp":"2016-05-09T15:17:00+02:00"},{"datasetid":"laposte_hexasmal","recordid":"5982c2ae91cd4f0bb62fd954096b3bd9ea14ba23","fields":{"nom_de_la_commune":"FONS","libell_d_acheminement":"FONS","code_postal":"07200","coordonnees_gps":[44.5814496268,4.34709805042],"code_commune_insee":"07091"},"geometry":{"type":"Point","coordinates":[4.34709805042,44.5814496268]},"record_timestamp":"2016-05-09T15:17:00+02:00"},{"datasetid":"laposte_hexasmal","recordid":"f1738f774097b71c18a7a12e31e4ce1b989c8d61","fields":{"nom_de_la_commune":"GILHOC SUR ORMEZE","libell_d_acheminement":"GILHOC SUR ORMEZE","code_postal":"07270","coordonnees_gps":[44.9855282825,4.67742067444],"code_commune_insee":"07095"},"geometry":{"type":"Point","coordinates":[4.67742067444,44.9855282825]},"record_timestamp":"2016-05-09T15:17:00+02:00"},{"datasetid":"laposte_hexasmal","recordid":"66b6989275625d5c7eba4ff24ae3b726a152bf49","fields":{"nom_de_la_commune":"ISSANLAS","libell_d_acheminement":"ISSANLAS","code_postal":"07510","coordonnees_gps":[44.7669383227,4.01543417126],"code_commune_insee":"07105"},"geometry":{"type":"Point","coordinates":[4.01543417126,44.7669383227]},"record_timestamp":"2016-05-09T15:17:00+02:00"},{"datasetid":"laposte_hexasmal","recordid":"2469a4d5489dcc4a08bc680f011d71c5f6c2e5d5","fields":{"nom_de_la_commune":"JOANNAS","libell_d_acheminement":"JOANNAS","code_postal":"07110","coordonnees_gps":[44.5725478202,4.24633374271],"code_commune_insee":"07109"},"geometry":{"type":"Point","coordinates":[4.24633374271,44.5725478202]},"record_timestamp":"2016-05-09T15:17:00+02:00"},{"datasetid":"laposte_hexasmal","recordid":"1305ab4c73d6333fe8bc74a1d4db4db1e2056d12","fields":{"nom_de_la_commune":"LABATIE D ANDAURE","libell_d_acheminement":"LABATIE D ANDAURE","code_postal":"07570","coordonnees_gps":[45.0327655678,4.49525714027],"code_commune_insee":"07114"},"geometry":{"type":"Point","coordinates":[4.49525714027,45.0327655678]},"record_timestamp":"2016-05-09T15:17:00+02:00"},{"datasetid":"laposte_hexasmal","recordid":"f52b9d315f5fd4477ec10f94f1e3f0b789f9e38c","fields":{"nom_de_la_commune":"LE LAC D ISSARLES","libell_d_acheminement":"LE LAC D ISSARLES","code_postal":"07470","coordonnees_gps":[44.8233324216,4.07465283031],"code_commune_insee":"07119"},"geometry":{"type":"Point","coordinates":[4.07465283031,44.8233324216]},"record_timestamp":"2016-05-09T15:17:00+02:00"},{"datasetid":"laposte_hexasmal","recordid":"044e6a0f27656bb96a91cdd7bb231f5fe8cadb02","fields":{"nom_de_la_commune":"LACHAPELLE SOUS CHANEAC","libell_d_acheminement":"LACHAPELLE SOUS CHANEAC","code_postal":"07310","coordonnees_gps":[44.9541324494,4.31904223748],"code_commune_insee":"07123"},"geometry":{"type":"Point","coordinates":[4.31904223748,44.9541324494]},"record_timestamp":"2016-05-09T15:17:00+02:00"},{"datasetid":"laposte_hexasmal","recordid":"94e7a1fc1bd73d0843b9404109da4ca93bd4cabe","fields":{"nom_de_la_commune":"LAFARRE","libell_d_acheminement":"LAFARRE","code_postal":"07520","coordonnees_gps":[45.0784792733,4.51659927273],"code_commune_insee":"07124"},"geometry":{"type":"Point","coordinates":[4.51659927273,45.0784792733]},"record_timestamp":"2016-05-09T15:17:00+02:00"},{"datasetid":"laposte_hexasmal","recordid":"50b18549606960f03601dba91d16879d72958886","fields":{"nom_de_la_commune":"LAMASTRE","libell_d_acheminement":"LAMASTRE","code_postal":"07270","coordonnees_gps":[44.9822539936,4.59081075503],"code_commune_insee":"07129"},"geometry":{"type":"Point","coordinates":[4.59081075503,44.9822539936]},"record_timestamp":"2016-05-09T15:17:00+02:00"},{"datasetid":"laposte_hexasmal","recordid":"2c92d704ae0460dfb5e1367510eb8d8375ac3834","fields":{"nom_de_la_commune":"LAVILLATTE","libell_d_acheminement":"LAVILLATTE","code_postal":"07660","coordonnees_gps":[44.7411283435,3.95196079179],"code_commune_insee":"07137"},"geometry":{"type":"Point","coordinates":[3.95196079179,44.7411283435]},"record_timestamp":"2016-05-09T15:17:00+02:00"},{"datasetid":"laposte_hexasmal","recordid":"57ddc654832c2278a6af674c34c1cbf1c2a106f5","fields":{"nom_de_la_commune":"LENTILLERES","libell_d_acheminement":"LENTILLERES","code_postal":"07200","coordonnees_gps":[44.6092419896,4.29820132309],"code_commune_insee":"07141"},"geometry":{"type":"Point","coordinates":[4.29820132309,44.6092419896]},"record_timestamp":"2016-05-09T15:17:00+02:00"},{"datasetid":"laposte_hexasmal","recordid":"1a8aa435b40f6e25f24c189cc2fc31ed8c448e0e","fields":{"nom_de_la_commune":"LOUBARESSE","libell_d_acheminement":"LOUBARESSE","code_postal":"07110","coordonnees_gps":[44.5912762985,4.05088477316],"code_commune_insee":"07144"},"geometry":{"type":"Point","coordinates":[4.05088477316,44.5912762985]},"record_timestamp":"2016-05-09T15:17:00+02:00"},{"datasetid":"laposte_hexasmal","recordid":"fdf3746db74085d0214b95c142b0f49f370db7b8","fields":{"nom_de_la_commune":"MERCUER","libell_d_acheminement":"MERCUER","code_postal":"07200","coordonnees_gps":[44.6260697061,4.35077904415],"code_commune_insee":"07155"},"geometry":{"type":"Point","coordinates":[4.35077904415,44.6260697061]},"record_timestamp":"2016-05-09T15:17:00+02:00"},{"datasetid":"laposte_hexasmal","recordid":"ef4463658c697f3f80ed2ce2883bd432c2aebfdb","fields":{"nom_de_la_commune":"MONESTIER","libell_d_acheminement":"MONESTIER","code_postal":"07690","coordonnees_gps":[45.199947411,4.5047555186],"code_commune_insee":"07160"},"geometry":{"type":"Point","coordinates":[4.5047555186,45.199947411]},"record_timestamp":"2016-05-09T15:17:00+02:00"},{"datasetid":"laposte_hexasmal","recordid":"70dbc9c168d9bb378db89ba71ed4fbbc87ab3853","fields":{"nom_de_la_commune":"ORGNAC L AVEN","libell_d_acheminement":"ORGNAC L AVEN","code_postal":"07150","coordonnees_gps":[44.3101002443,4.42369715287],"code_commune_insee":"07168"},"geometry":{"type":"Point","coordinates":[4.42369715287,44.3101002443]},"record_timestamp":"2016-05-09T15:17:00+02:00"},{"datasetid":"laposte_hexasmal","recordid":"77e7f5b9e6d4b2acd97d88a82248e83fd6ea431b","fields":{"nom_de_la_commune":"OZON","libell_d_acheminement":"OZON","code_postal":"07370","coordonnees_gps":[45.1631858608,4.79658585866],"code_commune_insee":"07169"},"geometry":{"type":"Point","coordinates":[4.79658585866,45.1631858608]},"record_timestamp":"2016-05-09T15:17:00+02:00"},{"datasetid":"laposte_hexasmal","recordid":"c32c62320c615298c4a7759da806939418fb40cd","fields":{"nom_de_la_commune":"PEYRAUD","libell_d_acheminement":"PEYRAUD","code_postal":"07340","coordonnees_gps":[45.2964031304,4.78361394668],"code_commune_insee":"07174"},"geometry":{"type":"Point","coordinates":[4.78361394668,45.2964031304]},"record_timestamp":"2016-05-09T15:17:00+02:00"},{"datasetid":"laposte_hexasmal","recordid":"04b18cb8cac44fe8766e233edbf0a79839629615","fields":{"nom_de_la_commune":"LE POUZIN","libell_d_acheminement":"LE POUZIN","code_postal":"07250","coordonnees_gps":[44.751745622,4.74858526888],"code_commune_insee":"07181"},"geometry":{"type":"Point","coordinates":[4.74858526888,44.751745622]},"record_timestamp":"2016-05-09T15:17:00+02:00"},{"datasetid":"laposte_hexasmal","recordid":"8303ce793f15f9cdbe690c5e9d4bc1a87abb43ed","fields":{"nom_de_la_commune":"PRUNET","libell_d_acheminement":"PRUNET","code_postal":"07110","coordonnees_gps":[44.5954398585,4.25387564472],"code_commune_insee":"07187"},"geometry":{"type":"Point","coordinates":[4.25387564472,44.5954398585]},"record_timestamp":"2016-05-09T15:17:00+02:00"},{"datasetid":"laposte_hexasmal","recordid":"1227e5ff5aae8d56d2ac31d63152177d1fe13ca8","fields":{"nom_de_la_commune":"ROIFFIEUX","libell_d_acheminement":"ROIFFIEUX","code_postal":"07100","coordonnees_gps":[45.2189397431,4.64922144398],"code_commune_insee":"07197"},"geometry":{"type":"Point","coordinates":[4.64922144398,45.2189397431]},"record_timestamp":"2016-05-09T15:17:00+02:00"},{"datasetid":"laposte_hexasmal","recordid":"6e9675bceb5eda36ffdcd94612accf32b0ed6946","fields":{"nom_de_la_commune":"RUOMS","libell_d_acheminement":"RUOMS","code_postal":"07120","coordonnees_gps":[44.4479030757,4.34786189328],"code_commune_insee":"07201"},"geometry":{"type":"Point","coordinates":[4.34786189328,44.4479030757]},"record_timestamp":"2016-05-09T15:17:00+02:00"},{"datasetid":"laposte_hexasmal","recordid":"bf9067f95742474a7b778a34b8aa116e5560e3a1","fields":{"nom_de_la_commune":"SABLIERES","libell_d_acheminement":"SABLIERES","code_postal":"07260","coordonnees_gps":[44.5437864312,4.06325976737],"code_commune_insee":"07202"},"geometry":{"type":"Point","coordinates":[4.06325976737,44.5437864312]},"record_timestamp":"2016-05-09T15:17:00+02:00"},{"datasetid":"laposte_hexasmal","recordid":"bfdaba6242c77f28ab0a6ff2a00646bc474e6cc4","fields":{"nom_de_la_commune":"ST ALBAN D AY","libell_d_acheminement":"ST ALBAN D AY","code_postal":"07790","coordonnees_gps":[45.1862322828,4.63179784217],"code_commune_insee":"07205"},"geometry":{"type":"Point","coordinates":[4.63179784217,45.1862322828]},"record_timestamp":"2016-05-09T15:17:00+02:00"},{"datasetid":"laposte_hexasmal","recordid":"0329ba5198add8c15efc03583b00fc973e86441d","fields":{"nom_de_la_commune":"ST ANDEOL DE BERG","libell_d_acheminement":"ST ANDEOL DE BERG","code_postal":"07170","coordonnees_gps":[44.530020748,4.53661194159],"code_commune_insee":"07208"},"geometry":{"type":"Point","coordinates":[4.53661194159,44.530020748]},"record_timestamp":"2016-05-09T15:17:00+02:00"},{"datasetid":"laposte_hexasmal","recordid":"6c7603723a0aa79d09fac000c090678a46387dc5","fields":{"nom_de_la_commune":"ST ANDEOL DE FOURCHADES","libell_d_acheminement":"ST ANDEOL DE FOURCHADES","code_postal":"07160","coordonnees_gps":[44.844995475,4.28822767491],"code_commune_insee":"07209"},"geometry":{"type":"Point","coordinates":[4.28822767491,44.844995475]},"record_timestamp":"2016-05-09T15:17:00+02:00"},{"datasetid":"laposte_hexasmal","recordid":"9a017d506308f5e17402046b747de8485a3cf268","fields":{"nom_de_la_commune":"ST ANDEOL DE VALS","libell_d_acheminement":"ST ANDEOL DE VALS","code_postal":"07600","coordonnees_gps":[44.6925998295,4.40100662602],"code_commune_insee":"07210"},"geometry":{"type":"Point","coordinates":[4.40100662602,44.6925998295]},"record_timestamp":"2016-05-09T15:17:00+02:00"},{"datasetid":"laposte_hexasmal","recordid":"ed11b30e76ad1304189824a893089f71fcf15032","fields":{"nom_de_la_commune":"ST ANDRE DE CRUZIERES","libell_d_acheminement":"ST ANDRE DE CRUZIERES","code_postal":"07460","coordonnees_gps":[44.315163637,4.21241172389],"code_commune_insee":"07211"},"geometry":{"type":"Point","coordinates":[4.21241172389,44.315163637]},"record_timestamp":"2016-05-09T15:17:00+02:00"},{"datasetid":"laposte_hexasmal","recordid":"f7ac8b286936016c965b909e6865b143b0c3297e","fields":{"nom_de_la_commune":"ST BASILE","libell_d_acheminement":"ST BASILE","code_postal":"07270","coordonnees_gps":[44.9490355283,4.56160011901],"code_commune_insee":"07218"},"geometry":{"type":"Point","coordinates":[4.56160011901,44.9490355283]},"record_timestamp":"2016-05-09T15:17:00+02:00"},{"datasetid":"laposte_hexasmal","recordid":"68a6b11eeb3827459495caf782e271649dc16944","fields":{"nom_de_la_commune":"ST BAUZILE","libell_d_acheminement":"ST BAUZILE","code_postal":"07210","coordonnees_gps":[44.672668231,4.66869584538],"code_commune_insee":"07219"},"geometry":{"type":"Point","coordinates":[4.66869584538,44.672668231]},"record_timestamp":"2016-05-09T15:17:00+02:00"},{"datasetid":"laposte_hexasmal","recordid":"2bcc83421f5624f15409b8195b5575ac89a71469","fields":{"nom_de_la_commune":"ST CIERGE SOUS LE CHEYLARD","libell_d_acheminement":"ST CIERGE SOUS LE CHEYLARD","code_postal":"07160","coordonnees_gps":[44.926149144,4.45359829884],"code_commune_insee":"07222"},"geometry":{"type":"Point","coordinates":[4.45359829884,44.926149144]},"record_timestamp":"2016-05-09T15:17:00+02:00"},{"datasetid":"laposte_hexasmal","recordid":"10940fdc2cd2a8251b503464c2061d1a0a6ea811","fields":{"nom_de_la_commune":"ST CIRGUES DE PRADES","libell_d_acheminement":"ST CIRGUES DE PRADES","code_postal":"07380","coordonnees_gps":[44.6202111771,4.27429398841],"code_commune_insee":"07223"},"geometry":{"type":"Point","coordinates":[4.27429398841,44.6202111771]},"record_timestamp":"2016-05-09T15:17:00+02:00"},{"datasetid":"laposte_hexasmal","recordid":"8e603437ce7db3fd6582dc40ef082cfe450b6b9a","fields":{"nom_de_la_commune":"ST DIDIER SOUS AUBENAS","libell_d_acheminement":"ST DIDIER SOUS AUBENAS","code_postal":"07200","coordonnees_gps":[44.6117595327,4.42022719051],"code_commune_insee":"07229"},"geometry":{"type":"Point","coordinates":[4.42022719051,44.6117595327]},"record_timestamp":"2016-05-09T15:17:00+02:00"},{"datasetid":"laposte_hexasmal","recordid":"8c2dbbbbf9552135b5fb83be569025dc3a53cfc3","fields":{"nom_de_la_commune":"STE EULALIE","libell_d_acheminement":"STE EULALIE","code_postal":"07510","coordonnees_gps":[44.8287147176,4.18597793288],"code_commune_insee":"07235"},"geometry":{"type":"Point","coordinates":[4.18597793288,44.8287147176]},"record_timestamp":"2016-05-09T15:17:00+02:00"},{"datasetid":"laposte_hexasmal","recordid":"8c75851833f904de027b22701eb573be611bfec9","fields":{"nom_de_la_commune":"ST JACQUES D ATTICIEUX","libell_d_acheminement":"ST JACQUES D ATTICIEUX","code_postal":"07340","coordonnees_gps":[45.3318263343,4.66333060833],"code_commune_insee":"07243"},"geometry":{"type":"Point","coordinates":[4.66333060833,45.3318263343]},"record_timestamp":"2016-05-09T15:17:00+02:00"},{"datasetid":"laposte_hexasmal","recordid":"8a9b5b9c9deb2b5e9ae42e20adb3e08089444be8","fields":{"nom_de_la_commune":"ST JEAN DE MUZOLS","libell_d_acheminement":"ST JEAN DE MUZOLS","code_postal":"07300","coordonnees_gps":[45.0791512889,4.79987361991],"code_commune_insee":"07245"},"geometry":{"type":"Point","coordinates":[4.79987361991,45.0791512889]},"record_timestamp":"2016-05-09T15:17:00+02:00"},{"datasetid":"laposte_hexasmal","recordid":"a1ac58e6e5cf481e5c924b071ff1487b4d3bb741","fields":{"nom_de_la_commune":"ST JOSEPH DES BANCS","libell_d_acheminement":"ST JOSEPH DES BANCS","code_postal":"07530","coordonnees_gps":[44.748161488,4.41397525518],"code_commune_insee":"07251"},"geometry":{"type":"Point","coordinates":[4.41397525518,44.748161488]},"record_timestamp":"2016-05-09T15:17:00+02:00"},{"datasetid":"laposte_hexasmal","recordid":"419ba9d87b242a5dee90adb542157fea4dd0ab83","fields":{"nom_de_la_commune":"ST LAURENT DU PAPE","libell_d_acheminement":"ST LAURENT DU PAPE","code_postal":"07800","coordonnees_gps":[44.8232083643,4.7449478067],"code_commune_insee":"07261"},"geometry":{"type":"Point","coordinates":[4.7449478067,44.8232083643]},"record_timestamp":"2016-05-09T15:17:00+02:00"},{"datasetid":"laposte_hexasmal","recordid":"f2c6dbb9a9b12325cf34d55ef35c320544cf8fc2","fields":{"nom_de_la_commune":"ST LAURENT LES BAINS","libell_d_acheminement":"ST LAURENT LES BAINS","code_postal":"07590","coordonnees_gps":[44.5971365641,3.95806929863],"code_commune_insee":"07262"},"geometry":{"type":"Point","coordinates":[3.95806929863,44.5971365641]},"record_timestamp":"2016-05-09T15:17:00+02:00"},{"datasetid":"laposte_hexasmal","recordid":"5651e4c5af7c0fde3432dc3df5d0d48475259127","fields":{"nom_de_la_commune":"ST MARCEL LES ANNONAY","libell_d_acheminement":"ST MARCEL LES ANNONAY","code_postal":"07100","coordonnees_gps":[45.2885682592,4.62947742876],"code_commune_insee":"07265"},"geometry":{"type":"Point","coordinates":[4.62947742876,45.2885682592]},"record_timestamp":"2016-05-09T15:17:00+02:00"},{"datasetid":"laposte_hexasmal","recordid":"aed34f33ff9d2724db61d49ad6338e20cb50d299","fields":{"nom_de_la_commune":"ST PIERRE DE COLOMBIER","libell_d_acheminement":"ST PIERRE DE COLOMBIER","code_postal":"07450","coordonnees_gps":[44.7102969449,4.26637389652],"code_commune_insee":"07282"},"geometry":{"type":"Point","coordinates":[4.26637389652,44.7102969449]},"record_timestamp":"2016-05-09T15:17:00+02:00"},{"datasetid":"laposte_hexasmal","recordid":"d55bb67afe5095f679a6f53be6209772e923f237","fields":{"nom_de_la_commune":"ST PRIVAT","libell_d_acheminement":"ST PRIVAT","code_postal":"07200","coordonnees_gps":[44.6285700497,4.42285507734],"code_commune_insee":"07289"},"geometry":{"type":"Point","coordinates":[4.42285507734,44.6285700497]},"record_timestamp":"2016-05-09T15:17:00+02:00"},{"datasetid":"laposte_hexasmal","recordid":"512de168ff312eda934a7ddb013ae420c79f7766","fields":{"nom_de_la_commune":"ST SERNIN","libell_d_acheminement":"ST SERNIN","code_postal":"07200","coordonnees_gps":[44.5764544041,4.38197564257],"code_commune_insee":"07296"},"geometry":{"type":"Point","coordinates":[4.38197564257,44.5764544041]},"record_timestamp":"2016-05-09T15:17:00+02:00"},{"datasetid":"laposte_hexasmal","recordid":"a06b404de56d4d4bb3a0348f93f53f8729105b8b","fields":{"nom_de_la_commune":"ST SYMPHORIEN SOUS CHOMERAC","libell_d_acheminement":"ST SYMPHORIEN SOUS CHOMERAC","code_postal":"07210","coordonnees_gps":[44.7285052281,4.705839287],"code_commune_insee":"07298"},"geometry":{"type":"Point","coordinates":[4.705839287,44.7285052281]},"record_timestamp":"2016-05-09T15:17:00+02:00"},{"datasetid":"laposte_hexasmal","recordid":"5627a5ddb39ed67c6c7e42870f685a38f4ce142e","fields":{"nom_de_la_commune":"ST THOME","libell_d_acheminement":"ST THOME","code_postal":"07220","coordonnees_gps":[44.5023905897,4.61908212557],"code_commune_insee":"07300"},"geometry":{"type":"Point","coordinates":[4.61908212557,44.5023905897]},"record_timestamp":"2016-05-09T15:17:00+02:00"},{"datasetid":"laposte_hexasmal","recordid":"bb83b2f1ca915091cfa4c5093446914c123e314d","fields":{"nom_de_la_commune":"SAVAS","libell_d_acheminement":"SAVAS","code_postal":"07430","coordonnees_gps":[45.3013144956,4.67282946981],"code_commune_insee":"07310"},"geometry":{"type":"Point","coordinates":[4.67282946981,45.3013144956]},"record_timestamp":"2016-05-09T15:17:00+02:00"},{"datasetid":"laposte_hexasmal","recordid":"a1e54d8f9cc5ea1c96e9ab55330a620a07a67f2f","fields":{"nom_de_la_commune":"TALENCIEUX","libell_d_acheminement":"TALENCIEUX","code_postal":"07340","coordonnees_gps":[45.219237035,4.77408036091],"code_commune_insee":"07317"},"geometry":{"type":"Point","coordinates":[4.77408036091,45.219237035]},"record_timestamp":"2016-05-09T15:17:00+02:00"},{"datasetid":"laposte_hexasmal","recordid":"7404f3c9a1e46b81512a70d67b0128792905636c","fields":{"nom_de_la_commune":"THORRENC","libell_d_acheminement":"THORRENC","code_postal":"07340","coordonnees_gps":[45.2336802249,4.75948467595],"code_commune_insee":"07321"},"geometry":{"type":"Point","coordinates":[4.75948467595,45.2336802249]},"record_timestamp":"2016-05-09T15:17:00+02:00"},{"datasetid":"laposte_hexasmal","recordid":"6e443e0d7f8ca0ee9ac191e884167709feca7817","fields":{"nom_de_la_commune":"UZER","libell_d_acheminement":"UZER","code_postal":"07110","coordonnees_gps":[44.5176949506,4.3270953047],"code_commune_insee":"07327"},"geometry":{"type":"Point","coordinates":[4.3270953047,44.5176949506]},"record_timestamp":"2016-05-09T15:17:00+02:00"},{"datasetid":"laposte_hexasmal","recordid":"9bff559e26d5a49e4ca4e5f71ae56cf05b7e36c8","fields":{"nom_de_la_commune":"VAGNAS","libell_d_acheminement":"VAGNAS","code_postal":"07150","coordonnees_gps":[44.3596132039,4.34424564679],"code_commune_insee":"07328"},"geometry":{"type":"Point","coordinates":[4.34424564679,44.3596132039]},"record_timestamp":"2016-05-09T15:17:00+02:00"},{"datasetid":"laposte_hexasmal","recordid":"0d2b1f2d77790aa66a8bcd9e008b3028780feb55","fields":{"nom_de_la_commune":"VAUDEVANT","libell_d_acheminement":"VAUDEVANT","code_postal":"07410","coordonnees_gps":[45.1081841616,4.60737715144],"code_commune_insee":"07335"},"geometry":{"type":"Point","coordinates":[4.60737715144,45.1081841616]},"record_timestamp":"2016-05-09T15:17:00+02:00"},{"datasetid":"laposte_hexasmal","recordid":"94a285d5c5de72ef2243ae65f422d45f786a31ac","fields":{"nom_de_la_commune":"VERNOUX EN VIVARAIS","libell_d_acheminement":"VERNOUX EN VIVARAIS","code_postal":"07240","coordonnees_gps":[44.9051558168,4.64438568731],"code_commune_insee":"07338"},"geometry":{"type":"Point","coordinates":[4.64438568731,44.9051558168]},"record_timestamp":"2016-05-09T15:17:00+02:00"},{"datasetid":"laposte_hexasmal","recordid":"0c178b736f29edcb414000dc6815208a18b55087","fields":{"nom_de_la_commune":"VESSEAUX","libell_d_acheminement":"VESSEAUX","code_postal":"07200","coordonnees_gps":[44.6575169192,4.44419824196],"code_commune_insee":"07339"},"geometry":{"type":"Point","coordinates":[4.44419824196,44.6575169192]},"record_timestamp":"2016-05-09T15:17:00+02:00"},{"datasetid":"laposte_hexasmal","recordid":"85ada3ceb76f2417035d8a62cfaef2fbb2522143","fields":{"nom_de_la_commune":"VILLENEUVE DE BERG","libell_d_acheminement":"VILLENEUVE DE BERG","code_postal":"07170","coordonnees_gps":[44.549017078,4.50337369457],"code_commune_insee":"07341"},"geometry":{"type":"Point","coordinates":[4.50337369457,44.549017078]},"record_timestamp":"2016-05-09T15:17:00+02:00"},{"datasetid":"laposte_hexasmal","recordid":"58352d225fa5f8b7ade78dbebb0bfad2993f80ae","fields":{"nom_de_la_commune":"VOCANCE","libell_d_acheminement":"VOCANCE","code_postal":"07690","coordonnees_gps":[45.1946478686,4.56450150023],"code_commune_insee":"07347"},"geometry":{"type":"Point","coordinates":[4.56450150023,45.1946478686]},"record_timestamp":"2016-05-09T15:17:00+02:00"},{"datasetid":"laposte_hexasmal","recordid":"b80844a46186ef104d13567478fe1e5b92fa5c86","fields":{"nom_de_la_commune":"AIZAC","libell_d_acheminement":"AIZAC","code_postal":"07530","coordonnees_gps":[44.7196762414,4.3306729158],"code_commune_insee":"07003"},"geometry":{"type":"Point","coordinates":[4.3306729158,44.7196762414]},"record_timestamp":"2016-05-09T15:17:00+02:00"},{"datasetid":"laposte_hexasmal","recordid":"fd53e9b91a1b08b9aee0130339259836b7e085ab","fields":{"nom_de_la_commune":"ALBON D ARDECHE","libell_d_acheminement":"ALBON D ARDECHE","code_postal":"07190","coordonnees_gps":[44.8152938105,4.42503897561],"code_commune_insee":"07006"},"geometry":{"type":"Point","coordinates":[4.42503897561,44.8152938105]},"record_timestamp":"2016-05-09T15:17:00+02:00"},{"datasetid":"laposte_hexasmal","recordid":"25d29e535fb48b3427dc7780dbac77adff82ee15","fields":{"nom_de_la_commune":"ANNONAY","libell_d_acheminement":"ANNONAY","code_postal":"07100","coordonnees_gps":[45.2460902392,4.65026947295],"code_commune_insee":"07010"},"geometry":{"type":"Point","coordinates":[4.65026947295,45.2460902392]},"record_timestamp":"2016-05-09T15:17:00+02:00"},{"datasetid":"laposte_hexasmal","recordid":"941ba1c221d4c34ba24b19bc5fc14b06bb3e1745","fields":{"nom_de_la_commune":"AUBENAS","libell_d_acheminement":"AUBENAS","code_postal":"07200","coordonnees_gps":[44.6102127084,4.39638981424],"code_commune_insee":"07019"},"geometry":{"type":"Point","coordinates":[4.39638981424,44.6102127084]},"record_timestamp":"2016-05-09T15:17:00+02:00"},{"datasetid":"laposte_hexasmal","recordid":"76fd6abda695fb4b4dc80c1025d39888697f339b","fields":{"nom_de_la_commune":"BEAUMONT","libell_d_acheminement":"BEAUMONT","code_postal":"07110","coordonnees_gps":[44.5426503498,4.17181045381],"code_commune_insee":"07029"},"geometry":{"type":"Point","coordinates":[4.17181045381,44.5426503498]},"record_timestamp":"2016-05-09T15:17:00+02:00"},{"datasetid":"laposte_hexasmal","recordid":"3100b11ff855b0ea84acdb0f7a5f7dbb686b56e2","fields":{"nom_de_la_commune":"BIDON","libell_d_acheminement":"BIDON","code_postal":"07700","coordonnees_gps":[44.3567960749,4.54452567772],"code_commune_insee":"07034"},"geometry":{"type":"Point","coordinates":[4.54452567772,44.3567960749]},"record_timestamp":"2016-05-09T15:17:00+02:00"},{"datasetid":"laposte_hexasmal","recordid":"cb0e962eb75f6f895453acf16dec45acb630acbf","fields":{"nom_de_la_commune":"BOUCIEU LE ROI","libell_d_acheminement":"BOUCIEU LE ROI","code_postal":"07270","coordonnees_gps":[45.0288428449,4.68820163954],"code_commune_insee":"07040"},"geometry":{"type":"Point","coordinates":[4.68820163954,45.0288428449]},"record_timestamp":"2016-05-09T15:17:00+02:00"},{"datasetid":"laposte_hexasmal","recordid":"58eface1d0e3012f7c88576c3e0df8acbb2bab76","fields":{"nom_de_la_commune":"BROSSAINC","libell_d_acheminement":"BROSSAINC","code_postal":"07340","coordonnees_gps":[45.3271714387,4.67851483083],"code_commune_insee":"07044"},"geometry":{"type":"Point","coordinates":[4.67851483083,45.3271714387]},"record_timestamp":"2016-05-09T15:17:00+02:00"},{"datasetid":"laposte_hexasmal","recordid":"cbea91f6695144c5e6c2c2d830a18659b16ea487","fields":{"nom_de_la_commune":"CHAMPIS","libell_d_acheminement":"CHAMPIS","code_postal":"07440","coordonnees_gps":[44.9556198694,4.75241851344],"code_commune_insee":"07052"},"geometry":{"type":"Point","coordinates":[4.75241851344,44.9556198694]},"record_timestamp":"2016-05-09T15:17:00+02:00"},{"datasetid":"laposte_hexasmal","recordid":"9b5550fd5d48d14f226096710a1b3d5f5b318603","fields":{"nom_de_la_commune":"CHARMES SUR RHONE","libell_d_acheminement":"CHARMES SUR RHONE","code_postal":"07800","coordonnees_gps":[44.8667597066,4.83342054458],"code_commune_insee":"07055"},"geometry":{"type":"Point","coordinates":[4.83342054458,44.8667597066]},"record_timestamp":"2016-05-09T15:17:00+02:00"},{"datasetid":"laposte_hexasmal","recordid":"c7ddc548e1ef495593ca62c8a21974ea40f0dfd4","fields":{"nom_de_la_commune":"LE CHEYLARD","libell_d_acheminement":"LE CHEYLARD","code_postal":"07160","coordonnees_gps":[44.9076391858,4.42108479359],"code_commune_insee":"07064"},"geometry":{"type":"Point","coordinates":[4.42108479359,44.9076391858]},"record_timestamp":"2016-05-09T15:17:00+02:00"},{"datasetid":"laposte_hexasmal","recordid":"2be0c98f1554ecdb77550486daac8ffec649b7db","fields":{"nom_de_la_commune":"CHOMERAC","libell_d_acheminement":"CHOMERAC","code_postal":"07210","coordonnees_gps":[44.7102364616,4.67022375795],"code_commune_insee":"07066"},"geometry":{"type":"Point","coordinates":[4.67022375795,44.7102364616]},"record_timestamp":"2016-05-09T15:17:00+02:00"},{"datasetid":"laposte_hexasmal","recordid":"9925701d48d759b9796ca041996c6c2d10a82e40","fields":{"nom_de_la_commune":"LE CRESTET","libell_d_acheminement":"LE CRESTET","code_postal":"07270","coordonnees_gps":[45.0098651232,4.63903742378],"code_commune_insee":"07073"},"geometry":{"type":"Point","coordinates":[4.63903742378,45.0098651232]},"record_timestamp":"2016-05-09T15:17:00+02:00"},{"datasetid":"laposte_hexasmal","recordid":"bac57fa00b2ace3867f3501a5bcc6c875ce5f5fd","fields":{"nom_de_la_commune":"CREYSSEILLES","libell_d_acheminement":"CREYSSEILLES","code_postal":"07000","coordonnees_gps":[44.7598496931,4.53023781121],"code_commune_insee":"07074"},"geometry":{"type":"Point","coordinates":[4.53023781121,44.7598496931]},"record_timestamp":"2016-05-09T15:17:00+02:00"},{"datasetid":"laposte_hexasmal","recordid":"54791749d8ba1ab8932e584d0d378ce701cc979b","fields":{"nom_de_la_commune":"DARBRES","libell_d_acheminement":"DARBRES","code_postal":"07170","coordonnees_gps":[44.6599554077,4.51592801942],"code_commune_insee":"07077"},"geometry":{"type":"Point","coordinates":[4.51592801942,44.6599554077]},"record_timestamp":"2016-05-09T15:17:00+02:00"},{"datasetid":"laposte_hexasmal","recordid":"0238cfdf26c6cbe1a5386d0d92e8d0635e6172f7","fields":{"nom_de_la_commune":"ECLASSAN","libell_d_acheminement":"ECLASSAN","code_postal":"07370","coordonnees_gps":[45.1606533164,4.74888485543],"code_commune_insee":"07084"},"geometry":{"type":"Point","coordinates":[4.74888485543,45.1606533164]},"record_timestamp":"2016-05-09T15:17:00+02:00"},{"datasetid":"laposte_hexasmal","recordid":"749eac8b4787db71760cd3b606db669c24b7afce","fields":{"nom_de_la_commune":"ETABLES","libell_d_acheminement":"ETABLES","code_postal":"07300","coordonnees_gps":[45.0948570024,4.73950529738],"code_commune_insee":"07086"},"geometry":{"type":"Point","coordinates":[4.73950529738,45.0948570024]},"record_timestamp":"2016-05-09T15:17:00+02:00"},{"datasetid":"laposte_hexasmal","recordid":"a238f9abdd896219456218a2d3a10628d191072a","fields":{"nom_de_la_commune":"GILHAC ET BRUZAC","libell_d_acheminement":"GILHAC ET BRUZAC","code_postal":"07800","coordonnees_gps":[44.8632410732,4.74540308425],"code_commune_insee":"07094"},"geometry":{"type":"Point","coordinates":[4.74540308425,44.8632410732]},"record_timestamp":"2016-05-09T15:17:00+02:00"},{"datasetid":"laposte_hexasmal","recordid":"f876e18dd35dacd515bcae89933208dfd5bb1e21","fields":{"nom_de_la_commune":"GLUIRAS","libell_d_acheminement":"GLUIRAS","code_postal":"07190","coordonnees_gps":[44.8455602063,4.52583208054],"code_commune_insee":"07096"},"geometry":{"type":"Point","coordinates":[4.52583208054,44.8455602063]},"record_timestamp":"2016-05-09T15:17:00+02:00"},{"datasetid":"laposte_hexasmal","recordid":"fc7c43815fafef04787c1112fa62048c77e16b30","fields":{"nom_de_la_commune":"GRAS","libell_d_acheminement":"GRAS","code_postal":"07700","coordonnees_gps":[44.4453699955,4.5342825809],"code_commune_insee":"07099"},"geometry":{"type":"Point","coordinates":[4.5342825809,44.4453699955]},"record_timestamp":"2016-05-09T15:17:00+02:00"},{"datasetid":"laposte_hexasmal","recordid":"eb38dc62b5f21404a0513066f9380da5638bc08d","fields":{"nom_de_la_commune":"GROSPIERRES","libell_d_acheminement":"GROSPIERRES","code_postal":"07120","coordonnees_gps":[44.3930827383,4.28692737418],"code_commune_insee":"07101"},"geometry":{"type":"Point","coordinates":[4.28692737418,44.3930827383]},"record_timestamp":"2016-05-09T15:17:00+02:00"},{"datasetid":"laposte_hexasmal","recordid":"660adc2b48d8a7a625ec49673aadfa9e416f01ae","fields":{"nom_de_la_commune":"GUILHERAND GRANGES","libell_d_acheminement":"GUILHERAND GRANGES","code_postal":"07500","coordonnees_gps":[44.9301318307,4.86629603942],"code_commune_insee":"07102"},"geometry":{"type":"Point","coordinates":[4.86629603942,44.9301318307]},"record_timestamp":"2016-05-09T15:17:00+02:00"},{"datasetid":"laposte_hexasmal","recordid":"03a51cfda27109e765628b7ab2e4345f3bda0015","fields":{"nom_de_la_commune":"JAUJAC","libell_d_acheminement":"JAUJAC","code_postal":"07380","coordonnees_gps":[44.6298203979,4.23815139749],"code_commune_insee":"07107"},"geometry":{"type":"Point","coordinates":[4.23815139749,44.6298203979]},"record_timestamp":"2016-05-09T15:17:00+02:00"},{"datasetid":"laposte_hexasmal","recordid":"a4d404f219d876ece5e7205ab07d9adc92bf29ea","fields":{"nom_de_la_commune":"LABEAUME","libell_d_acheminement":"LABEAUME","code_postal":"07120","coordonnees_gps":[44.4680870605,4.31105082566],"code_commune_insee":"07115"},"geometry":{"type":"Point","coordinates":[4.31105082566,44.4680870605]},"record_timestamp":"2016-05-09T15:17:00+02:00"},{"datasetid":"laposte_hexasmal","recordid":"abe3f6f070377ca85b8aa5ecc07606032259a307","fields":{"code_postal":"07140","code_commune_insee":"07147","libell_d_acheminement":"MALARCE SUR LA THINES","ligne_5":"THINES","nom_de_la_commune":"MALARCE SUR LA THINES","coordonnees_gps":[44.4780272206,4.05011924136]},"geometry":{"type":"Point","coordinates":[4.05011924136,44.4780272206]},"record_timestamp":"2016-05-09T15:17:00+02:00"},{"datasetid":"laposte_hexasmal","recordid":"a5b103531db9c0d93fcf4df69fdc660334bb8cec","fields":{"nom_de_la_commune":"MARIAC","libell_d_acheminement":"MARIAC","code_postal":"07160","coordonnees_gps":[44.8859638189,4.35337034088],"code_commune_insee":"07150"},"geometry":{"type":"Point","coordinates":[4.35337034088,44.8859638189]},"record_timestamp":"2016-05-09T15:17:00+02:00"},{"datasetid":"laposte_hexasmal","recordid":"919186aff3e7818012c5dfad7a84e6540533cadc","fields":{"nom_de_la_commune":"MAYRES","libell_d_acheminement":"MAYRES","code_postal":"07330","coordonnees_gps":[44.6646143476,4.10092674787],"code_commune_insee":"07153"},"geometry":{"type":"Point","coordinates":[4.10092674787,44.6646143476]},"record_timestamp":"2016-05-09T15:17:00+02:00"},{"datasetid":"laposte_hexasmal","recordid":"7395a086f8eb852c2a5b8f17a4db3ae870ed29e3","fields":{"nom_de_la_commune":"PEAUGRES","libell_d_acheminement":"PEAUGRES","code_postal":"07340","coordonnees_gps":[45.2857807098,4.72747805706],"code_commune_insee":"07172"},"geometry":{"type":"Point","coordinates":[4.72747805706,45.2857807098]},"record_timestamp":"2016-05-09T15:17:00+02:00"},{"datasetid":"laposte_hexasmal","recordid":"438e6721c69e1d093d31d754001d552eb25e278e","fields":{"nom_de_la_commune":"PRADONS","libell_d_acheminement":"PRADONS","code_postal":"07120","coordonnees_gps":[44.473019743,4.37584445661],"code_commune_insee":"07183"},"geometry":{"type":"Point","coordinates":[4.37584445661,44.473019743]},"record_timestamp":"2016-05-09T15:17:00+02:00"},{"datasetid":"laposte_hexasmal","recordid":"616d78c7dfa2d260b244e6946c0eb25ff22568f6","fields":{"nom_de_la_commune":"PRIVAS","libell_d_acheminement":"PRIVAS","code_postal":"07000","coordonnees_gps":[44.7225391147,4.59449538667],"code_commune_insee":"07186"},"geometry":{"type":"Point","coordinates":[4.59449538667,44.7225391147]},"record_timestamp":"2016-05-09T15:17:00+02:00"},{"datasetid":"laposte_hexasmal","recordid":"0d67dbbaa2d625c782f91f3b8f8fec52ea60c96a","fields":{"nom_de_la_commune":"ROCHEPAULE","libell_d_acheminement":"ROCHEPAULE","code_postal":"07320","coordonnees_gps":[45.0856715901,4.45942671204],"code_commune_insee":"07192"},"geometry":{"type":"Point","coordinates":[4.45942671204,45.0856715901]},"record_timestamp":"2016-05-09T15:17:00+02:00"},{"datasetid":"laposte_hexasmal","recordid":"cbcfb9a7ca76155f7f19142b2dfd0bb62119cd11","fields":{"nom_de_la_commune":"ROCHESSAUVE","libell_d_acheminement":"ROCHESSAUVE","code_postal":"07210","coordonnees_gps":[44.6806789523,4.61124085602],"code_commune_insee":"07194"},"geometry":{"type":"Point","coordinates":[4.61124085602,44.6806789523]},"record_timestamp":"2016-05-09T15:17:00+02:00"},{"datasetid":"laposte_hexasmal","recordid":"c93247f02a994de7dcc22e51ced3f9ce94075103","fields":{"nom_de_la_commune":"LA ROCHETTE","libell_d_acheminement":"LA ROCHETTE","code_postal":"07310","coordonnees_gps":[44.9217587491,4.23164949821],"code_commune_insee":"07195"},"geometry":{"type":"Point","coordinates":[4.23164949821,44.9217587491]},"record_timestamp":"2016-05-09T15:17:00+02:00"},{"datasetid":"laposte_hexasmal","recordid":"1fdfa38286daf86c8e5fb8884b67ca4f7694476b","fields":{"nom_de_la_commune":"ROMPON","libell_d_acheminement":"ROMPON","code_postal":"07250","coordonnees_gps":[44.7787195427,4.73009856646],"code_commune_insee":"07198"},"geometry":{"type":"Point","coordinates":[4.73009856646,44.7787195427]},"record_timestamp":"2016-05-09T15:17:00+02:00"},{"datasetid":"laposte_hexasmal","recordid":"d453a1c576fecdd9fcd6af647d54d54f04254b3d","fields":{"nom_de_la_commune":"LE ROUX","libell_d_acheminement":"LE ROUX","code_postal":"07560","coordonnees_gps":[44.7211157335,4.14333586468],"code_commune_insee":"07200"},"geometry":{"type":"Point","coordinates":[4.14333586468,44.7211157335]},"record_timestamp":"2016-05-09T15:17:00+02:00"},{"datasetid":"laposte_hexasmal","recordid":"378d841945e2323f887ed2bc438afd8f75a07e0b","fields":{"code_postal":"07320","code_commune_insee":"07204","libell_d_acheminement":"ST AGREVE","ligne_5":"LE POUZAT","nom_de_la_commune":"ST AGREVE","coordonnees_gps":[45.0052980637,4.41285687419]},"geometry":{"type":"Point","coordinates":[4.41285687419,45.0052980637]},"record_timestamp":"2016-05-09T15:17:00+02:00"},{"datasetid":"laposte_hexasmal","recordid":"fec006982fd1c882501c5da4e31adc421810b0de","fields":{"nom_de_la_commune":"ST ANDRE EN VIVARAIS","libell_d_acheminement":"ST ANDRE EN VIVARAIS","code_postal":"07690","coordonnees_gps":[45.1164853445,4.40960303294],"code_commune_insee":"07212"},"geometry":{"type":"Point","coordinates":[4.40960303294,45.1164853445]},"record_timestamp":"2016-05-09T15:17:00+02:00"},{"datasetid":"laposte_hexasmal","recordid":"f0442f5973c42e6b38dfdfd3f1e25980e24e45c5","fields":{"nom_de_la_commune":"ST ANDRE LACHAMP","libell_d_acheminement":"ST ANDRE LACHAMP","code_postal":"07230","coordonnees_gps":[44.5075453223,4.15221275695],"code_commune_insee":"07213"},"geometry":{"type":"Point","coordinates":[4.15221275695,44.5075453223]},"record_timestamp":"2016-05-09T15:17:00+02:00"},{"datasetid":"laposte_hexasmal","recordid":"c6848fd0d9eef44ae74dd366aa1e0869fed628bd","fields":{"nom_de_la_commune":"ST CIERGE LA SERRE","libell_d_acheminement":"ST CIERGE LA SERRE","code_postal":"07800","coordonnees_gps":[44.7935573483,4.6802724287],"code_commune_insee":"07221"},"geometry":{"type":"Point","coordinates":[4.6802724287,44.7935573483]},"record_timestamp":"2016-05-09T15:17:00+02:00"},{"datasetid":"laposte_hexasmal","recordid":"f9cd9055861edb772020957c71dfba211dc9e518","fields":{"nom_de_la_commune":"ST CLEMENT","libell_d_acheminement":"ST CLEMENT","code_postal":"07310","coordonnees_gps":[44.9499994905,4.26018660775],"code_commune_insee":"07226"},"geometry":{"type":"Point","coordinates":[4.26018660775,44.9499994905]},"record_timestamp":"2016-05-09T15:17:00+02:00"},{"datasetid":"laposte_hexasmal","recordid":"c541268fce2ff3071ba540b9cd05015121c6a9f1","fields":{"nom_de_la_commune":"ST DESIRAT","libell_d_acheminement":"ST DESIRAT","code_postal":"07340","coordonnees_gps":[45.2586090044,4.77940382807],"code_commune_insee":"07228"},"geometry":{"type":"Point","coordinates":[4.77940382807,45.2586090044]},"record_timestamp":"2016-05-09T15:17:00+02:00"},{"datasetid":"laposte_hexasmal","recordid":"518d97e8da710c7f97caeedd411da9dbf156fa35","fields":{"nom_de_la_commune":"ST JEURE D ANDAURE","libell_d_acheminement":"ST JEURE D ANDAURE","code_postal":"07320","coordonnees_gps":[45.0478373681,4.46395685246],"code_commune_insee":"07249"},"geometry":{"type":"Point","coordinates":[4.46395685246,45.0478373681]},"record_timestamp":"2016-05-09T15:17:00+02:00"},{"datasetid":"laposte_hexasmal","recordid":"b177ed20ec282e459a649980fa2b8b1b36c89dca","fields":{"nom_de_la_commune":"ST JULIEN EN ST ALBAN","libell_d_acheminement":"ST JULIEN EN ST ALBAN","code_postal":"07000","coordonnees_gps":[44.7586202476,4.69261801015],"code_commune_insee":"07255"},"geometry":{"type":"Point","coordinates":[4.69261801015,44.7586202476]},"record_timestamp":"2016-05-09T15:17:00+02:00"},{"datasetid":"laposte_hexasmal","recordid":"9d6be13212ad0d8bba5397545fe1fda48b8d3852","fields":{"nom_de_la_commune":"ST LAGER BRESSAC","libell_d_acheminement":"ST LAGER BRESSAC","code_postal":"07210","coordonnees_gps":[44.6916750931,4.71621277437],"code_commune_insee":"07260"},"geometry":{"type":"Point","coordinates":[4.71621277437,44.6916750931]},"record_timestamp":"2016-05-09T15:17:00+02:00"},{"datasetid":"laposte_hexasmal","recordid":"a049482755f2ce5da8f142e56eeae4a84dbd5436","fields":{"nom_de_la_commune":"ST MARCEL D ARDECHE","libell_d_acheminement":"ST MARCEL D ARDECHE","code_postal":"07700","coordonnees_gps":[44.3299965394,4.60656490626],"code_commune_insee":"07264"},"geometry":{"type":"Point","coordinates":[4.60656490626,44.3299965394]},"record_timestamp":"2016-05-09T15:17:00+02:00"},{"datasetid":"laposte_hexasmal","recordid":"b72c2daed5af47450aa76d247f5b7eea8cddf885","fields":{"nom_de_la_commune":"STE MARGUERITE LAFIGERE","libell_d_acheminement":"STE MARGUERITE LAFIGERE","code_postal":"07140","coordonnees_gps":[44.4845583529,3.99775571578],"code_commune_insee":"07266"},"geometry":{"type":"Point","coordinates":[3.99775571578,44.4845583529]},"record_timestamp":"2016-05-09T15:17:00+02:00"},{"datasetid":"laposte_hexasmal","recordid":"36c5406c7823b7161ad29e8e30e837aebb0cb29c","fields":{"nom_de_la_commune":"ST MARTIN DE VALAMAS","libell_d_acheminement":"ST MARTIN DE VALAMAS","code_postal":"07310","coordonnees_gps":[44.9365910249,4.37076169199],"code_commune_insee":"07269"},"geometry":{"type":"Point","coordinates":[4.37076169199,44.9365910249]},"record_timestamp":"2016-05-09T15:17:00+02:00"},{"datasetid":"laposte_hexasmal","recordid":"539e0a7b03453ce6216785212a33a88859f1d259","fields":{"nom_de_la_commune":"ALBA LA ROMAINE","libell_d_acheminement":"ALBA LA ROMAINE","code_postal":"07400","coordonnees_gps":[44.5544439142,4.59597695147],"code_commune_insee":"07005"},"geometry":{"type":"Point","coordinates":[4.59597695147,44.5544439142]},"record_timestamp":"2016-05-09T15:17:00+02:00"},{"datasetid":"laposte_hexasmal","recordid":"fc5ec042f0ac7fccd24c9547453270487053fb94","fields":{"nom_de_la_commune":"ARDOIX","libell_d_acheminement":"ARDOIX","code_postal":"07290","coordonnees_gps":[45.1913605655,4.74320427692],"code_commune_insee":"07013"},"geometry":{"type":"Point","coordinates":[4.74320427692,45.1913605655]},"record_timestamp":"2016-05-09T15:17:00+02:00"},{"datasetid":"laposte_hexasmal","recordid":"a5513882df08996d71d0c633d9464c4c3d5932fb","fields":{"nom_de_la_commune":"ASPERJOC","libell_d_acheminement":"ASPERJOC","code_postal":"07600","coordonnees_gps":[44.6950645443,4.35089629456],"code_commune_insee":"07016"},"geometry":{"type":"Point","coordinates":[4.35089629456,44.6950645443]},"record_timestamp":"2016-05-09T15:17:00+02:00"},{"datasetid":"laposte_hexasmal","recordid":"ffc0d8e70b3590a97b3cf6b028772c71ef3a897c","fields":{"nom_de_la_commune":"AUBIGNAS","libell_d_acheminement":"AUBIGNAS","code_postal":"07400","coordonnees_gps":[44.5854785853,4.63389075909],"code_commune_insee":"07020"},"geometry":{"type":"Point","coordinates":[4.63389075909,44.5854785853]},"record_timestamp":"2016-05-09T15:17:00+02:00"},{"datasetid":"laposte_hexasmal","recordid":"5125f9cd8229bde2b329afdb665d521b054b8083","fields":{"nom_de_la_commune":"BEAUCHASTEL","libell_d_acheminement":"BEAUCHASTEL","code_postal":"07800","coordonnees_gps":[44.8294995047,4.79715382132],"code_commune_insee":"07027"},"geometry":{"type":"Point","coordinates":[4.79715382132,44.8294995047]},"record_timestamp":"2016-05-09T15:17:00+02:00"},{"datasetid":"laposte_hexasmal","recordid":"76f04fdb3a23c99779345132571f241dd10d6100","fields":{"nom_de_la_commune":"BEAULIEU","libell_d_acheminement":"BEAULIEU","code_postal":"07460","coordonnees_gps":[44.3546311078,4.25062082781],"code_commune_insee":"07028"},"geometry":{"type":"Point","coordinates":[4.25062082781,44.3546311078]},"record_timestamp":"2016-05-09T15:17:00+02:00"},{"datasetid":"laposte_hexasmal","recordid":"d1291d227f1a136619f453f4709bd33577e9ad0c","fields":{"nom_de_la_commune":"BEAUVENE","libell_d_acheminement":"BEAUVENE","code_postal":"07190","coordonnees_gps":[44.8695132682,4.51162362429],"code_commune_insee":"07030"},"geometry":{"type":"Point","coordinates":[4.51162362429,44.8695132682]},"record_timestamp":"2016-05-09T15:17:00+02:00"},{"datasetid":"laposte_hexasmal","recordid":"1ebed5ec0bb5e4592039aaaaf24a9bf068cd76d7","fields":{"nom_de_la_commune":"BESSAS","libell_d_acheminement":"BESSAS","code_postal":"07150","coordonnees_gps":[44.3375930033,4.2983262809],"code_commune_insee":"07033"},"geometry":{"type":"Point","coordinates":[4.2983262809,44.3375930033]},"record_timestamp":"2016-05-09T15:17:00+02:00"},{"datasetid":"laposte_hexasmal","recordid":"0018cfea78102980fe7de3b9da29932b5d28ca3e","fields":{"nom_de_la_commune":"BURZET","libell_d_acheminement":"BURZET","code_postal":"07450","coordonnees_gps":[44.748232889,4.23385605882],"code_commune_insee":"07045"},"geometry":{"type":"Point","coordinates":[4.23385605882,44.748232889]},"record_timestamp":"2016-05-09T15:17:00+02:00"},{"datasetid":"laposte_hexasmal","recordid":"5c31f2b1882188808b043486b17b14ec5d59c623","fields":{"nom_de_la_commune":"CHAMPAGNE","libell_d_acheminement":"CHAMPAGNE","code_postal":"07340","coordonnees_gps":[45.2767867383,4.79826211581],"code_commune_insee":"07051"},"geometry":{"type":"Point","coordinates":[4.79826211581,45.2767867383]},"record_timestamp":"2016-05-09T15:17:00+02:00"},{"datasetid":"laposte_hexasmal","recordid":"43e579867c83692ed8e1dd780c83513ca8ca9687","fields":{"nom_de_la_commune":"CHASSIERS","libell_d_acheminement":"CHASSIERS","code_postal":"07110","coordonnees_gps":[44.5660636279,4.30216796986],"code_commune_insee":"07058"},"geometry":{"type":"Point","coordinates":[4.30216796986,44.5660636279]},"record_timestamp":"2016-05-09T15:17:00+02:00"},{"datasetid":"laposte_hexasmal","recordid":"bcacd51f38489ff6f4fa96495bebc4fe75919695","fields":{"nom_de_la_commune":"CHATEAUBOURG","libell_d_acheminement":"CHATEAUBOURG","code_postal":"07130","coordonnees_gps":[44.9874244104,4.83836116211],"code_commune_insee":"07059"},"geometry":{"type":"Point","coordinates":[4.83836116211,44.9874244104]},"record_timestamp":"2016-05-09T15:17:00+02:00"},{"datasetid":"laposte_hexasmal","recordid":"8c79a345577de21adb06834d7323cb1705178d59","fields":{"nom_de_la_commune":"CHIROLS","libell_d_acheminement":"CHIROLS","code_postal":"07380","coordonnees_gps":[44.6879981327,4.2951862476],"code_commune_insee":"07065"},"geometry":{"type":"Point","coordinates":[4.2951862476,44.6879981327]},"record_timestamp":"2016-05-09T15:17:00+02:00"},{"datasetid":"laposte_hexasmal","recordid":"05646d7a1241b4c4a9b51fdf1d6ec8c39e30819b","fields":{"nom_de_la_commune":"COLOMBIER LE CARDINAL","libell_d_acheminement":"COLOMBIER LE CARDINAL","code_postal":"07430","coordonnees_gps":[45.2645730149,4.74565260834],"code_commune_insee":"07067"},"geometry":{"type":"Point","coordinates":[4.74565260834,45.2645730149]},"record_timestamp":"2016-05-09T15:17:00+02:00"},{"datasetid":"laposte_hexasmal","recordid":"e8b0a44b9e3ac2b3e34c9fa0be1cb5c49a265f16","fields":{"nom_de_la_commune":"CRUAS","libell_d_acheminement":"CRUAS","code_postal":"07350","coordonnees_gps":[44.6566420857,4.75658824385],"code_commune_insee":"07076"},"geometry":{"type":"Point","coordinates":[4.75658824385,44.6566420857]},"record_timestamp":"2016-05-09T15:17:00+02:00"},{"datasetid":"laposte_hexasmal","recordid":"9ceb88293fbb14027454fd7785cbe29921b37097","fields":{"nom_de_la_commune":"DEVESSET","libell_d_acheminement":"DEVESSET","code_postal":"07320","coordonnees_gps":[45.0660987902,4.39288168953],"code_commune_insee":"07080"},"geometry":{"type":"Point","coordinates":[4.39288168953,45.0660987902]},"record_timestamp":"2016-05-09T15:17:00+02:00"},{"datasetid":"laposte_hexasmal","recordid":"6774abf87ca71ae6253a7d10cf2c05d3d73dfa9a","fields":{"nom_de_la_commune":"DOMPNAC","libell_d_acheminement":"DOMPNAC","code_postal":"07260","coordonnees_gps":[44.5628656588,4.1071679513],"code_commune_insee":"07081"},"geometry":{"type":"Point","coordinates":[4.1071679513,44.5628656588]},"record_timestamp":"2016-05-09T15:17:00+02:00"},{"datasetid":"laposte_hexasmal","recordid":"148d0e7a1c61eac9e949123271bf7b157db78bd5","fields":{"nom_de_la_commune":"DORNAS","libell_d_acheminement":"DORNAS","code_postal":"07160","coordonnees_gps":[44.8519150741,4.35842422121],"code_commune_insee":"07082"},"geometry":{"type":"Point","coordinates":[4.35842422121,44.8519150741]},"record_timestamp":"2016-05-09T15:17:00+02:00"},{"datasetid":"laposte_hexasmal","recordid":"044930883f6cfd6e4288d848cd4848746659dec2","fields":{"nom_de_la_commune":"FAUGERES","libell_d_acheminement":"FAUGERES","code_postal":"07230","coordonnees_gps":[44.4791202629,4.13971608703],"code_commune_insee":"07088"},"geometry":{"type":"Point","coordinates":[4.13971608703,44.4791202629]},"record_timestamp":"2016-05-09T15:17:00+02:00"},{"datasetid":"laposte_hexasmal","recordid":"57350136f7903cebbb4bf0882849b0b1a107a11a","fields":{"nom_de_la_commune":"FELINES","libell_d_acheminement":"FELINES","code_postal":"07340","coordonnees_gps":[45.3160676288,4.72706276274],"code_commune_insee":"07089"},"geometry":{"type":"Point","coordinates":[4.72706276274,45.3160676288]},"record_timestamp":"2016-05-09T15:17:00+02:00"},{"datasetid":"laposte_hexasmal","recordid":"5b6c5d27f0d06cfb7bfb56869bf31763cf97eddb","fields":{"nom_de_la_commune":"FREYSSENET","libell_d_acheminement":"FREYSSENET","code_postal":"07000","coordonnees_gps":[44.6886194228,4.54695114844],"code_commune_insee":"07092"},"geometry":{"type":"Point","coordinates":[4.54695114844,44.6886194228]},"record_timestamp":"2016-05-09T15:17:00+02:00"},{"datasetid":"laposte_hexasmal","recordid":"3cc3f3dde48eb50c42504eacc8290cdf7ef9d047","fields":{"nom_de_la_commune":"GLUN","libell_d_acheminement":"GLUN","code_postal":"07300","coordonnees_gps":[45.0070163516,4.82465206981],"code_commune_insee":"07097"},"geometry":{"type":"Point","coordinates":[4.82465206981,45.0070163516]},"record_timestamp":"2016-05-09T15:17:00+02:00"},{"datasetid":"laposte_hexasmal","recordid":"d8617a920fc55b33896be415285cccc345203720","fields":{"nom_de_la_commune":"GRAVIERES","libell_d_acheminement":"GRAVIERES","code_postal":"07140","coordonnees_gps":[44.4213974082,4.07179678867],"code_commune_insee":"07100"},"geometry":{"type":"Point","coordinates":[4.07179678867,44.4213974082]},"record_timestamp":"2016-05-09T15:17:00+02:00"},{"datasetid":"laposte_hexasmal","recordid":"819b7e8cfba88de35a1fae4387691d231e2ee849","fields":{"nom_de_la_commune":"ISSANLAS","libell_d_acheminement":"ISSANLAS","code_postal":"07660","coordonnees_gps":[44.7669383227,4.01543417126],"code_commune_insee":"07105"},"geometry":{"type":"Point","coordinates":[4.01543417126,44.7669383227]},"record_timestamp":"2016-05-09T15:17:00+02:00"},{"datasetid":"laposte_hexasmal","recordid":"ba44700b7f06a0938f66b4abc46bca52cbf5e129","fields":{"nom_de_la_commune":"JAUNAC","libell_d_acheminement":"JAUNAC","code_postal":"07160","coordonnees_gps":[44.9198243034,4.39270254716],"code_commune_insee":"07108"},"geometry":{"type":"Point","coordinates":[4.39270254716,44.9198243034]},"record_timestamp":"2016-05-09T15:17:00+02:00"},{"datasetid":"laposte_hexasmal","recordid":"b0723fc2e3ba7fb969032aad00bbb8b7a2a740f3","fields":{"nom_de_la_commune":"JUVINAS","libell_d_acheminement":"JUVINAS","code_postal":"07600","coordonnees_gps":[44.7043758122,4.3072836289],"code_commune_insee":"07111"},"geometry":{"type":"Point","coordinates":[4.3072836289,44.7043758122]},"record_timestamp":"2016-05-09T15:17:00+02:00"},{"datasetid":"laposte_hexasmal","recordid":"d4f1955f74d1bd6a68869b571eea9fed44e14468","fields":{"nom_de_la_commune":"LAGORCE","libell_d_acheminement":"LAGORCE","code_postal":"07150","coordonnees_gps":[44.4449016448,4.43141639823],"code_commune_insee":"07126"},"geometry":{"type":"Point","coordinates":[4.43141639823,44.4449016448]},"record_timestamp":"2016-05-09T15:17:00+02:00"},{"datasetid":"laposte_hexasmal","recordid":"cbcd611903cc84a816aed1ad847628bf3a64f2c2","fields":{"nom_de_la_commune":"LALOUVESC","libell_d_acheminement":"LALOUVESC","code_postal":"07520","coordonnees_gps":[45.1156584818,4.52555631475],"code_commune_insee":"07128"},"geometry":{"type":"Point","coordinates":[4.52555631475,45.1156584818]},"record_timestamp":"2016-05-09T15:17:00+02:00"},{"datasetid":"laposte_hexasmal","recordid":"d175dbc7283fc3c4f91f3d004d4d8dadbf5d93b1","fields":{"nom_de_la_commune":"LANAS","libell_d_acheminement":"LANAS","code_postal":"07200","coordonnees_gps":[44.5369264194,4.38390095509],"code_commune_insee":"07131"},"geometry":{"type":"Point","coordinates":[4.38390095509,44.5369264194]},"record_timestamp":"2016-05-09T15:17:00+02:00"},{"datasetid":"laposte_hexasmal","recordid":"35dfb212faadcf845ec6a96c44c1d0e06d8dfe74","fields":{"nom_de_la_commune":"LAURAC EN VIVARAIS","libell_d_acheminement":"LAURAC EN VIVARAIS","code_postal":"07110","coordonnees_gps":[44.5033057192,4.28830492174],"code_commune_insee":"07134"},"geometry":{"type":"Point","coordinates":[4.28830492174,44.5033057192]},"record_timestamp":"2016-05-09T15:17:00+02:00"},{"datasetid":"laposte_hexasmal","recordid":"9de2a24f58e4179968a9bf5560e8f54ef7deb639","fields":{"nom_de_la_commune":"LAVILLEDIEU","libell_d_acheminement":"LAVILLEDIEU","code_postal":"07170","coordonnees_gps":[44.5821673927,4.44782050169],"code_commune_insee":"07138"},"geometry":{"type":"Point","coordinates":[4.44782050169,44.5821673927]},"record_timestamp":"2016-05-09T15:17:00+02:00"},{"datasetid":"laposte_hexasmal","recordid":"d644cabf6fc600c976e44e53108a50e24344a9f2","fields":{"nom_de_la_commune":"LAVIOLLE","libell_d_acheminement":"LAVIOLLE","code_postal":"07530","coordonnees_gps":[44.7621284676,4.33354571625],"code_commune_insee":"07139"},"geometry":{"type":"Point","coordinates":[4.33354571625,44.7621284676]},"record_timestamp":"2016-05-09T15:17:00+02:00"},{"datasetid":"laposte_hexasmal","recordid":"949e303201a9d65f600e2e33785a34d946fad9fa","fields":{"nom_de_la_commune":"LUSSAS","libell_d_acheminement":"LUSSAS","code_postal":"07170","coordonnees_gps":[44.6192177092,4.46630461903],"code_commune_insee":"07145"},"geometry":{"type":"Point","coordinates":[4.46630461903,44.6192177092]},"record_timestamp":"2016-05-09T15:17:00+02:00"},{"datasetid":"laposte_hexasmal","recordid":"88b7330df97d7452c51fae12ac389389bb7afaa4","fields":{"code_postal":"07140","code_commune_insee":"07147","libell_d_acheminement":"MALARCE SUR LA THINES","ligne_5":"LAFIGERE","nom_de_la_commune":"MALARCE SUR LA THINES","coordonnees_gps":[44.4780272206,4.05011924136]},"geometry":{"type":"Point","coordinates":[4.05011924136,44.4780272206]},"record_timestamp":"2016-05-09T15:17:00+02:00"},{"datasetid":"laposte_hexasmal","recordid":"05bf63010e939fc6a3d7bda847dab002e51d0a0c","fields":{"nom_de_la_commune":"MAZAN L ABBAYE","libell_d_acheminement":"MAZAN L ABBAYE","code_postal":"07510","coordonnees_gps":[44.7246364592,4.08102609773],"code_commune_insee":"07154"},"geometry":{"type":"Point","coordinates":[4.08102609773,44.7246364592]},"record_timestamp":"2016-05-09T15:17:00+02:00"},{"datasetid":"laposte_hexasmal","recordid":"1875039898efacf8e6d27c44aafb832bbeb3adbe","fields":{"nom_de_la_commune":"MEYRAS","libell_d_acheminement":"MEYRAS","code_postal":"07380","coordonnees_gps":[44.677562906,4.26001410237],"code_commune_insee":"07156"},"geometry":{"type":"Point","coordinates":[4.26001410237,44.677562906]},"record_timestamp":"2016-05-09T15:17:00+02:00"},{"datasetid":"laposte_hexasmal","recordid":"29f98ccd7aadfa18f9f8ba6f7a6c65ac0fd349aa","fields":{"nom_de_la_commune":"MEYSSE","libell_d_acheminement":"MEYSSE","code_postal":"07400","coordonnees_gps":[44.6193386638,4.71649252868],"code_commune_insee":"07157"},"geometry":{"type":"Point","coordinates":[4.71649252868,44.6193386638]},"record_timestamp":"2016-05-09T15:17:00+02:00"},{"datasetid":"laposte_hexasmal","recordid":"8139592a41236f538f489f8d71799d28092a6983","fields":{"nom_de_la_commune":"MEZILHAC","libell_d_acheminement":"MEZILHAC","code_postal":"07530","coordonnees_gps":[44.8068921216,4.34184721755],"code_commune_insee":"07158"},"geometry":{"type":"Point","coordinates":[4.34184721755,44.8068921216]},"record_timestamp":"2016-05-09T15:17:00+02:00"},{"datasetid":"laposte_hexasmal","recordid":"b7d952ac2477ecf19236e1e3d77b0e13b2125306","fields":{"nom_de_la_commune":"PLANZOLLES","libell_d_acheminement":"PLANZOLLES","code_postal":"07230","coordonnees_gps":[44.4862153265,4.15764539553],"code_commune_insee":"07176"},"geometry":{"type":"Point","coordinates":[4.15764539553,44.4862153265]},"record_timestamp":"2016-05-09T15:17:00+02:00"},{"datasetid":"laposte_hexasmal","recordid":"513600d25628aa8668ff0099d133e948a4b0e73c","fields":{"nom_de_la_commune":"PONT DE LABEAUME","libell_d_acheminement":"PONT DE LABEAUME","code_postal":"07380","coordonnees_gps":[44.6657587714,4.29738768266],"code_commune_insee":"07178"},"geometry":{"type":"Point","coordinates":[4.29738768266,44.6657587714]},"record_timestamp":"2016-05-09T15:17:00+02:00"},{"datasetid":"laposte_hexasmal","recordid":"5e91e669e82726ee0dca45a14de4989e5951dd52","fields":{"nom_de_la_commune":"QUINTENAS","libell_d_acheminement":"QUINTENAS","code_postal":"07290","coordonnees_gps":[45.1922513246,4.69504598366],"code_commune_insee":"07188"},"geometry":{"type":"Point","coordinates":[4.69504598366,45.1922513246]},"record_timestamp":"2016-05-09T15:17:00+02:00"},{"datasetid":"laposte_hexasmal","recordid":"52adead71691cedc541b04b39e908dd51e484615","fields":{"nom_de_la_commune":"ROCHECOLOMBE","libell_d_acheminement":"ROCHECOLOMBE","code_postal":"07200","coordonnees_gps":[44.5184712658,4.44840556481],"code_commune_insee":"07190"},"geometry":{"type":"Point","coordinates":[4.44840556481,44.5184712658]},"record_timestamp":"2016-05-09T15:17:00+02:00"},{"datasetid":"laposte_hexasmal","recordid":"931333de16a3016f478f243e743bec44d6f0686e","fields":{"nom_de_la_commune":"ROCHEMAURE","libell_d_acheminement":"ROCHEMAURE","code_postal":"07400","coordonnees_gps":[44.589264353,4.69211996285],"code_commune_insee":"07191"},"geometry":{"type":"Point","coordinates":[4.69211996285,44.589264353]},"record_timestamp":"2016-05-09T15:17:00+02:00"},{"datasetid":"laposte_hexasmal","recordid":"6af4cbb576a7b08b36b2a66cc0a33180cd6c5818","fields":{"nom_de_la_commune":"ROCHER","libell_d_acheminement":"ROCHER","code_postal":"07110","coordonnees_gps":[44.5805813909,4.2790675943],"code_commune_insee":"07193"},"geometry":{"type":"Point","coordinates":[4.2790675943,44.5805813909]},"record_timestamp":"2016-05-09T15:17:00+02:00"},{"datasetid":"laposte_hexasmal","recordid":"705f1be07fd36b457f8e80bcd1a517312c75b11e","fields":{"nom_de_la_commune":"ROMPON","libell_d_acheminement":"ROMPON","code_postal":"07800","coordonnees_gps":[44.7787195427,4.73009856646],"code_commune_insee":"07198"},"geometry":{"type":"Point","coordinates":[4.73009856646,44.7787195427]},"record_timestamp":"2016-05-09T15:17:00+02:00"},{"datasetid":"laposte_hexasmal","recordid":"7f1b29605855c858d84c5a4154710e9a7cb13df7","fields":{"nom_de_la_commune":"SAGNES ET GOUDOULET","libell_d_acheminement":"SAGNES ET GOUDOULET","code_postal":"07450","coordonnees_gps":[44.8014042397,4.215812246],"code_commune_insee":"07203"},"geometry":{"type":"Point","coordinates":[4.215812246,44.8014042397]},"record_timestamp":"2016-05-09T15:17:00+02:00"},{"datasetid":"laposte_hexasmal","recordid":"3835277ff111ab17be682c6a280f43aee5c20ff0","fields":{"code_postal":"07120","code_commune_insee":"07207","libell_d_acheminement":"ST ALBAN AURIOLLES","ligne_5":"AURIOLLES","nom_de_la_commune":"ST ALBAN AURIOLLES","coordonnees_gps":[44.4342653055,4.29515757348]},"geometry":{"type":"Point","coordinates":[4.29515757348,44.4342653055]},"record_timestamp":"2016-05-09T15:17:00+02:00"},{"datasetid":"laposte_hexasmal","recordid":"dd971ee5a4fa57c946987b50217d7a9dd0f27990","fields":{"nom_de_la_commune":"ST APOLLINAIRE DE RIAS","libell_d_acheminement":"ST APOLLINAIRE DE RIAS","code_postal":"07240","coordonnees_gps":[44.9204690722,4.59052402464],"code_commune_insee":"07214"},"geometry":{"type":"Point","coordinates":[4.59052402464,44.9204690722]},"record_timestamp":"2016-05-09T15:17:00+02:00"},{"datasetid":"laposte_hexasmal","recordid":"3fd4b33a1335895856bac9c184e80c29173df40d","fields":{"nom_de_la_commune":"ST CHRISTOL","libell_d_acheminement":"ST CHRISTOL","code_postal":"07160","coordonnees_gps":[44.8696306888,4.43824066016],"code_commune_insee":"07220"},"geometry":{"type":"Point","coordinates":[4.43824066016,44.8696306888]},"record_timestamp":"2016-05-09T15:17:00+02:00"},{"datasetid":"laposte_hexasmal","recordid":"e3cfa21184e9fd61c6b04a0b00e46f5ecb0c33a3","fields":{"nom_de_la_commune":"ST CLAIR","libell_d_acheminement":"ST CLAIR","code_postal":"07430","coordonnees_gps":[45.2755892948,4.68712205],"code_commune_insee":"07225"},"geometry":{"type":"Point","coordinates":[4.68712205,45.2755892948]},"record_timestamp":"2016-05-09T15:17:00+02:00"},{"datasetid":"laposte_hexasmal","recordid":"4e8f25a6b438621fbeacb2539d696fcc0ccf7919","fields":{"nom_de_la_commune":"ST CYR","libell_d_acheminement":"ST CYR","code_postal":"07430","coordonnees_gps":[45.2490601224,4.73642640952],"code_commune_insee":"07227"},"geometry":{"type":"Point","coordinates":[4.73642640952,45.2490601224]},"record_timestamp":"2016-05-09T15:17:00+02:00"},{"datasetid":"laposte_hexasmal","recordid":"fd1eabd00eb3dcfd33159a81fee37f566b385ccc","fields":{"nom_de_la_commune":"ST ETIENNE DE FONTBELLON","libell_d_acheminement":"ST ETIENNE DE FONTBELLON","code_postal":"07200","coordonnees_gps":[44.5985890529,4.37388980251],"code_commune_insee":"07231"},"geometry":{"type":"Point","coordinates":[4.37388980251,44.5985890529]},"record_timestamp":"2016-05-09T15:17:00+02:00"},{"datasetid":"laposte_hexasmal","recordid":"66ec4d61e17323fe7eba3bb675eb56e06eb986d8","fields":{"nom_de_la_commune":"ST ETIENNE DE LUGDARES","libell_d_acheminement":"ST ETIENNE DE LUGDARES","code_postal":"07590","coordonnees_gps":[44.6472996058,3.97320731219],"code_commune_insee":"07232"},"geometry":{"type":"Point","coordinates":[3.97320731219,44.6472996058]},"record_timestamp":"2016-05-09T15:17:00+02:00"},{"datasetid":"laposte_hexasmal","recordid":"3ede60c31758526443dc09f662ed3e6d4c84c79e","fields":{"nom_de_la_commune":"ST ETIENNE DE SERRE","libell_d_acheminement":"ST ETIENNE DE SERRE","code_postal":"07190","coordonnees_gps":[44.8012229727,4.52362326693],"code_commune_insee":"07233"},"geometry":{"type":"Point","coordinates":[4.52362326693,44.8012229727]},"record_timestamp":"2016-05-09T15:17:00+02:00"},{"datasetid":"laposte_hexasmal","recordid":"5610c4209ca81bfbf0cbc27cee94666d2a7dfcd5","fields":{"nom_de_la_commune":"ST GERMAIN","libell_d_acheminement":"ST GERMAIN","code_postal":"07170","coordonnees_gps":[44.5531057942,4.44825609237],"code_commune_insee":"07241"},"geometry":{"type":"Point","coordinates":[4.44825609237,44.5531057942]},"record_timestamp":"2016-05-09T15:17:00+02:00"},{"datasetid":"laposte_hexasmal","recordid":"8203222d46502161be9f563ca5e19ad0b01c1498","fields":{"nom_de_la_commune":"ST GINEIS EN COIRON","libell_d_acheminement":"ST GINEIS EN COIRON","code_postal":"07580","coordonnees_gps":[44.6337066136,4.53894294674],"code_commune_insee":"07242"},"geometry":{"type":"Point","coordinates":[4.53894294674,44.6337066136]},"record_timestamp":"2016-05-09T15:17:00+02:00"},{"datasetid":"laposte_hexasmal","recordid":"ff5071b1132b340c8fc822edae836bee8ee5dcb9","fields":{"nom_de_la_commune":"ST JEAN CHAMBRE","libell_d_acheminement":"ST JEAN CHAMBRE","code_postal":"07240","coordonnees_gps":[44.9083362092,4.5616408271],"code_commune_insee":"07244"},"geometry":{"type":"Point","coordinates":[4.5616408271,44.9083362092]},"record_timestamp":"2016-05-09T15:17:00+02:00"},{"datasetid":"laposte_hexasmal","recordid":"799d6eb86a8e5445e62948f5c406dbca8bb09582","fields":{"nom_de_la_commune":"ST JULIEN DU SERRE","libell_d_acheminement":"ST JULIEN DU SERRE","code_postal":"07200","coordonnees_gps":[44.6600211072,4.40395881158],"code_commune_insee":"07254"},"geometry":{"type":"Point","coordinates":[4.40395881158,44.6600211072]},"record_timestamp":"2016-05-09T15:17:00+02:00"},{"datasetid":"laposte_hexasmal","recordid":"077c7a65807bbf20a38dc42f70cdf7e77135e458","fields":{"nom_de_la_commune":"ST JULIEN LE ROUX","libell_d_acheminement":"ST JULIEN LE ROUX","code_postal":"07240","coordonnees_gps":[44.8675203578,4.67592482949],"code_commune_insee":"07257"},"geometry":{"type":"Point","coordinates":[4.67592482949,44.8675203578]},"record_timestamp":"2016-05-09T15:17:00+02:00"},{"datasetid":"laposte_hexasmal","recordid":"352a992dd2fd9fd1f9e05e747bd751aa48a152b1","fields":{"nom_de_la_commune":"ST MAURICE D ARDECHE","libell_d_acheminement":"ST MAURICE D ARDECHE","code_postal":"07200","coordonnees_gps":[44.5189878085,4.40483643435],"code_commune_insee":"07272"},"geometry":{"type":"Point","coordinates":[4.40483643435,44.5189878085]},"record_timestamp":"2016-05-09T15:17:00+02:00"},{"datasetid":"laposte_hexasmal","recordid":"a28bc322f9cae4ae800ca280eab727169d274f22","fields":{"nom_de_la_commune":"ST PIERRE LA ROCHE","libell_d_acheminement":"ST PIERRE LA ROCHE","code_postal":"07400","coordonnees_gps":[44.6539287603,4.6218849184],"code_commune_insee":"07283"},"geometry":{"type":"Point","coordinates":[4.6218849184,44.6539287603]},"record_timestamp":"2016-05-09T15:17:00+02:00"},{"datasetid":"laposte_hexasmal","recordid":"e09f380e2afdc543f94b15516d2e663c5dc20d3f","fields":{"code_postal":"07140","code_commune_insee":"07284","libell_d_acheminement":"ST PIERRE ST JEAN","ligne_5":"ST JEAN DE POURCHARESSE","nom_de_la_commune":"ST PIERRE ST JEAN","coordonnees_gps":[44.4825896332,4.10164484089]},"geometry":{"type":"Point","coordinates":[4.10164484089,44.4825896332]},"record_timestamp":"2016-05-09T15:17:00+02:00"},{"datasetid":"laposte_hexasmal","recordid":"ad0bd948d27c842c709e51d48a671c839773f788","fields":{"nom_de_la_commune":"ST PRIEST","libell_d_acheminement":"ST PRIEST","code_postal":"07000","coordonnees_gps":[44.7131469303,4.53562187216],"code_commune_insee":"07288"},"geometry":{"type":"Point","coordinates":[4.53562187216,44.7131469303]},"record_timestamp":"2016-05-09T15:17:00+02:00"},{"datasetid":"laposte_hexasmal","recordid":"0dde898d6d6b715b7ba70d4452de5245716c56ac","fields":{"nom_de_la_commune":"ST SAUVEUR DE MONTAGUT","libell_d_acheminement":"ST SAUVEUR DE MONTAGUT","code_postal":"07190","coordonnees_gps":[44.8202271347,4.57255179328],"code_commune_insee":"07295"},"geometry":{"type":"Point","coordinates":[4.57255179328,44.8202271347]},"record_timestamp":"2016-05-09T15:17:00+02:00"},{"datasetid":"laposte_hexasmal","recordid":"87a6f05e5276b70b8b8ddba393f391240b34a0bf","fields":{"nom_de_la_commune":"ST SYLVESTRE","libell_d_acheminement":"ST SYLVESTRE","code_postal":"07440","coordonnees_gps":[44.9879627989,4.74987587664],"code_commune_insee":"07297"},"geometry":{"type":"Point","coordinates":[4.74987587664,44.9879627989]},"record_timestamp":"2016-05-09T15:17:00+02:00"},{"datasetid":"laposte_hexasmal","recordid":"529a1c5f143186d262f42c35f04dfe3fcd37b055","fields":{"nom_de_la_commune":"ST SYMPHORIEN DE MAHUN","libell_d_acheminement":"ST SYMPHORIEN DE MAHUN","code_postal":"07290","coordonnees_gps":[45.1563624084,4.54974393041],"code_commune_insee":"07299"},"geometry":{"type":"Point","coordinates":[4.54974393041,45.1563624084]},"record_timestamp":"2016-05-09T15:17:00+02:00"},{"datasetid":"laposte_hexasmal","recordid":"1e0a0d167b931d60cfeb9a11de4fdbef8622fad6","fields":{"nom_de_la_commune":"ST VINCENT DE DURFORT","libell_d_acheminement":"ST VINCENT DE DURFORT","code_postal":"07360","coordonnees_gps":[44.7919043427,4.63828690293],"code_commune_insee":"07303"},"geometry":{"type":"Point","coordinates":[4.63828690293,44.7919043427]},"record_timestamp":"2016-05-09T15:17:00+02:00"},{"datasetid":"laposte_hexasmal","recordid":"a3374e89455ba1bef61a7b9022c4dd839d371f73","fields":{"nom_de_la_commune":"SAMPZON","libell_d_acheminement":"SAMPZON","code_postal":"07120","coordonnees_gps":[44.4123532588,4.33204376099],"code_commune_insee":"07306"},"geometry":{"type":"Point","coordinates":[4.33204376099,44.4123532588]},"record_timestamp":"2016-05-09T15:17:00+02:00"},{"datasetid":"laposte_hexasmal","recordid":"6f977693413334248d665d22721cc5c452cb9e86","fields":{"nom_de_la_commune":"SANILHAC","libell_d_acheminement":"SANILHAC","code_postal":"07110","coordonnees_gps":[44.5327416488,4.23228758163],"code_commune_insee":"07307"},"geometry":{"type":"Point","coordinates":[4.23228758163,44.5327416488]},"record_timestamp":"2016-05-09T15:17:00+02:00"},{"datasetid":"laposte_hexasmal","recordid":"3319a3380851ab3158287df2f6041b8c4eab1db9","fields":{"nom_de_la_commune":"SILHAC","libell_d_acheminement":"SILHAC","code_postal":"07240","coordonnees_gps":[44.8740499723,4.61339409596],"code_commune_insee":"07314"},"geometry":{"type":"Point","coordinates":[4.61339409596,44.8740499723]},"record_timestamp":"2016-05-09T15:17:00+02:00"},{"datasetid":"laposte_hexasmal","recordid":"f3086023e4a57cdc80b6808b20754654e26ba995","fields":{"nom_de_la_commune":"LA SOUCHE","libell_d_acheminement":"LA SOUCHE","code_postal":"07380","coordonnees_gps":[44.6277336502,4.16243697678],"code_commune_insee":"07315"},"geometry":{"type":"Point","coordinates":[4.16243697678,44.6277336502]},"record_timestamp":"2016-05-09T15:17:00+02:00"},{"datasetid":"laposte_hexasmal","recordid":"4b274bc719f2e2536097642c6405d2bbe827600d","fields":{"nom_de_la_commune":"LE TEIL","libell_d_acheminement":"LE TEIL","code_postal":"07400","coordonnees_gps":[44.5432149708,4.66470569343],"code_commune_insee":"07319"},"geometry":{"type":"Point","coordinates":[4.66470569343,44.5432149708]},"record_timestamp":"2016-05-09T15:17:00+02:00"},{"datasetid":"laposte_hexasmal","recordid":"7670c0cdaf9b6330ec16c02b3b742637e1023303","fields":{"nom_de_la_commune":"TOULAUD","libell_d_acheminement":"TOULAUD","code_postal":"07130","coordonnees_gps":[44.9021816561,4.79271125843],"code_commune_insee":"07323"},"geometry":{"type":"Point","coordinates":[4.79271125843,44.9021816561]},"record_timestamp":"2016-05-09T15:17:00+02:00"},{"datasetid":"laposte_hexasmal","recordid":"8f8abca0d5d56ec1ad34137605749a64629939b8","fields":{"nom_de_la_commune":"TOURNON SUR RHONE","libell_d_acheminement":"TOURNON SUR RHONE","code_postal":"07300","coordonnees_gps":[45.0535734386,4.81493474284],"code_commune_insee":"07324"},"geometry":{"type":"Point","coordinates":[4.81493474284,45.0535734386]},"record_timestamp":"2016-05-09T15:17:00+02:00"},{"datasetid":"laposte_hexasmal","recordid":"14cff5e5c043489217656556add854086d41efd6","fields":{"nom_de_la_commune":"VANOSC","libell_d_acheminement":"VANOSC","code_postal":"07690","coordonnees_gps":[45.2240895311,4.53452254097],"code_commune_insee":"07333"},"geometry":{"type":"Point","coordinates":[4.53452254097,45.2240895311]},"record_timestamp":"2016-05-09T15:17:00+02:00"},{"datasetid":"laposte_hexasmal","recordid":"0c7d56ed9698c38d228c84773624019d7e309498","fields":{"code_postal":"07140","code_commune_insee":"07334","libell_d_acheminement":"LES VANS","ligne_5":"BRAHIC","nom_de_la_commune":"LES VANS","coordonnees_gps":[44.392206287,4.11524168722]},"geometry":{"type":"Point","coordinates":[4.11524168722,44.392206287]},"record_timestamp":"2016-05-09T15:17:00+02:00"},{"datasetid":"laposte_hexasmal","recordid":"4364cbc40403de893d5b09a73bc3bbe7765d6bad","fields":{"code_postal":"07140","code_commune_insee":"07334","libell_d_acheminement":"LES VANS","ligne_5":"CHASSAGNES","nom_de_la_commune":"LES VANS","coordonnees_gps":[44.392206287,4.11524168722]},"geometry":{"type":"Point","coordinates":[4.11524168722,44.392206287]},"record_timestamp":"2016-05-09T15:17:00+02:00"},{"datasetid":"laposte_hexasmal","recordid":"5297f9b55a0cff274f990d251aceed608fa09e63","fields":{"nom_de_la_commune":"VEYRAS","libell_d_acheminement":"VEYRAS","code_postal":"07000","coordonnees_gps":[44.735095562,4.55638123378],"code_commune_insee":"07340"},"geometry":{"type":"Point","coordinates":[4.55638123378,44.735095562]},"record_timestamp":"2016-05-09T15:17:00+02:00"},{"datasetid":"laposte_hexasmal","recordid":"958db2b4feeede20548d282d6771467360d5aa79","fields":{"nom_de_la_commune":"VINEZAC","libell_d_acheminement":"VINEZAC","code_postal":"07110","coordonnees_gps":[44.5464277181,4.33294323997],"code_commune_insee":"07343"},"geometry":{"type":"Point","coordinates":[4.33294323997,44.5464277181]},"record_timestamp":"2016-05-09T15:17:00+02:00"},{"datasetid":"laposte_hexasmal","recordid":"f61b89177c441aacddf19ab3420b4b6aae194681","fields":{"nom_de_la_commune":"VIVIERS","libell_d_acheminement":"VIVIERS","code_postal":"07220","coordonnees_gps":[44.4834547319,4.66986126314],"code_commune_insee":"07346"},"geometry":{"type":"Point","coordinates":[4.66986126314,44.4834547319]},"record_timestamp":"2016-05-09T15:17:00+02:00"},{"datasetid":"laposte_hexasmal","recordid":"caf90fa81d010d2997901ee6e197c6fbd96898e3","fields":{"nom_de_la_commune":"ANTRAIGUES SUR VOLANE","libell_d_acheminement":"ANTRAIGUES SUR VOLANE","code_postal":"07530","coordonnees_gps":[44.7393183247,4.35517589387],"code_commune_insee":"07011"},"geometry":{"type":"Point","coordinates":[4.35517589387,44.7393183247]},"record_timestamp":"2016-05-09T15:17:00+02:00"},{"datasetid":"laposte_hexasmal","recordid":"562bd0f18796cd336f58d9c7d16224f9bcd1b92f","fields":{"nom_de_la_commune":"ARCENS","libell_d_acheminement":"ARCENS","code_postal":"07310","coordonnees_gps":[44.9005086707,4.31778204029],"code_commune_insee":"07012"},"geometry":{"type":"Point","coordinates":[4.31778204029,44.9005086707]},"record_timestamp":"2016-05-09T15:17:00+02:00"},{"datasetid":"laposte_hexasmal","recordid":"d95b8d3ea64356aba717539161ba8e8f6648b9da","fields":{"nom_de_la_commune":"ASTET","libell_d_acheminement":"ASTET","code_postal":"07330","coordonnees_gps":[44.6847057844,4.02649606307],"code_commune_insee":"07018"},"geometry":{"type":"Point","coordinates":[4.02649606307,44.6847057844]},"record_timestamp":"2016-05-09T15:17:00+02:00"},{"datasetid":"laposte_hexasmal","recordid":"4cd402d8f098db0f86cb02ae5e2eaa8e3c3e5392","fields":{"nom_de_la_commune":"BOREE","libell_d_acheminement":"BOREE","code_postal":"07310","coordonnees_gps":[44.8950782143,4.22692375234],"code_commune_insee":"07037"},"geometry":{"type":"Point","coordinates":[4.22692375234,44.8950782143]},"record_timestamp":"2016-05-09T15:17:00+02:00"},{"datasetid":"laposte_hexasmal","recordid":"93b8582c4a197469fea1ff16d2b55389986f97b3","fields":{"nom_de_la_commune":"BOULIEU LES ANNONAY","libell_d_acheminement":"BOULIEU LES ANNONAY","code_postal":"07100","coordonnees_gps":[45.2673233399,4.64536894386],"code_commune_insee":"07041"},"geometry":{"type":"Point","coordinates":[4.64536894386,45.2673233399]},"record_timestamp":"2016-05-09T15:17:00+02:00"},{"datasetid":"laposte_hexasmal","recordid":"76618a607a011be23358b536bc78555b88d438f0","fields":{"nom_de_la_commune":"CHALENCON","libell_d_acheminement":"CHALENCON","code_postal":"07240","coordonnees_gps":[44.8797912682,4.55772069308],"code_commune_insee":"07048"},"geometry":{"type":"Point","coordinates":[4.55772069308,44.8797912682]},"record_timestamp":"2016-05-09T15:17:00+02:00"},{"datasetid":"laposte_hexasmal","recordid":"a88824cf0e19cb866228d2054d671626670eda4e","fields":{"nom_de_la_commune":"LE CHAMBON","libell_d_acheminement":"LE CHAMBON","code_postal":"07160","coordonnees_gps":[44.8299065845,4.29925007724],"code_commune_insee":"07049"},"geometry":{"type":"Point","coordinates":[4.29925007724,44.8299065845]},"record_timestamp":"2016-05-09T15:17:00+02:00"},{"datasetid":"laposte_hexasmal","recordid":"899b600df1740595b677fc02fb0d042338fb6aeb","fields":{"nom_de_la_commune":"COLOMBIER LE VIEUX","libell_d_acheminement":"COLOMBIER LE VIEUX","code_postal":"07410","coordonnees_gps":[45.0590148291,4.69898079433],"code_commune_insee":"07069"},"geometry":{"type":"Point","coordinates":[4.69898079433,45.0590148291]},"record_timestamp":"2016-05-09T15:17:00+02:00"},{"datasetid":"laposte_hexasmal","recordid":"22308edde51ecea30ef3223521a02ffb0d1b9b95","fields":{"nom_de_la_commune":"COUCOURON","libell_d_acheminement":"COUCOURON","code_postal":"07470","coordonnees_gps":[44.7949192399,3.96166497009],"code_commune_insee":"07071"},"geometry":{"type":"Point","coordinates":[3.96166497009,44.7949192399]},"record_timestamp":"2016-05-09T15:17:00+02:00"},{"datasetid":"laposte_hexasmal","recordid":"e4332f1e9a99304380b333137df905a60a3f0b2c","fields":{"nom_de_la_commune":"COUX","libell_d_acheminement":"COUX","code_postal":"07000","coordonnees_gps":[44.7432838199,4.62306333755],"code_commune_insee":"07072"},"geometry":{"type":"Point","coordinates":[4.62306333755,44.7432838199]},"record_timestamp":"2016-05-09T15:17:00+02:00"},{"datasetid":"laposte_hexasmal","recordid":"13547fbcd8dc1fadc76215490f0254e8b3333035","fields":{"nom_de_la_commune":"DAVEZIEUX","libell_d_acheminement":"DAVEZIEUX","code_postal":"07430","coordonnees_gps":[45.2551141043,4.70210482466],"code_commune_insee":"07078"},"geometry":{"type":"Point","coordinates":[4.70210482466,45.2551141043]},"record_timestamp":"2016-05-09T15:17:00+02:00"},{"datasetid":"laposte_hexasmal","recordid":"7eb26ef0edb5075d98d7ad6f87ec4bd62d9bfc5e","fields":{"nom_de_la_commune":"DESAIGNES","libell_d_acheminement":"DESAIGNES","code_postal":"07570","coordonnees_gps":[44.992108782,4.50096602027],"code_commune_insee":"07079"},"geometry":{"type":"Point","coordinates":[4.50096602027,44.992108782]},"record_timestamp":"2016-05-09T15:17:00+02:00"},{"datasetid":"laposte_hexasmal","recordid":"415eaa390181992e1b945c4f1686f1b0c9381767","fields":{"nom_de_la_commune":"DUNIERE SUR EYRIEUX","libell_d_acheminement":"DUNIERE SUR EYRIEUX","code_postal":"07360","coordonnees_gps":[44.8344426554,4.65115576904],"code_commune_insee":"07083"},"geometry":{"type":"Point","coordinates":[4.65115576904,44.8344426554]},"record_timestamp":"2016-05-09T15:17:00+02:00"},{"datasetid":"laposte_hexasmal","recordid":"abf0efa48ef80aff4d0bfaa3f9c14fac8fd4d314","fields":{"nom_de_la_commune":"FABRAS","libell_d_acheminement":"FABRAS","code_postal":"07380","coordonnees_gps":[44.6484389575,4.28119591056],"code_commune_insee":"07087"},"geometry":{"type":"Point","coordinates":[4.28119591056,44.6484389575]},"record_timestamp":"2016-05-09T15:17:00+02:00"},{"datasetid":"laposte_hexasmal","recordid":"458f472c5ec3fbd1e7f9131b2880ad934efd98bd","fields":{"nom_de_la_commune":"GENESTELLE","libell_d_acheminement":"GENESTELLE","code_postal":"07530","coordonnees_gps":[44.7366148286,4.38522824539],"code_commune_insee":"07093"},"geometry":{"type":"Point","coordinates":[4.38522824539,44.7366148286]},"record_timestamp":"2016-05-09T15:17:00+02:00"},{"datasetid":"laposte_hexasmal","recordid":"60095c6d0e969982e271c6ebfd398152ab8f2212","fields":{"nom_de_la_commune":"GOURDON","libell_d_acheminement":"GOURDON","code_postal":"07000","coordonnees_gps":[44.7294058074,4.45478498235],"code_commune_insee":"07098"},"geometry":{"type":"Point","coordinates":[4.45478498235,44.7294058074]},"record_timestamp":"2016-05-09T15:17:00+02:00"},{"datasetid":"laposte_hexasmal","recordid":"97305878ebbf651d2b5a4b2880da9029be3b68f0","fields":{"nom_de_la_commune":"INTRES","libell_d_acheminement":"INTRES","code_postal":"07310","coordonnees_gps":[44.9864739922,4.3441511813],"code_commune_insee":"07103"},"geometry":{"type":"Point","coordinates":[4.3441511813,44.9864739922]},"record_timestamp":"2016-05-09T15:17:00+02:00"},{"datasetid":"laposte_hexasmal","recordid":"f2b64498bd37713045bd63dc42e21ece7b2902ec","fields":{"nom_de_la_commune":"LABASTIDE SUR BESORGUES","libell_d_acheminement":"LABASTIDE SUR BESORGUES","code_postal":"07600","coordonnees_gps":[44.7487657631,4.29812295465],"code_commune_insee":"07112"},"geometry":{"type":"Point","coordinates":[4.29812295465,44.7487657631]},"record_timestamp":"2016-05-09T15:17:00+02:00"},{"datasetid":"laposte_hexasmal","recordid":"53956f407b9f3ec9075bb53a6e2c1ec670d0d791","fields":{"nom_de_la_commune":"LABASTIDE DE VIRAC","libell_d_acheminement":"LABASTIDE DE VIRAC","code_postal":"07150","coordonnees_gps":[44.3533257557,4.41978848183],"code_commune_insee":"07113"},"geometry":{"type":"Point","coordinates":[4.41978848183,44.3533257557]},"record_timestamp":"2016-05-09T15:17:00+02:00"},{"datasetid":"laposte_hexasmal","recordid":"bc8b62f27c52beaf62f9a3de7325223150fb3701","fields":{"nom_de_la_commune":"LABOULE","libell_d_acheminement":"LABOULE","code_postal":"07110","coordonnees_gps":[44.5955201697,4.16972538359],"code_commune_insee":"07118"},"geometry":{"type":"Point","coordinates":[4.16972538359,44.5955201697]},"record_timestamp":"2016-05-09T15:17:00+02:00"},{"datasetid":"laposte_hexasmal","recordid":"515577f32720d471b5fa47ed58099dd14b049f2a","fields":{"nom_de_la_commune":"LACHAMP RAPHAEL","libell_d_acheminement":"LACHAMP RAPHAEL","code_postal":"07530","coordonnees_gps":[44.8006451695,4.28759440522],"code_commune_insee":"07120"},"geometry":{"type":"Point","coordinates":[4.28759440522,44.8006451695]},"record_timestamp":"2016-05-09T15:17:00+02:00"},{"datasetid":"laposte_hexasmal","recordid":"7de588c46fc75da3101bf474f66f440f48160a90","fields":{"nom_de_la_commune":"LACHAPELLE GRAILLOUSE","libell_d_acheminement":"LACHAPELLE GRAILLOUSE","code_postal":"07470","coordonnees_gps":[44.8117618119,4.01886475359],"code_commune_insee":"07121"},"geometry":{"type":"Point","coordinates":[4.01886475359,44.8117618119]},"record_timestamp":"2016-05-09T15:17:00+02:00"},{"datasetid":"laposte_hexasmal","recordid":"ae8f327c9ba2c27eaa167f783e5cb495ad2e180b","fields":{"nom_de_la_commune":"LACHAPELLE SOUS AUBENAS","libell_d_acheminement":"LACHAPELLE SOUS AUBENAS","code_postal":"07200","coordonnees_gps":[44.5622616562,4.35906947518],"code_commune_insee":"07122"},"geometry":{"type":"Point","coordinates":[4.35906947518,44.5622616562]},"record_timestamp":"2016-05-09T15:17:00+02:00"},{"datasetid":"laposte_hexasmal","recordid":"afafd020880360ead3475d0bda4100006d84b98d","fields":{"nom_de_la_commune":"LANARCE","libell_d_acheminement":"LANARCE","code_postal":"07660","coordonnees_gps":[44.7292437972,3.99688544753],"code_commune_insee":"07130"},"geometry":{"type":"Point","coordinates":[3.99688544753,44.7292437972]},"record_timestamp":"2016-05-09T15:17:00+02:00"},{"datasetid":"laposte_hexasmal","recordid":"e33759f67989969ee8774f19e669d8f11496b6da","fields":{"nom_de_la_commune":"LAVAL D AURELLE","libell_d_acheminement":"LAVAL D AURELLE","code_postal":"07590","coordonnees_gps":[44.5722739306,3.97264927735],"code_commune_insee":"07135"},"geometry":{"type":"Point","coordinates":[3.97264927735,44.5722739306]},"record_timestamp":"2016-05-09T15:17:00+02:00"},{"datasetid":"laposte_hexasmal","recordid":"cb5c650ec1e7182ca4e2ed4fcdcf823f986c8e85","fields":{"nom_de_la_commune":"LEMPS","libell_d_acheminement":"LEMPS","code_postal":"07610","coordonnees_gps":[45.0972922386,4.778993534],"code_commune_insee":"07140"},"geometry":{"type":"Point","coordinates":[4.778993534,45.0972922386]},"record_timestamp":"2016-05-09T15:17:00+02:00"},{"datasetid":"laposte_hexasmal","recordid":"80ad6902e24def37528d3044d4d2c4244d7cddbb","fields":{"nom_de_la_commune":"LESPERON","libell_d_acheminement":"LESPERON","code_postal":"07660","coordonnees_gps":[44.7342873614,3.89547616799],"code_commune_insee":"07142"},"geometry":{"type":"Point","coordinates":[3.89547616799,44.7342873614]},"record_timestamp":"2016-05-09T15:17:00+02:00"},{"datasetid":"laposte_hexasmal","recordid":"eed5d0878560a1eec6e31cfdd2f883da40a5b04e","fields":{"nom_de_la_commune":"LYAS","libell_d_acheminement":"LYAS","code_postal":"07000","coordonnees_gps":[44.7568405764,4.59691440375],"code_commune_insee":"07146"},"geometry":{"type":"Point","coordinates":[4.59691440375,44.7568405764]},"record_timestamp":"2016-05-09T15:17:00+02:00"},{"datasetid":"laposte_hexasmal","recordid":"e392edce8a331393f1431c0f29d21ac4bf64f35e","fields":{"nom_de_la_commune":"MALARCE SUR LA THINES","libell_d_acheminement":"MALARCE SUR LA THINES","code_postal":"07140","coordonnees_gps":[44.4780272206,4.05011924136],"code_commune_insee":"07147"},"geometry":{"type":"Point","coordinates":[4.05011924136,44.4780272206]},"record_timestamp":"2016-05-09T15:17:00+02:00"},{"datasetid":"laposte_hexasmal","recordid":"72fd4d6fbbb4467241e0c82cd890a3aeb018d837","fields":{"nom_de_la_commune":"MALBOSC","libell_d_acheminement":"MALBOSC","code_postal":"07140","coordonnees_gps":[44.349514949,4.07246027808],"code_commune_insee":"07148"},"geometry":{"type":"Point","coordinates":[4.07246027808,44.349514949]},"record_timestamp":"2016-05-09T15:17:00+02:00"},{"datasetid":"laposte_hexasmal","recordid":"a19e1ae56f94aded2311e28256e9e8d886e4e886","fields":{"nom_de_la_commune":"MARS","libell_d_acheminement":"MARS","code_postal":"07320","coordonnees_gps":[45.0104543843,4.3290005107],"code_commune_insee":"07151"},"geometry":{"type":"Point","coordinates":[4.3290005107,45.0104543843]},"record_timestamp":"2016-05-09T15:17:00+02:00"},{"datasetid":"laposte_hexasmal","recordid":"92a33f0956ec45d2b591f09be76ceb4aecb972e1","fields":{"nom_de_la_commune":"MAUVES","libell_d_acheminement":"MAUVES","code_postal":"07300","coordonnees_gps":[45.0288028345,4.81953244192],"code_commune_insee":"07152"},"geometry":{"type":"Point","coordinates":[4.81953244192,45.0288028345]},"record_timestamp":"2016-05-09T15:17:00+02:00"},{"datasetid":"laposte_hexasmal","recordid":"95fb4e4b373547193db5813f3a04e4eb4a47a1ce","fields":{"nom_de_la_commune":"MIRABEL","libell_d_acheminement":"MIRABEL","code_postal":"07170","coordonnees_gps":[44.5960574224,4.49616494242],"code_commune_insee":"07159"},"geometry":{"type":"Point","coordinates":[4.49616494242,44.5960574224]},"record_timestamp":"2016-05-09T15:17:00+02:00"},{"datasetid":"laposte_hexasmal","recordid":"099c9d925399f8c0901cdfbbb1a8905a9f96a01c","fields":{"nom_de_la_commune":"MONTREAL","libell_d_acheminement":"MONTREAL","code_postal":"07110","coordonnees_gps":[44.5182302311,4.29420556332],"code_commune_insee":"07162"},"geometry":{"type":"Point","coordinates":[4.29420556332,44.5182302311]},"record_timestamp":"2016-05-09T15:17:00+02:00"},{"datasetid":"laposte_hexasmal","recordid":"d992d2e545fc3809ae123b077a5357ebf5b91d58","fields":{"nom_de_la_commune":"NONIERES","libell_d_acheminement":"NONIERES","code_postal":"07160","coordonnees_gps":[44.9277079206,4.47689363843],"code_commune_insee":"07165"},"geometry":{"type":"Point","coordinates":[4.47689363843,44.9277079206]},"record_timestamp":"2016-05-09T15:17:00+02:00"},{"datasetid":"laposte_hexasmal","recordid":"0e90fa2332070688d5f144e189d50aa70ec68e00","fields":{"nom_de_la_commune":"LES OLLIERES SUR EYRIEUX","libell_d_acheminement":"LES OLLIERES SUR EYRIEUX","code_postal":"07360","coordonnees_gps":[44.8101851934,4.61974464994],"code_commune_insee":"07167"},"geometry":{"type":"Point","coordinates":[4.61974464994,44.8101851934]},"record_timestamp":"2016-05-09T15:17:00+02:00"},{"datasetid":"laposte_hexasmal","recordid":"5b21d01235e1b40ab68520d8877474487baf9b15","fields":{"nom_de_la_commune":"PAILHARES","libell_d_acheminement":"PAILHARES","code_postal":"07410","coordonnees_gps":[45.0796648371,4.55727839601],"code_commune_insee":"07170"},"geometry":{"type":"Point","coordinates":[4.55727839601,45.0796648371]},"record_timestamp":"2016-05-09T15:17:00+02:00"},{"datasetid":"laposte_hexasmal","recordid":"741e108a8785bd4b938b9c4a6798c069c80843e0","fields":{"nom_de_la_commune":"LE PLAGNAL","libell_d_acheminement":"LE PLAGNAL","code_postal":"07590","coordonnees_gps":[44.6933752514,3.95120350218],"code_commune_insee":"07175"},"geometry":{"type":"Point","coordinates":[3.95120350218,44.6933752514]},"record_timestamp":"2016-05-09T15:17:00+02:00"},{"datasetid":"laposte_hexasmal","recordid":"9666e7b3131a47819742a4a89d1838a9fb15e747","fields":{"nom_de_la_commune":"PLATS","libell_d_acheminement":"PLATS","code_postal":"07300","coordonnees_gps":[45.0156478685,4.78034594921],"code_commune_insee":"07177"},"geometry":{"type":"Point","coordinates":[4.78034594921,45.0156478685]},"record_timestamp":"2016-05-09T15:17:00+02:00"},{"datasetid":"laposte_hexasmal","recordid":"8a9f7273e6b9774de1c7b2fe66cee89044231399","fields":{"nom_de_la_commune":"PREAUX","libell_d_acheminement":"PREAUX","code_postal":"07290","coordonnees_gps":[45.1362813279,4.65371648034],"code_commune_insee":"07185"},"geometry":{"type":"Point","coordinates":[4.65371648034,45.1362813279]},"record_timestamp":"2016-05-09T15:17:00+02:00"},{"datasetid":"laposte_hexasmal","recordid":"81aa47daf61df2618ce6e85c7856392271504779","fields":{"nom_de_la_commune":"RIBES","libell_d_acheminement":"RIBES","code_postal":"07260","coordonnees_gps":[44.5036367428,4.19775293307],"code_commune_insee":"07189"},"geometry":{"type":"Point","coordinates":[4.19775293307,44.5036367428]},"record_timestamp":"2016-05-09T15:17:00+02:00"},