[{"datasetid":"laposte_hexasmal","recordid":"4646a635225de2c132054d65dbe762c693deba30","fields":{"nom_de_la_commune":"ARZON","libell_d_acheminement":"ARZON","code_postal":"56640","coordonnees_gps":[47.5470278592,-2.88784873321],"code_commune_insee":"56005"},"geometry":{"type":"Point","coordinates":[-2.88784873321,47.5470278592]},"record_timestamp":"2016-05-09T15:17:00+02:00"},{"datasetid":"laposte_hexasmal","recordid":"6e03d9d1f924b852065e76a97cc881091ee2f368","fields":{"nom_de_la_commune":"BERRIC","libell_d_acheminement":"BERRIC","code_postal":"56230","coordonnees_gps":[47.6385230566,-2.52752927952],"code_commune_insee":"56015"},"geometry":{"type":"Point","coordinates":[-2.52752927952,47.6385230566]},"record_timestamp":"2016-05-09T15:17:00+02:00"},{"datasetid":"laposte_hexasmal","recordid":"8985308f6428bf5d8d325cd01abcf6f0354bdc53","fields":{"nom_de_la_commune":"CAMOEL","libell_d_acheminement":"CAMOEL","code_postal":"56130","coordonnees_gps":[47.4791790965,-2.39860395694],"code_commune_insee":"56030"},"geometry":{"type":"Point","coordinates":[-2.39860395694,47.4791790965]},"record_timestamp":"2016-05-09T15:17:00+02:00"},{"datasetid":"laposte_hexasmal","recordid":"c39b9a785ca976eaaea02eb1d8931c4230f2292b","fields":{"nom_de_la_commune":"CARNAC","libell_d_acheminement":"CARNAC","code_postal":"56340","coordonnees_gps":[47.608433163,-3.06973611145],"code_commune_insee":"56034"},"geometry":{"type":"Point","coordinates":[-3.06973611145,47.608433163]},"record_timestamp":"2016-05-09T15:17:00+02:00"},{"datasetid":"laposte_hexasmal","recordid":"4cc3106f44f72ea27e546f19fe25b5f4f0252341","fields":{"nom_de_la_commune":"LA CHAPELLE NEUVE","libell_d_acheminement":"LA CHAPELLE NEUVE","code_postal":"56500","coordonnees_gps":[47.855020898,-2.93430872541],"code_commune_insee":"56039"},"geometry":{"type":"Point","coordinates":[-2.93430872541,47.855020898]},"record_timestamp":"2016-05-09T15:17:00+02:00"},{"datasetid":"laposte_hexasmal","recordid":"a805b67ac3f4802cd2ee45b9840f590ddd780a47","fields":{"nom_de_la_commune":"CLEGUER","libell_d_acheminement":"CLEGUER","code_postal":"56620","coordonnees_gps":[47.8651441358,-3.36505283669],"code_commune_insee":"56040"},"geometry":{"type":"Point","coordinates":[-3.36505283669,47.8651441358]},"record_timestamp":"2016-05-09T15:17:00+02:00"},{"datasetid":"laposte_hexasmal","recordid":"c2922e89f7728c711b2663435d89dc410a51524c","fields":{"nom_de_la_commune":"ERDEVEN","libell_d_acheminement":"ERDEVEN","code_postal":"56410","coordonnees_gps":[47.6370207886,-3.15628129656],"code_commune_insee":"56054"},"geometry":{"type":"Point","coordinates":[-3.15628129656,47.6370207886]},"record_timestamp":"2016-05-09T15:17:00+02:00"},{"datasetid":"laposte_hexasmal","recordid":"6eaeb05151b110b5463403b2d6387c4ea9e3178c","fields":{"nom_de_la_commune":"FEREL","libell_d_acheminement":"FEREL","code_postal":"56130","coordonnees_gps":[47.4873744391,-2.34002198542],"code_commune_insee":"56058"},"geometry":{"type":"Point","coordinates":[-2.34002198542,47.4873744391]},"record_timestamp":"2016-05-09T15:17:00+02:00"},{"datasetid":"laposte_hexasmal","recordid":"496dfe339f3e749fcf9f0cfa034d2cecf8d2b411","fields":{"nom_de_la_commune":"LES FOUGERETS","libell_d_acheminement":"LES FOUGERETS","code_postal":"56200","coordonnees_gps":[47.7480373026,-2.19710765653],"code_commune_insee":"56060"},"geometry":{"type":"Point","coordinates":[-2.19710765653,47.7480373026]},"record_timestamp":"2016-05-09T15:17:00+02:00"},{"datasetid":"laposte_hexasmal","recordid":"928bc239395dd22385cfcbdf0b842225513cfee4","fields":{"nom_de_la_commune":"GOURHEL","libell_d_acheminement":"GOURHEL","code_postal":"56800","coordonnees_gps":[47.9391748838,-2.35828875195],"code_commune_insee":"56065"},"geometry":{"type":"Point","coordinates":[-2.35828875195,47.9391748838]},"record_timestamp":"2016-05-09T15:17:00+02:00"},{"datasetid":"laposte_hexasmal","recordid":"740549cfd169d3d83d5bb64974ec6eb98c1d6e24","fields":{"nom_de_la_commune":"GUELTAS","libell_d_acheminement":"GUELTAS","code_postal":"56920","coordonnees_gps":[48.0920646623,-2.80987346419],"code_commune_insee":"56072"},"geometry":{"type":"Point","coordinates":[-2.80987346419,48.0920646623]},"record_timestamp":"2016-05-09T15:17:00+02:00"},{"datasetid":"laposte_hexasmal","recordid":"0862759dd5b1eda6ed1889633d8f34220b7e8acb","fields":{"nom_de_la_commune":"GUER","libell_d_acheminement":"GUER","code_postal":"56380","coordonnees_gps":[47.9073328689,-2.12921667557],"code_commune_insee":"56075"},"geometry":{"type":"Point","coordinates":[-2.12921667557,47.9073328689]},"record_timestamp":"2016-05-09T15:17:00+02:00"},{"datasetid":"laposte_hexasmal","recordid":"28c0e799d7c93a14bbeb07acbb21d1aa505f1d91","fields":{"nom_de_la_commune":"GUIDEL","libell_d_acheminement":"GUIDEL","code_postal":"56520","coordonnees_gps":[47.7940076851,-3.49161886127],"code_commune_insee":"56078"},"geometry":{"type":"Point","coordinates":[-3.49161886127,47.7940076851]},"record_timestamp":"2016-05-09T15:17:00+02:00"},{"datasetid":"laposte_hexasmal","recordid":"8c99e6861787a6200bf16787e216d00c3daf3b55","fields":{"nom_de_la_commune":"HENNEBONT","libell_d_acheminement":"HENNEBONT","code_postal":"56700","coordonnees_gps":[47.807556604,-3.26971559866],"code_commune_insee":"56083"},"geometry":{"type":"Point","coordinates":[-3.26971559866,47.807556604]},"record_timestamp":"2016-05-09T15:17:00+02:00"},{"datasetid":"laposte_hexasmal","recordid":"6f03c3b681f008d84e490b913adc4cabc8fc5351","fields":{"nom_de_la_commune":"KERGRIST","libell_d_acheminement":"KERGRIST","code_postal":"56300","coordonnees_gps":[48.1472818466,-2.92787554336],"code_commune_insee":"56093"},"geometry":{"type":"Point","coordinates":[-2.92787554336,48.1472818466]},"record_timestamp":"2016-05-09T15:17:00+02:00"},{"datasetid":"laposte_hexasmal","recordid":"e08da6784b9d773f1d050b5a1faa5dbb741ac73e","fields":{"nom_de_la_commune":"LANESTER","libell_d_acheminement":"LANESTER","code_postal":"56600","coordonnees_gps":[47.7691924277,-3.32648317962],"code_commune_insee":"56098"},"geometry":{"type":"Point","coordinates":[-3.32648317962,47.7691924277]},"record_timestamp":"2016-05-09T15:17:00+02:00"},{"datasetid":"laposte_hexasmal","recordid":"722c9eed36c4bea6d0136ae9763477ad3d4fd515","fields":{"nom_de_la_commune":"LANGUIDIC","libell_d_acheminement":"LANGUIDIC","code_postal":"56440","coordonnees_gps":[47.8365621011,-3.14756396353],"code_commune_insee":"56101"},"geometry":{"type":"Point","coordinates":[-3.14756396353,47.8365621011]},"record_timestamp":"2016-05-09T15:17:00+02:00"},{"datasetid":"laposte_hexasmal","recordid":"d8b796e1fa7f7239efefd60048ae33b3f5ba46ab","fields":{"nom_de_la_commune":"LANOUEE","libell_d_acheminement":"LANOUEE","code_postal":"56120","coordonnees_gps":[47.9872211991,-2.57567607546],"code_commune_insee":"56102"},"geometry":{"type":"Point","coordinates":[-2.57567607546,47.9872211991]},"record_timestamp":"2016-05-09T15:17:00+02:00"},{"datasetid":"laposte_hexasmal","recordid":"86e17840c2f6a92c8cef6b8e8e483b4742947740","fields":{"nom_de_la_commune":"LANTILLAC","libell_d_acheminement":"LANTILLAC","code_postal":"56120","coordonnees_gps":[47.9513185093,-2.66089059866],"code_commune_insee":"56103"},"geometry":{"type":"Point","coordinates":[-2.66089059866,47.9513185093]},"record_timestamp":"2016-05-09T15:17:00+02:00"},{"datasetid":"laposte_hexasmal","recordid":"62b7eeedd5555ce17183827d985b7f312da243a2","fields":{"nom_de_la_commune":"LARMOR PLAGE","libell_d_acheminement":"LARMOR PLAGE","code_postal":"56260","coordonnees_gps":[47.7159229255,-3.39111373247],"code_commune_insee":"56107"},"geometry":{"type":"Point","coordinates":[-3.39111373247,47.7159229255]},"record_timestamp":"2016-05-09T15:17:00+02:00"},{"datasetid":"laposte_hexasmal","recordid":"61afdb4cbf55b889f47627194a23ab0a36a92e7d","fields":{"nom_de_la_commune":"LIGNOL","libell_d_acheminement":"LIGNOL","code_postal":"56160","coordonnees_gps":[48.0272907982,-3.27168989222],"code_commune_insee":"56110"},"geometry":{"type":"Point","coordinates":[-3.27168989222,48.0272907982]},"record_timestamp":"2016-05-09T15:17:00+02:00"},{"datasetid":"laposte_hexasmal","recordid":"47410b782525cf691754f9e62743235f4f7dd8bd","fields":{"nom_de_la_commune":"LOCMARIA GRAND CHAMP","libell_d_acheminement":"LOCMARIA GRAND CHAMP","code_postal":"56390","coordonnees_gps":[47.7597989098,-2.79009588918],"code_commune_insee":"56115"},"geometry":{"type":"Point","coordinates":[-2.79009588918,47.7597989098]},"record_timestamp":"2016-05-09T15:17:00+02:00"},{"datasetid":"laposte_hexasmal","recordid":"0e06e5f905ff7ba619ebad928db3b33594ce2054","fields":{"nom_de_la_commune":"LOCMINE","libell_d_acheminement":"LOCMINE","code_postal":"56500","coordonnees_gps":[47.8796108678,-2.83755408244],"code_commune_insee":"56117"},"geometry":{"type":"Point","coordinates":[-2.83755408244,47.8796108678]},"record_timestamp":"2016-05-09T15:17:00+02:00"},{"datasetid":"laposte_hexasmal","recordid":"d7f3a4b41951c80b0794db7c436982f6ddf31ce7","fields":{"nom_de_la_commune":"LOCQUELTAS","libell_d_acheminement":"LOCQUELTAS","code_postal":"56390","coordonnees_gps":[47.7645245564,-2.75837514675],"code_commune_insee":"56120"},"geometry":{"type":"Point","coordinates":[-2.75837514675,47.7645245564]},"record_timestamp":"2016-05-09T15:17:00+02:00"},{"datasetid":"laposte_hexasmal","recordid":"a14223b1ddf931e22aaaaee8d4a73324baa70239","fields":{"nom_de_la_commune":"MENEAC","libell_d_acheminement":"MENEAC","code_postal":"56490","coordonnees_gps":[48.1310055293,-2.45348998168],"code_commune_insee":"56129"},"geometry":{"type":"Point","coordinates":[-2.45348998168,48.1310055293]},"record_timestamp":"2016-05-09T15:17:00+02:00"},{"datasetid":"laposte_hexasmal","recordid":"2bdddcecb26e12d3808fb8dc220f4f71c17f4575","fields":{"nom_de_la_commune":"MESLAN","libell_d_acheminement":"MESLAN","code_postal":"56320","coordonnees_gps":[47.9879241099,-3.44802769432],"code_commune_insee":"56131"},"geometry":{"type":"Point","coordinates":[-3.44802769432,47.9879241099]},"record_timestamp":"2016-05-09T15:17:00+02:00"},{"datasetid":"laposte_hexasmal","recordid":"8dd85f6d163d0fd582c6d8cc098b0b0988dd9245","fields":{"nom_de_la_commune":"MOREAC","libell_d_acheminement":"MOREAC","code_postal":"56500","coordonnees_gps":[47.9328057263,-2.80381737947],"code_commune_insee":"56140"},"geometry":{"type":"Point","coordinates":[-2.80381737947,47.9328057263]},"record_timestamp":"2016-05-09T15:17:00+02:00"},{"datasetid":"laposte_hexasmal","recordid":"cd85de6d10e0300ed5d53db1d5abdf39178bf75a","fields":{"nom_de_la_commune":"MUZILLAC","libell_d_acheminement":"MUZILLAC","code_postal":"56190","coordonnees_gps":[47.5547990071,-2.47313130571],"code_commune_insee":"56143"},"geometry":{"type":"Point","coordinates":[-2.47313130571,47.5547990071]},"record_timestamp":"2016-05-09T15:17:00+02:00"},{"datasetid":"laposte_hexasmal","recordid":"0cb10a9ff3c60dc0bcfdf005fb3547dbc503f4e1","fields":{"code_postal":"56500","code_commune_insee":"56144","libell_d_acheminement":"EVELLYS","ligne_5":"NAIZIN","nom_de_la_commune":"EVELLYS","coordonnees_gps":[47.9969702073,-2.84450199902]},"geometry":{"type":"Point","coordinates":[-2.84450199902,47.9969702073]},"record_timestamp":"2016-05-09T15:17:00+02:00"},{"datasetid":"laposte_hexasmal","recordid":"9b142de15b7e7d3ffb3dec8725c43050624fb173","fields":{"code_postal":"56500","code_commune_insee":"56144","libell_d_acheminement":"EVELLYS","ligne_5":"REMUNGOL","nom_de_la_commune":"EVELLYS","coordonnees_gps":[47.9969702073,-2.84450199902]},"geometry":{"type":"Point","coordinates":[-2.84450199902,47.9969702073]},"record_timestamp":"2016-05-09T15:17:00+02:00"},{"datasetid":"laposte_hexasmal","recordid":"3bca33f97420590688fc7077852b6f1cd7a83483","fields":{"nom_de_la_commune":"NIVILLAC","libell_d_acheminement":"NIVILLAC","code_postal":"56130","coordonnees_gps":[47.5405533272,-2.24923467173],"code_commune_insee":"56147"},"geometry":{"type":"Point","coordinates":[-2.24923467173,47.5405533272]},"record_timestamp":"2016-05-09T15:17:00+02:00"},{"datasetid":"laposte_hexasmal","recordid":"fe70c72ec99115f0c156614863905dbbde5f65d4","fields":{"nom_de_la_commune":"NOYAL MUZILLAC","libell_d_acheminement":"NOYAL MUZILLAC","code_postal":"56190","coordonnees_gps":[47.5996326601,-2.45965724155],"code_commune_insee":"56149"},"geometry":{"type":"Point","coordinates":[-2.45965724155,47.5996326601]},"record_timestamp":"2016-05-09T15:17:00+02:00"},{"datasetid":"laposte_hexasmal","recordid":"0cbb39d6f42f06edb5e1bcf8e993027e0b17a397","fields":{"nom_de_la_commune":"PEILLAC","libell_d_acheminement":"PEILLAC","code_postal":"56220","coordonnees_gps":[47.7151673014,-2.21864708228],"code_commune_insee":"56154"},"geometry":{"type":"Point","coordinates":[-2.21864708228,47.7151673014]},"record_timestamp":"2016-05-09T15:17:00+02:00"},{"datasetid":"laposte_hexasmal","recordid":"b15ea42a9ad68af3291330d03e94c79c54a86f5f","fields":{"nom_de_la_commune":"PLEUGRIFFET","libell_d_acheminement":"PLEUGRIFFET","code_postal":"56120","coordonnees_gps":[47.9938347053,-2.69149691604],"code_commune_insee":"56160"},"geometry":{"type":"Point","coordinates":[-2.69149691604,47.9938347053]},"record_timestamp":"2016-05-09T15:17:00+02:00"},{"datasetid":"laposte_hexasmal","recordid":"b1c23a9c2f11cf3506df8e8b4b4670e209037114","fields":{"nom_de_la_commune":"PLOEMEL","libell_d_acheminement":"PLOEMEL","code_postal":"56400","coordonnees_gps":[47.6594932649,-3.07159403186],"code_commune_insee":"56161"},"geometry":{"type":"Point","coordinates":[-3.07159403186,47.6594932649]},"record_timestamp":"2016-05-09T15:17:00+02:00"},{"datasetid":"laposte_hexasmal","recordid":"bb817a0e222c8e816c869dd5e3859b624400f183","fields":{"nom_de_la_commune":"PLOEREN","libell_d_acheminement":"PLOEREN","code_postal":"56880","coordonnees_gps":[47.6618147163,-2.84313700258],"code_commune_insee":"56164"},"geometry":{"type":"Point","coordinates":[-2.84313700258,47.6618147163]},"record_timestamp":"2016-05-09T15:17:00+02:00"},{"datasetid":"laposte_hexasmal","recordid":"ace3863111c1d85fd6663c630a0e971108cdd8c4","fields":{"nom_de_la_commune":"PLUMELIAU","libell_d_acheminement":"PLUMELIAU","code_postal":"56930","coordonnees_gps":[47.9650479618,-2.98095397344],"code_commune_insee":"56173"},"geometry":{"type":"Point","coordinates":[-2.98095397344,47.9650479618]},"record_timestamp":"2016-05-09T15:17:00+02:00"},{"datasetid":"laposte_hexasmal","recordid":"17775981bbd4d685250342eac2f7642e8279e855","fields":{"nom_de_la_commune":"PLUMELIN","libell_d_acheminement":"PLUMELIN","code_postal":"56500","coordonnees_gps":[47.8825173769,-2.88768093525],"code_commune_insee":"56174"},"geometry":{"type":"Point","coordinates":[-2.88768093525,47.8825173769]},"record_timestamp":"2016-05-09T15:17:00+02:00"},{"datasetid":"laposte_hexasmal","recordid":"0c8a097d0471eddf43cafefb06999114449434ff","fields":{"nom_de_la_commune":"PLUNERET","libell_d_acheminement":"PLUNERET","code_postal":"56400","coordonnees_gps":[47.6782099916,-2.9456811423],"code_commune_insee":"56176"},"geometry":{"type":"Point","coordinates":[-2.9456811423,47.6782099916]},"record_timestamp":"2016-05-09T15:17:00+02:00"},{"datasetid":"laposte_hexasmal","recordid":"16d983a2a641eb843644574a07c1ad31ec069b92","fields":{"nom_de_la_commune":"PONT SCORFF","libell_d_acheminement":"PONT SCORFF","code_postal":"56620","coordonnees_gps":[47.839096749,-3.41967999137],"code_commune_insee":"56179"},"geometry":{"type":"Point","coordinates":[-3.41967999137,47.839096749]},"record_timestamp":"2016-05-09T15:17:00+02:00"},{"datasetid":"laposte_hexasmal","recordid":"b871a587324d8a6c907f81325df7c6745ce6cce9","fields":{"nom_de_la_commune":"QUIBERON","libell_d_acheminement":"QUIBERON","code_postal":"56170","coordonnees_gps":[47.4881657518,-3.12282400639],"code_commune_insee":"56186"},"geometry":{"type":"Point","coordinates":[-3.12282400639,47.4881657518]},"record_timestamp":"2016-05-09T15:17:00+02:00"},{"datasetid":"laposte_hexasmal","recordid":"5fa13d71948a2d3ca2de0495c62a9320d9ba9214","fields":{"nom_de_la_commune":"QUISTINIC","libell_d_acheminement":"QUISTINIC","code_postal":"56310","coordonnees_gps":[47.9093287127,-3.12816047592],"code_commune_insee":"56188"},"geometry":{"type":"Point","coordinates":[-3.12816047592,47.9093287127]},"record_timestamp":"2016-05-09T15:17:00+02:00"},{"datasetid":"laposte_hexasmal","recordid":"accd5c926bcccc3e2a542dfdd0af23caaa46b58e","fields":{"nom_de_la_commune":"REGUINY","libell_d_acheminement":"REGUINY","code_postal":"56500","coordonnees_gps":[47.9858944462,-2.77189767095],"code_commune_insee":"56190"},"geometry":{"type":"Point","coordinates":[-2.77189767095,47.9858944462]},"record_timestamp":"2016-05-09T15:17:00+02:00"},{"datasetid":"laposte_hexasmal","recordid":"23d72ce0259d6e571463a56d3f8a0e0fb0450743","fields":{"nom_de_la_commune":"RIANTEC","libell_d_acheminement":"RIANTEC","code_postal":"56670","coordonnees_gps":[47.7184369348,-3.30221298077],"code_commune_insee":"56193"},"geometry":{"type":"Point","coordinates":[-3.30221298077,47.7184369348]},"record_timestamp":"2016-05-09T15:17:00+02:00"},{"datasetid":"laposte_hexasmal","recordid":"000ba1e05ba0e06ce130ccff44ecb21922c1e47e","fields":{"nom_de_la_commune":"ST ALLOUESTRE","libell_d_acheminement":"ST ALLOUESTRE","code_postal":"56500","coordonnees_gps":[47.9081978294,-2.73628511193],"code_commune_insee":"56204"},"geometry":{"type":"Point","coordinates":[-2.73628511193,47.9081978294]},"record_timestamp":"2016-05-09T15:17:00+02:00"},{"datasetid":"laposte_hexasmal","recordid":"1e48bd46ea0ed85f13395a361457165c737bdce9","fields":{"nom_de_la_commune":"ST CARADEC TREGOMEL","libell_d_acheminement":"ST CARADEC TREGOMEL","code_postal":"56540","coordonnees_gps":[48.0321760477,-3.35137450933],"code_commune_insee":"56210"},"geometry":{"type":"Point","coordinates":[-3.35137450933,48.0321760477]},"record_timestamp":"2016-05-09T15:17:00+02:00"},{"datasetid":"laposte_hexasmal","recordid":"593a731547f03d75e1484996964276c16271ca09","fields":{"nom_de_la_commune":"ST GERAND","libell_d_acheminement":"ST GERAND","code_postal":"56920","coordonnees_gps":[48.1085338932,-2.88597650893],"code_commune_insee":"56213"},"geometry":{"type":"Point","coordinates":[-2.88597650893,48.1085338932]},"record_timestamp":"2016-05-09T15:17:00+02:00"},{"datasetid":"laposte_hexasmal","recordid":"683bf1bb72b8189bf09a25f3414219b03fd64ba0","fields":{"nom_de_la_commune":"ST MARCEL","libell_d_acheminement":"ST MARCEL","code_postal":"56140","coordonnees_gps":[47.8114442291,-2.41640908391],"code_commune_insee":"56228"},"geometry":{"type":"Point","coordinates":[-2.41640908391,47.8114442291]},"record_timestamp":"2016-05-09T15:17:00+02:00"},{"datasetid":"laposte_hexasmal","recordid":"5273af4a78c691e256d169610e8ec761cf2c96f7","fields":{"nom_de_la_commune":"ST VINCENT SUR OUST","libell_d_acheminement":"ST VINCENT SUR OUST","code_postal":"56350","coordonnees_gps":[47.7023139983,-2.14800708531],"code_commune_insee":"56239"},"geometry":{"type":"Point","coordinates":[-2.14800708531,47.7023139983]},"record_timestamp":"2016-05-09T15:17:00+02:00"},{"datasetid":"laposte_hexasmal","recordid":"b706a08cc0aefcbf07e1321ec9ec4b82ec80622e","fields":{"code_postal":"56450","code_commune_insee":"56251","libell_d_acheminement":"THEIX NOYALO","ligne_5":"NOYALO","nom_de_la_commune":"THEIX NOYALO","coordonnees_gps":[47.6356885267,-2.64682620132]},"geometry":{"type":"Point","coordinates":[-2.64682620132,47.6356885267]},"record_timestamp":"2016-05-09T15:17:00+02:00"},{"datasetid":"laposte_hexasmal","recordid":"e441b790381e5ebaae794530dee84599d5dbf8ac","fields":{"nom_de_la_commune":"TREAL","libell_d_acheminement":"TREAL","code_postal":"56140","coordonnees_gps":[47.832976381,-2.22970819032],"code_commune_insee":"56253"},"geometry":{"type":"Point","coordinates":[-2.22970819032,47.832976381]},"record_timestamp":"2016-05-09T15:17:00+02:00"},{"datasetid":"laposte_hexasmal","recordid":"7d963427f446f1c1e9ad7d7f4e42eee0f831ad88","fields":{"nom_de_la_commune":"BONO","libell_d_acheminement":"LE BONO","code_postal":"56400","coordonnees_gps":[47.6369017681,-2.93950115097],"code_commune_insee":"56262"},"geometry":{"type":"Point","coordinates":[-2.93950115097,47.6369017681]},"record_timestamp":"2016-05-09T15:17:00+02:00"},{"datasetid":"laposte_hexasmal","recordid":"a8bbcfeab598d675b198f0e619e404e143321fc5","fields":{"nom_de_la_commune":"STE ANNE D AURAY","libell_d_acheminement":"STE ANNE D AURAY","code_postal":"56400","coordonnees_gps":[47.7009234212,-2.95341644757],"code_commune_insee":"56263"},"geometry":{"type":"Point","coordinates":[-2.95341644757,47.7009234212]},"record_timestamp":"2016-05-09T15:17:00+02:00"},{"datasetid":"laposte_hexasmal","recordid":"3facd16b398d8688140b4b00ddf5bec5d0cc2eb6","fields":{"nom_de_la_commune":"KERNASCLEDEN","libell_d_acheminement":"KERNASCLEDEN","code_postal":"56540","coordonnees_gps":[48.0077330975,-3.32930106576],"code_commune_insee":"56264"},"geometry":{"type":"Point","coordinates":[-3.32930106576,48.0077330975]},"record_timestamp":"2016-05-09T15:17:00+02:00"},{"datasetid":"laposte_hexasmal","recordid":"69882a96c0e83ebd418df53c93ff38e1ce8a2840","fields":{"nom_de_la_commune":"ALLAIRE","libell_d_acheminement":"ALLAIRE","code_postal":"56350","coordonnees_gps":[47.6392193445,-2.17681507496],"code_commune_insee":"56001"},"geometry":{"type":"Point","coordinates":[-2.17681507496,47.6392193445]},"record_timestamp":"2016-05-09T15:17:00+02:00"},{"datasetid":"laposte_hexasmal","recordid":"84021d58c9ace2b99af5247a014341f43673b23d","fields":{"nom_de_la_commune":"BEGANNE","libell_d_acheminement":"BEGANNE","code_postal":"56350","coordonnees_gps":[47.6025516588,-2.2440968565],"code_commune_insee":"56011"},"geometry":{"type":"Point","coordinates":[-2.2440968565,47.6025516588]},"record_timestamp":"2016-05-09T15:17:00+02:00"},{"datasetid":"laposte_hexasmal","recordid":"6ede50fb0112a4279622a68cca73242fcc66088c","fields":{"nom_de_la_commune":"BIGNAN","libell_d_acheminement":"BIGNAN","code_postal":"56500","coordonnees_gps":[47.8771804702,-2.75915073091],"code_commune_insee":"56017"},"geometry":{"type":"Point","coordinates":[-2.75915073091,47.8771804702]},"record_timestamp":"2016-05-09T15:17:00+02:00"},{"datasetid":"laposte_hexasmal","recordid":"57977ee88cbfe6ec6151e991eca8e30fd996a552","fields":{"nom_de_la_commune":"BRANDERION","libell_d_acheminement":"BRANDERION","code_postal":"56700","coordonnees_gps":[47.79176054,-3.19316403763],"code_commune_insee":"56021"},"geometry":{"type":"Point","coordinates":[-3.19316403763,47.79176054]},"record_timestamp":"2016-05-09T15:17:00+02:00"},{"datasetid":"laposte_hexasmal","recordid":"139925872c2279eb5dd1ca7e5cf24832972447c5","fields":{"nom_de_la_commune":"BULEON","libell_d_acheminement":"BULEON","code_postal":"56420","coordonnees_gps":[47.9204907078,-2.675100146],"code_commune_insee":"56027"},"geometry":{"type":"Point","coordinates":[-2.675100146,47.9204907078]},"record_timestamp":"2016-05-09T15:17:00+02:00"},{"datasetid":"laposte_hexasmal","recordid":"0647072f6c6d7c7e83e3e5064235040130e2c0cb","fields":{"nom_de_la_commune":"CREDIN","libell_d_acheminement":"CREDIN","code_postal":"56580","coordonnees_gps":[48.0385062482,-2.76505746928],"code_commune_insee":"56047"},"geometry":{"type":"Point","coordinates":[-2.76505746928,48.0385062482]},"record_timestamp":"2016-05-09T15:17:00+02:00"},{"datasetid":"laposte_hexasmal","recordid":"664d2e322a8f91135ed2efb7ea69aef1ce7484e8","fields":{"nom_de_la_commune":"LES FORGES","libell_d_acheminement":"LES FORGES","code_postal":"56120","coordonnees_gps":[48.0299375029,-2.58479776688],"code_commune_insee":"56059"},"geometry":{"type":"Point","coordinates":[-2.58479776688,48.0299375029]},"record_timestamp":"2016-05-09T15:17:00+02:00"},{"datasetid":"laposte_hexasmal","recordid":"0b5fb98997a55826c01726153716eb201a61f93b","fields":{"nom_de_la_commune":"LA GACILLY","libell_d_acheminement":"LA GACILLY","code_postal":"56200","coordonnees_gps":[47.7728317091,-2.15651114837],"code_commune_insee":"56061"},"geometry":{"type":"Point","coordinates":[-2.15651114837,47.7728317091]},"record_timestamp":"2016-05-09T15:17:00+02:00"},{"datasetid":"laposte_hexasmal","recordid":"a320b9a3c60a5759f2b13c0ba4136655524fb36f","fields":{"nom_de_la_commune":"LA GREE ST LAURENT","libell_d_acheminement":"LA GREE ST LAURENT","code_postal":"56120","coordonnees_gps":[48.0015062155,-2.5032399429],"code_commune_insee":"56068"},"geometry":{"type":"Point","coordinates":[-2.5032399429,48.0015062155]},"record_timestamp":"2016-05-09T15:17:00+02:00"},{"datasetid":"laposte_hexasmal","recordid":"267b60e8b16e21cc62c1405629d5ef921b5c4fb3","fields":{"nom_de_la_commune":"GROIX","libell_d_acheminement":"GROIX","code_postal":"56590","coordonnees_gps":[47.6372394221,-3.4644268016],"code_commune_insee":"56069"},"geometry":{"type":"Point","coordinates":[-3.4644268016,47.6372394221]},"record_timestamp":"2016-05-09T15:17:00+02:00"},{"datasetid":"laposte_hexasmal","recordid":"6fc32be4ff1f9c87a79b9dc1e58fda5454395ee4","fields":{"nom_de_la_commune":"HELLEAN","libell_d_acheminement":"HELLEAN","code_postal":"56120","coordonnees_gps":[47.9684046119,-2.48122455823],"code_commune_insee":"56082"},"geometry":{"type":"Point","coordinates":[-2.48122455823,47.9684046119]},"record_timestamp":"2016-05-09T15:17:00+02:00"},{"datasetid":"laposte_hexasmal","recordid":"2077163f7f6d5a7b6f208fcdc95b98e58c4a1b47","fields":{"nom_de_la_commune":"LE HEZO","libell_d_acheminement":"LE HEZO","code_postal":"56450","coordonnees_gps":[47.5806224027,-2.69210124119],"code_commune_insee":"56084"},"geometry":{"type":"Point","coordinates":[-2.69210124119,47.5806224027]},"record_timestamp":"2016-05-09T15:17:00+02:00"},{"datasetid":"laposte_hexasmal","recordid":"a5480d6d75d53248c77523973558b598d3fdfadd","fields":{"nom_de_la_commune":"KERVIGNAC","libell_d_acheminement":"KERVIGNAC","code_postal":"56700","coordonnees_gps":[47.7686555667,-3.2479141613],"code_commune_insee":"56094"},"geometry":{"type":"Point","coordinates":[-3.2479141613,47.7686555667]},"record_timestamp":"2016-05-09T15:17:00+02:00"},{"datasetid":"laposte_hexasmal","recordid":"e934794bcd9b68ce2c698834f98599a0cf8a461e","fields":{"nom_de_la_commune":"LANVENEGEN","libell_d_acheminement":"LANVENEGEN","code_postal":"56320","coordonnees_gps":[48.004442867,-3.53246846865],"code_commune_insee":"56105"},"geometry":{"type":"Point","coordinates":[-3.53246846865,48.004442867]},"record_timestamp":"2016-05-09T15:17:00+02:00"},{"datasetid":"laposte_hexasmal","recordid":"f09b4a25bebf260acc5f094900d6d2725283b44d","fields":{"nom_de_la_commune":"LIZIO","libell_d_acheminement":"LIZIO","code_postal":"56460","coordonnees_gps":[47.8643087698,-2.51995591164],"code_commune_insee":"56112"},"geometry":{"type":"Point","coordinates":[-2.51995591164,47.8643087698]},"record_timestamp":"2016-05-09T15:17:00+02:00"},{"datasetid":"laposte_hexasmal","recordid":"8fad2ed03f653d8143627d9c32e51ea07edb9407","fields":{"nom_de_la_commune":"LOCMARIAQUER","libell_d_acheminement":"LOCMARIAQUER","code_postal":"56740","coordonnees_gps":[47.5780372256,-2.96305094247],"code_commune_insee":"56116"},"geometry":{"type":"Point","coordinates":[-2.96305094247,47.5780372256]},"record_timestamp":"2016-05-09T15:17:00+02:00"},{"datasetid":"laposte_hexasmal","recordid":"d16b4e054f0dfacce45f0231ebff0034d1dafff8","fields":{"nom_de_la_commune":"MALGUENAC","libell_d_acheminement":"MALGUENAC","code_postal":"56300","coordonnees_gps":[48.0690022602,-3.05620760639],"code_commune_insee":"56125"},"geometry":{"type":"Point","coordinates":[-3.05620760639,48.0690022602]},"record_timestamp":"2016-05-09T15:17:00+02:00"},{"datasetid":"laposte_hexasmal","recordid":"a16045866197e15d0dfd725b2cad005d356211ad","fields":{"nom_de_la_commune":"MELRAND","libell_d_acheminement":"MELRAND","code_postal":"56310","coordonnees_gps":[47.9750761347,-3.09950962004],"code_commune_insee":"56128"},"geometry":{"type":"Point","coordinates":[-3.09950962004,47.9750761347]},"record_timestamp":"2016-05-09T15:17:00+02:00"},{"datasetid":"laposte_hexasmal","recordid":"12b3cca8482afc4afd4c148f3707e41c7491231b","fields":{"nom_de_la_commune":"MEUCON","libell_d_acheminement":"MEUCON","code_postal":"56890","coordonnees_gps":[47.7239745954,-2.77407412753],"code_commune_insee":"56132"},"geometry":{"type":"Point","coordinates":[-2.77407412753,47.7239745954]},"record_timestamp":"2016-05-09T15:17:00+02:00"},{"datasetid":"laposte_hexasmal","recordid":"f56dadbe9957a933cfe2ccc0073a30389afdd97a","fields":{"nom_de_la_commune":"MISSIRIAC","libell_d_acheminement":"MISSIRIAC","code_postal":"56140","coordonnees_gps":[47.8239477341,-2.35554306974],"code_commune_insee":"56133"},"geometry":{"type":"Point","coordinates":[-2.35554306974,47.8239477341]},"record_timestamp":"2016-05-09T15:17:00+02:00"},{"datasetid":"laposte_hexasmal","recordid":"842cc26226c661e935b54bcdd56fb314e37b9551","fields":{"nom_de_la_commune":"MOLAC","libell_d_acheminement":"MOLAC","code_postal":"56230","coordonnees_gps":[47.7362321249,-2.43951991682],"code_commune_insee":"56135"},"geometry":{"type":"Point","coordinates":[-2.43951991682,47.7362321249]},"record_timestamp":"2016-05-09T15:17:00+02:00"},{"datasetid":"laposte_hexasmal","recordid":"ab018a68ad704187f8966e5eb06a1ae4b2a688b7","fields":{"nom_de_la_commune":"MONTERREIN","libell_d_acheminement":"MONTERREIN","code_postal":"56800","coordonnees_gps":[47.8834163205,-2.35602682087],"code_commune_insee":"56138"},"geometry":{"type":"Point","coordinates":[-2.35602682087,47.8834163205]},"record_timestamp":"2016-05-09T15:17:00+02:00"},{"datasetid":"laposte_hexasmal","recordid":"2bdee0715adeaa4f4193fbf2c8a201a00e885b4f","fields":{"nom_de_la_commune":"LE PALAIS","libell_d_acheminement":"LE PALAIS","code_postal":"56360","coordonnees_gps":[47.3426909682,-3.17102952046],"code_commune_insee":"56152"},"geometry":{"type":"Point","coordinates":[-3.17102952046,47.3426909682]},"record_timestamp":"2016-05-09T15:17:00+02:00"},{"datasetid":"laposte_hexasmal","recordid":"2777d84698c43e93fd8e33c73341b97d0cdbe2b1","fields":{"nom_de_la_commune":"PLAUDREN","libell_d_acheminement":"PLAUDREN","code_postal":"56420","coordonnees_gps":[47.7791727358,-2.69563725639],"code_commune_insee":"56157"},"geometry":{"type":"Point","coordinates":[-2.69563725639,47.7791727358]},"record_timestamp":"2016-05-09T15:17:00+02:00"},{"datasetid":"laposte_hexasmal","recordid":"1b0d914bc834f0956c3cdcd570992cea777e2579","fields":{"nom_de_la_commune":"PLESCOP","libell_d_acheminement":"PLESCOP","code_postal":"56890","coordonnees_gps":[47.6973490259,-2.83080852214],"code_commune_insee":"56158"},"geometry":{"type":"Point","coordinates":[-2.83080852214,47.6973490259]},"record_timestamp":"2016-05-09T15:17:00+02:00"},{"datasetid":"laposte_hexasmal","recordid":"f43b69457d7a3cd9258d542ed1a5c79be2fea0b0","fields":{"nom_de_la_commune":"PLOERDUT","libell_d_acheminement":"PLOERDUT","code_postal":"56160","coordonnees_gps":[48.092400423,-3.28849567828],"code_commune_insee":"56163"},"geometry":{"type":"Point","coordinates":[-3.28849567828,48.092400423]},"record_timestamp":"2016-05-09T15:17:00+02:00"},{"datasetid":"laposte_hexasmal","recordid":"a3371317bccb4965f38f87047247e9075425a4e7","fields":{"nom_de_la_commune":"PLOERMEL","libell_d_acheminement":"PLOERMEL","code_postal":"56800","coordonnees_gps":[47.9221801451,-2.38313563666],"code_commune_insee":"56165"},"geometry":{"type":"Point","coordinates":[-2.38313563666,47.9221801451]},"record_timestamp":"2016-05-09T15:17:00+02:00"},{"datasetid":"laposte_hexasmal","recordid":"5da31f34c194ef1e9c062b9be1322d757a6b2bde","fields":{"nom_de_la_commune":"PLOUAY","libell_d_acheminement":"PLOUAY","code_postal":"56240","coordonnees_gps":[47.9270557389,-3.33743884173],"code_commune_insee":"56166"},"geometry":{"type":"Point","coordinates":[-3.33743884173,47.9270557389]},"record_timestamp":"2016-05-09T15:17:00+02:00"},{"datasetid":"laposte_hexasmal","recordid":"87477bb45917cf0ddb1cfca5d6d30ceb8c8f26f1","fields":{"nom_de_la_commune":"PLUHERLIN","libell_d_acheminement":"PLUHERLIN","code_postal":"56220","coordonnees_gps":[47.7150813893,-2.36982500415],"code_commune_insee":"56171"},"geometry":{"type":"Point","coordinates":[-2.36982500415,47.7150813893]},"record_timestamp":"2016-05-09T15:17:00+02:00"},{"datasetid":"laposte_hexasmal","recordid":"dbbd54e303f9b5c6b3e71704811e7a648ab41b9f","fields":{"nom_de_la_commune":"REMINIAC","libell_d_acheminement":"REMINIAC","code_postal":"56140","coordonnees_gps":[47.8638253053,-2.25279250004],"code_commune_insee":"56191"},"geometry":{"type":"Point","coordinates":[-2.25279250004,47.8638253053]},"record_timestamp":"2016-05-09T15:17:00+02:00"},{"datasetid":"laposte_hexasmal","recordid":"248bbd0c465abc642d543829edf38bedbb336653","fields":{"nom_de_la_commune":"LA ROCHE BERNARD","libell_d_acheminement":"LA ROCHE BERNARD","code_postal":"56130","coordonnees_gps":[47.5193208116,-2.30307422213],"code_commune_insee":"56195"},"geometry":{"type":"Point","coordinates":[-2.30307422213,47.5193208116]},"record_timestamp":"2016-05-09T15:17:00+02:00"},{"datasetid":"laposte_hexasmal","recordid":"a8d3b6d3fb4022793b68ea720860303e04d7ef71","fields":{"code_postal":"56460","code_commune_insee":"56197","libell_d_acheminement":"VAL D OUST","ligne_5":"LA CHAPELLE CARO","nom_de_la_commune":"VAL D OUST","coordonnees_gps":[47.8685533688,-2.45624648415]},"geometry":{"type":"Point","coordinates":[-2.45624648415,47.8685533688]},"record_timestamp":"2016-05-09T15:17:00+02:00"},{"datasetid":"laposte_hexasmal","recordid":"d1c70e62b779b0f335c97e1bb2a20d96013c0ed7","fields":{"nom_de_la_commune":"ST AIGNAN","libell_d_acheminement":"ST AIGNAN","code_postal":"56480","coordonnees_gps":[48.1820807024,-3.04891714742],"code_commune_insee":"56203"},"geometry":{"type":"Point","coordinates":[-3.04891714742,48.1820807024]},"record_timestamp":"2016-05-09T15:17:00+02:00"},{"datasetid":"laposte_hexasmal","recordid":"731b0d3f3207a6e48d3308add02ad23f7630db80","fields":{"nom_de_la_commune":"ST ARMEL","libell_d_acheminement":"ST ARMEL","code_postal":"56450","coordonnees_gps":[47.5631092443,-2.71087365172],"code_commune_insee":"56205"},"geometry":{"type":"Point","coordinates":[-2.71087365172,47.5631092443]},"record_timestamp":"2016-05-09T15:17:00+02:00"},{"datasetid":"laposte_hexasmal","recordid":"5cc81aa022627b4e413c97aedaeb97517ccc205c","fields":{"nom_de_la_commune":"ST AVE","libell_d_acheminement":"ST AVE","code_postal":"56890","coordonnees_gps":[47.6991321739,-2.7415830935],"code_commune_insee":"56206"},"geometry":{"type":"Point","coordinates":[-2.7415830935,47.6991321739]},"record_timestamp":"2016-05-09T15:17:00+02:00"},{"datasetid":"laposte_hexasmal","recordid":"afbb08550409e7467e5fc03c4cec97c636d95a67","fields":{"nom_de_la_commune":"ST BARTHELEMY","libell_d_acheminement":"ST BARTHELEMY","code_postal":"56150","coordonnees_gps":[47.9265481211,-3.04066993826],"code_commune_insee":"56207"},"geometry":{"type":"Point","coordinates":[-3.04066993826,47.9265481211]},"record_timestamp":"2016-05-09T15:17:00+02:00"},{"datasetid":"laposte_hexasmal","recordid":"fcd102eef848a058a54d25cd2ed97cc58aae8851","fields":{"nom_de_la_commune":"ST GILDAS DE RHUYS","libell_d_acheminement":"ST GILDAS DE RHUYS","code_postal":"56730","coordonnees_gps":[47.5128140114,-2.83281521373],"code_commune_insee":"56214"},"geometry":{"type":"Point","coordinates":[-2.83281521373,47.5128140114]},"record_timestamp":"2016-05-09T15:17:00+02:00"},{"datasetid":"laposte_hexasmal","recordid":"b1cfcc0fec220d3cb872ab044bcf481a64de970a","fields":{"nom_de_la_commune":"ST GORGON","libell_d_acheminement":"ST GORGON","code_postal":"56350","coordonnees_gps":[47.6418423031,-2.23845877778],"code_commune_insee":"56216"},"geometry":{"type":"Point","coordinates":[-2.23845877778,47.6418423031]},"record_timestamp":"2016-05-09T15:17:00+02:00"},{"datasetid":"laposte_hexasmal","recordid":"17bba3dd8a51b868f9100d950594939de72bf7f2","fields":{"nom_de_la_commune":"ST LAURENT SUR OUST","libell_d_acheminement":"ST LAURENT SUR OUST","code_postal":"56140","coordonnees_gps":[47.7918218379,-2.31430772802],"code_commune_insee":"56224"},"geometry":{"type":"Point","coordinates":[-2.31430772802,47.7918218379]},"record_timestamp":"2016-05-09T15:17:00+02:00"},{"datasetid":"laposte_hexasmal","recordid":"fed73d5bcd7baab02ee63ee4ecb5e1b106fe0f1b","fields":{"nom_de_la_commune":"ST MALO DES TROIS FONTAINES","libell_d_acheminement":"ST MALO DES TROIS FONTAINES","code_postal":"56490","coordonnees_gps":[48.0174200107,-2.46820100361],"code_commune_insee":"56227"},"geometry":{"type":"Point","coordinates":[-2.46820100361,48.0174200107]},"record_timestamp":"2016-05-09T15:17:00+02:00"},{"datasetid":"laposte_hexasmal","recordid":"2531aef4e801da1bcf6ea0e90c6d4113d6b0a972","fields":{"nom_de_la_commune":"ST MARTIN SUR OUST","libell_d_acheminement":"ST MARTIN SUR OUST","code_postal":"56200","coordonnees_gps":[47.7625644099,-2.26391469379],"code_commune_insee":"56229"},"geometry":{"type":"Point","coordinates":[-2.26391469379,47.7625644099]},"record_timestamp":"2016-05-09T15:17:00+02:00"},{"datasetid":"laposte_hexasmal","recordid":"872db8f68a23d77c75b8332826a8e53308b309f7","fields":{"nom_de_la_commune":"SEGLIEN","libell_d_acheminement":"SEGLIEN","code_postal":"56160","coordonnees_gps":[48.102365362,-3.15150581727],"code_commune_insee":"56242"},"geometry":{"type":"Point","coordinates":[-3.15150581727,48.102365362]},"record_timestamp":"2016-05-09T15:17:00+02:00"},{"datasetid":"laposte_hexasmal","recordid":"235a718ea092f255cc6441a7cad69dc1568acbec","fields":{"nom_de_la_commune":"THEHILLAC","libell_d_acheminement":"THEHILLAC","code_postal":"56130","coordonnees_gps":[47.552020586,-2.1182992394],"code_commune_insee":"56250"},"geometry":{"type":"Point","coordinates":[-2.1182992394,47.552020586]},"record_timestamp":"2016-05-09T15:17:00+02:00"},{"datasetid":"laposte_hexasmal","recordid":"507c1861eb1041f65ec912d8d86d4c541a880a03","fields":{"nom_de_la_commune":"THEIX NOYALO","libell_d_acheminement":"THEIX NOYALO","code_postal":"56450","coordonnees_gps":[47.6356885267,-2.64682620132],"code_commune_insee":"56251"},"geometry":{"type":"Point","coordinates":[-2.64682620132,47.6356885267]},"record_timestamp":"2016-05-09T15:17:00+02:00"},{"datasetid":"laposte_hexasmal","recordid":"3cb873c9850389c0978b018ab93e490829857e9c","fields":{"nom_de_la_commune":"LA TRINITE PORHOET","libell_d_acheminement":"LA TRINITE PORHOET","code_postal":"56490","coordonnees_gps":[48.0984875737,-2.52457196653],"code_commune_insee":"56257"},"geometry":{"type":"Point","coordinates":[-2.52457196653,48.0984875737]},"record_timestamp":"2016-05-09T15:17:00+02:00"},{"datasetid":"laposte_hexasmal","recordid":"0ab00ecec2b1ec31a3fb1994794186ce419782b5","fields":{"nom_de_la_commune":"LA TRINITE SURZUR","libell_d_acheminement":"LA TRINITE SURZUR","code_postal":"56190","coordonnees_gps":[47.6047054617,-2.59227223671],"code_commune_insee":"56259"},"geometry":{"type":"Point","coordinates":[-2.59227223671,47.6047054617]},"record_timestamp":"2016-05-09T15:17:00+02:00"},{"datasetid":"laposte_hexasmal","recordid":"37a73ce434b1ce5743a1f6a026343a7b7b4daca1","fields":{"nom_de_la_commune":"VANNES","libell_d_acheminement":"VANNES","code_postal":"56000","coordonnees_gps":[47.6597493766,-2.75714329498],"code_commune_insee":"56260"},"geometry":{"type":"Point","coordinates":[-2.75714329498,47.6597493766]},"record_timestamp":"2016-05-09T15:17:00+02:00"},{"datasetid":"laposte_hexasmal","recordid":"4eb54f26848a4a29deb6fbfbc2b7f018e4ec968d","fields":{"nom_de_la_commune":"ARRADON","libell_d_acheminement":"ARRADON","code_postal":"56610","coordonnees_gps":[47.6335958588,-2.8220328139],"code_commune_insee":"56003"},"geometry":{"type":"Point","coordinates":[-2.8220328139,47.6335958588]},"record_timestamp":"2016-05-09T15:17:00+02:00"},{"datasetid":"laposte_hexasmal","recordid":"89d355711a57e2bed7c74314a6760ce5b62bf952","fields":{"nom_de_la_commune":"BADEN","libell_d_acheminement":"BADEN","code_postal":"56870","coordonnees_gps":[47.614993273,-2.90383771516],"code_commune_insee":"56008"},"geometry":{"type":"Point","coordinates":[-2.90383771516,47.614993273]},"record_timestamp":"2016-05-09T15:17:00+02:00"},{"datasetid":"laposte_hexasmal","recordid":"fe155329677030abce686bf2b5648f83546464f9","fields":{"nom_de_la_commune":"BEIGNON","libell_d_acheminement":"BEIGNON","code_postal":"56380","coordonnees_gps":[47.9655803913,-2.1804139894],"code_commune_insee":"56012"},"geometry":{"type":"Point","coordinates":[-2.1804139894,47.9655803913]},"record_timestamp":"2016-05-09T15:17:00+02:00"},{"datasetid":"laposte_hexasmal","recordid":"18c1934aefcef900052761812f912bc06ecdeb56","fields":{"nom_de_la_commune":"BERNE","libell_d_acheminement":"BERNE","code_postal":"56240","coordonnees_gps":[47.9850566608,-3.37414883543],"code_commune_insee":"56014"},"geometry":{"type":"Point","coordinates":[-3.37414883543,47.9850566608]},"record_timestamp":"2016-05-09T15:17:00+02:00"},{"datasetid":"laposte_hexasmal","recordid":"1ee9805cd74ccb1cf26b5f9111d377ec4487dd76","fields":{"nom_de_la_commune":"BRECH","libell_d_acheminement":"BRECH","code_postal":"56400","coordonnees_gps":[47.709389623,-3.02425370135],"code_commune_insee":"56023"},"geometry":{"type":"Point","coordinates":[-3.02425370135,47.709389623]},"record_timestamp":"2016-05-09T15:17:00+02:00"},{"datasetid":"laposte_hexasmal","recordid":"15149c70233181c05ce31cd01ceb1e402594806a","fields":{"nom_de_la_commune":"CALAN","libell_d_acheminement":"CALAN","code_postal":"56240","coordonnees_gps":[47.8803732969,-3.31244277189],"code_commune_insee":"56029"},"geometry":{"type":"Point","coordinates":[-3.31244277189,47.8803732969]},"record_timestamp":"2016-05-09T15:17:00+02:00"},{"datasetid":"laposte_hexasmal","recordid":"1adbf74f60c0a5848b115f25319db21f7bb0289d","fields":{"nom_de_la_commune":"CARENTOIR","libell_d_acheminement":"CARENTOIR","code_postal":"56910","coordonnees_gps":[47.8204086772,-2.14646724944],"code_commune_insee":"56033"},"geometry":{"type":"Point","coordinates":[-2.14646724944,47.8204086772]},"record_timestamp":"2016-05-09T15:17:00+02:00"},{"datasetid":"laposte_hexasmal","recordid":"b4cf438c519ebcc873ca8c015afbe3a63311ab6a","fields":{"nom_de_la_commune":"CARO","libell_d_acheminement":"CARO","code_postal":"56140","coordonnees_gps":[47.8621010187,-2.32764949894],"code_commune_insee":"56035"},"geometry":{"type":"Point","coordinates":[-2.32764949894,47.8621010187]},"record_timestamp":"2016-05-09T15:17:00+02:00"},{"datasetid":"laposte_hexasmal","recordid":"310ced13833628591970a91f538f38cf69866f55","fields":{"nom_de_la_commune":"CAUDAN","libell_d_acheminement":"CAUDAN","code_postal":"56850","coordonnees_gps":[47.8132096296,-3.34070239075],"code_commune_insee":"56036"},"geometry":{"type":"Point","coordinates":[-3.34070239075,47.8132096296]},"record_timestamp":"2016-05-09T15:17:00+02:00"},{"datasetid":"laposte_hexasmal","recordid":"64b03ec95102a050c0f92a309def2b886bf6255b","fields":{"nom_de_la_commune":"CLEGUEREC","libell_d_acheminement":"CLEGUEREC","code_postal":"56480","coordonnees_gps":[48.1278326906,-3.0634223364],"code_commune_insee":"56041"},"geometry":{"type":"Point","coordinates":[-3.0634223364,48.1278326906]},"record_timestamp":"2016-05-09T15:17:00+02:00"},{"datasetid":"laposte_hexasmal","recordid":"8486380a9090d7114f8f19c157cb3d6b96364e47","fields":{"nom_de_la_commune":"COLPO","libell_d_acheminement":"COLPO","code_postal":"56390","coordonnees_gps":[47.8163021083,-2.80656999612],"code_commune_insee":"56042"},"geometry":{"type":"Point","coordinates":[-2.80656999612,47.8163021083]},"record_timestamp":"2016-05-09T15:17:00+02:00"},{"datasetid":"laposte_hexasmal","recordid":"833c9ee3f652c83cd6e5018ba3f9368574ccd79c","fields":{"nom_de_la_commune":"CONCORET","libell_d_acheminement":"CONCORET","code_postal":"56430","coordonnees_gps":[48.0658877259,-2.2085337227],"code_commune_insee":"56043"},"geometry":{"type":"Point","coordinates":[-2.2085337227,48.0658877259]},"record_timestamp":"2016-05-09T15:17:00+02:00"},{"datasetid":"laposte_hexasmal","recordid":"7be7866793fb1ee0dfa240f6cd2ea15ca77e0829","fields":{"nom_de_la_commune":"CROIXANVEC","libell_d_acheminement":"CROIXANVEC","code_postal":"56920","coordonnees_gps":[48.1350238881,-2.86804560575],"code_commune_insee":"56049"},"geometry":{"type":"Point","coordinates":[-2.86804560575,48.1350238881]},"record_timestamp":"2016-05-09T15:17:00+02:00"},{"datasetid":"laposte_hexasmal","recordid":"818eacbce8b0325bf5443928fe053fec5d053f06","fields":{"nom_de_la_commune":"LA CROIX HELLEAN","libell_d_acheminement":"LA CROIX HELLEAN","code_postal":"56120","coordonnees_gps":[47.9636789814,-2.51127913999],"code_commune_insee":"56050"},"geometry":{"type":"Point","coordinates":[-2.51127913999,47.9636789814]},"record_timestamp":"2016-05-09T15:17:00+02:00"},{"datasetid":"laposte_hexasmal","recordid":"b52c1aafdb7cdeb07d7774fb8c98c4b53db933cc","fields":{"nom_de_la_commune":"CRUGUEL","libell_d_acheminement":"CRUGUEL","code_postal":"56420","coordonnees_gps":[47.8775619552,-2.59076740576],"code_commune_insee":"56051"},"geometry":{"type":"Point","coordinates":[-2.59076740576,47.8775619552]},"record_timestamp":"2016-05-09T15:17:00+02:00"},{"datasetid":"laposte_hexasmal","recordid":"c684c6503773c3b518fe20dfeedc306598bac1ec","fields":{"nom_de_la_commune":"LE FAOUET","libell_d_acheminement":"LE FAOUET","code_postal":"56320","coordonnees_gps":[48.048735927,-3.50863192945],"code_commune_insee":"56057"},"geometry":{"type":"Point","coordinates":[-3.50863192945,48.048735927]},"record_timestamp":"2016-05-09T15:17:00+02:00"},{"datasetid":"laposte_hexasmal","recordid":"e6f6c4159d646cf263b74600cf815f1365d72d15","fields":{"nom_de_la_commune":"GLENAC","libell_d_acheminement":"GLENAC","code_postal":"56200","coordonnees_gps":[47.737831269,-2.14280393723],"code_commune_insee":"56064"},"geometry":{"type":"Point","coordinates":[-2.14280393723,47.737831269]},"record_timestamp":"2016-05-09T15:17:00+02:00"},{"datasetid":"laposte_hexasmal","recordid":"78485fb7cf9d0f6f4ead8d386e99b9bd1dc9993a","fields":{"nom_de_la_commune":"GRAND CHAMP","libell_d_acheminement":"GRAND CHAMP","code_postal":"56390","coordonnees_gps":[47.760673333,-2.84786424904],"code_commune_insee":"56067"},"geometry":{"type":"Point","coordinates":[-2.84786424904,47.760673333]},"record_timestamp":"2016-05-09T15:17:00+02:00"},{"datasetid":"laposte_hexasmal","recordid":"9564da267758ed0d614c487e02f71d72673ab3ce","fields":{"nom_de_la_commune":"GUEGON","libell_d_acheminement":"GUEGON","code_postal":"56120","coordonnees_gps":[47.9255876007,-2.58638209695],"code_commune_insee":"56070"},"geometry":{"type":"Point","coordinates":[-2.58638209695,47.9255876007]},"record_timestamp":"2016-05-09T15:17:00+02:00"},{"datasetid":"laposte_hexasmal","recordid":"094fcb2c38555c49827b252d22dc8c0f8c1d71d6","fields":{"nom_de_la_commune":"GUEHENNO","libell_d_acheminement":"GUEHENNO","code_postal":"56420","coordonnees_gps":[47.8922430084,-2.65141544204],"code_commune_insee":"56071"},"geometry":{"type":"Point","coordinates":[-2.65141544204,47.8922430084]},"record_timestamp":"2016-05-09T15:17:00+02:00"},{"datasetid":"laposte_hexasmal","recordid":"9a29516dcf66785aadfb5efc62f5e5b16560b3fa","fields":{"nom_de_la_commune":"GUEMENE SUR SCORFF","libell_d_acheminement":"GUEMENE SUR SCORFF","code_postal":"56160","coordonnees_gps":[48.0663101307,-3.20585471209],"code_commune_insee":"56073"},"geometry":{"type":"Point","coordinates":[-3.20585471209,48.0663101307]},"record_timestamp":"2016-05-09T15:17:00+02:00"},{"datasetid":"laposte_hexasmal","recordid":"089e964585647a805a2b315af8e6758dd8b75344","fields":{"nom_de_la_commune":"GUENIN","libell_d_acheminement":"GUENIN","code_postal":"56150","coordonnees_gps":[47.9054538153,-2.96668545756],"code_commune_insee":"56074"},"geometry":{"type":"Point","coordinates":[-2.96668545756,47.9054538153]},"record_timestamp":"2016-05-09T15:17:00+02:00"},{"datasetid":"laposte_hexasmal","recordid":"3c540772753cc65030d42728d35b95333950baa6","fields":{"nom_de_la_commune":"GUISCRIFF","libell_d_acheminement":"GUISCRIFF","code_postal":"56560","coordonnees_gps":[48.0427009622,-3.62381122626],"code_commune_insee":"56081"},"geometry":{"type":"Point","coordinates":[-3.62381122626,48.0427009622]},"record_timestamp":"2016-05-09T15:17:00+02:00"},{"datasetid":"laposte_hexasmal","recordid":"d40931511612a33cb1ae201baf8b1ef9f0182fd1","fields":{"nom_de_la_commune":"ILE AUX MOINES","libell_d_acheminement":"ILE AUX MOINES","code_postal":"56780","coordonnees_gps":[47.5862523195,-2.84876733291],"code_commune_insee":"56087"},"geometry":{"type":"Point","coordinates":[-2.84876733291,47.5862523195]},"record_timestamp":"2016-05-09T15:17:00+02:00"},{"datasetid":"laposte_hexasmal","recordid":"3c588df8fe4aedcf2a80b6a4c6d7f83e1ae4ba36","fields":{"nom_de_la_commune":"INGUINIEL","libell_d_acheminement":"INGUINIEL","code_postal":"56240","coordonnees_gps":[47.9555939738,-3.26003939704],"code_commune_insee":"56089"},"geometry":{"type":"Point","coordinates":[-3.26003939704,47.9555939738]},"record_timestamp":"2016-05-09T15:17:00+02:00"},{"datasetid":"laposte_hexasmal","recordid":"e78a1e105b3f5fe1a7f3e6f8fd0c751a739fc74b","fields":{"nom_de_la_commune":"KERFOURN","libell_d_acheminement":"KERFOURN","code_postal":"56920","coordonnees_gps":[48.0434067231,-2.83634810154],"code_commune_insee":"56092"},"geometry":{"type":"Point","coordinates":[-2.83634810154,48.0434067231]},"record_timestamp":"2016-05-09T15:17:00+02:00"},{"datasetid":"laposte_hexasmal","recordid":"3293c532dc09c46b355d6f4ceca2ed5cbe96c0ed","fields":{"nom_de_la_commune":"LANDEVANT","libell_d_acheminement":"LANDEVANT","code_postal":"56690","coordonnees_gps":[47.7714410604,-3.11373409438],"code_commune_insee":"56097"},"geometry":{"type":"Point","coordinates":[-3.11373409438,47.7714410604]},"record_timestamp":"2016-05-09T15:17:00+02:00"},{"datasetid":"laposte_hexasmal","recordid":"808f01477a92a66d8940b1c7a9c9747bf1f44939","fields":{"nom_de_la_commune":"LARRE","libell_d_acheminement":"LARRE","code_postal":"56230","coordonnees_gps":[47.7158136416,-2.49456221297],"code_commune_insee":"56108"},"geometry":{"type":"Point","coordinates":[-2.49456221297,47.7158136416]},"record_timestamp":"2016-05-09T15:17:00+02:00"},{"datasetid":"laposte_hexasmal","recordid":"baee1ae6ad52933cdfcdb1f3a6f11ec4999c5f91","fields":{"nom_de_la_commune":"LAUZACH","libell_d_acheminement":"LAUZACH","code_postal":"56190","coordonnees_gps":[47.6111902718,-2.55589461102],"code_commune_insee":"56109"},"geometry":{"type":"Point","coordinates":[-2.55589461102,47.6111902718]},"record_timestamp":"2016-05-09T15:17:00+02:00"},{"datasetid":"laposte_hexasmal","recordid":"af22319910daed87ed3d77f7ad0f8e2428e54167","fields":{"nom_de_la_commune":"LOCMARIA","libell_d_acheminement":"LOCMARIA","code_postal":"56360","coordonnees_gps":[47.3019658435,-3.10628601643],"code_commune_insee":"56114"},"geometry":{"type":"Point","coordinates":[-3.10628601643,47.3019658435]},"record_timestamp":"2016-05-09T15:17:00+02:00"},{"datasetid":"laposte_hexasmal","recordid":"811fe553198f83acf29f1bc8c9e5c0b3c7cf5777","fields":{"nom_de_la_commune":"LORIENT","libell_d_acheminement":"LORIENT","code_postal":"56100","coordonnees_gps":[47.7500486947,-3.37823200917],"code_commune_insee":"56121"},"geometry":{"type":"Point","coordinates":[-3.37823200917,47.7500486947]},"record_timestamp":"2016-05-09T15:17:00+02:00"},{"datasetid":"laposte_hexasmal","recordid":"c8b234867782ed8752931e37830eaac5c8e2afbb","fields":{"nom_de_la_commune":"MARZAN","libell_d_acheminement":"MARZAN","code_postal":"56130","coordonnees_gps":[47.5415287199,-2.35411657522],"code_commune_insee":"56126"},"geometry":{"type":"Point","coordinates":[-2.35411657522,47.5415287199]},"record_timestamp":"2016-05-09T15:17:00+02:00"},{"datasetid":"laposte_hexasmal","recordid":"be071bb0f957edb1636dfbe3cd55988c0b835174","fields":{"nom_de_la_commune":"MONTENEUF","libell_d_acheminement":"MONTENEUF","code_postal":"56380","coordonnees_gps":[47.8782281935,-2.1931404895],"code_commune_insee":"56136"},"geometry":{"type":"Point","coordinates":[-2.1931404895,47.8782281935]},"record_timestamp":"2016-05-09T15:17:00+02:00"},{"datasetid":"laposte_hexasmal","recordid":"7e46543de4006db03a6abc21bba50e41f3245fe1","fields":{"code_postal":"56500","code_commune_insee":"56144","libell_d_acheminement":"EVELLYS","ligne_5":"MOUSTOIR REMUNGOL","nom_de_la_commune":"EVELLYS","coordonnees_gps":[47.9969702073,-2.84450199902]},"geometry":{"type":"Point","coordinates":[-2.84450199902,47.9969702073]},"record_timestamp":"2016-05-09T15:17:00+02:00"},{"datasetid":"laposte_hexasmal","recordid":"cc49fc816118ede3443b3a5ce50b188bc799524a","fields":{"nom_de_la_commune":"NEANT SUR YVEL","libell_d_acheminement":"NEANT SUR YVEL","code_postal":"56430","coordonnees_gps":[48.0221749901,-2.33277424547],"code_commune_insee":"56145"},"geometry":{"type":"Point","coordinates":[-2.33277424547,48.0221749901]},"record_timestamp":"2016-05-09T15:17:00+02:00"},{"datasetid":"laposte_hexasmal","recordid":"1e0a5892fea8bb8ec57f8b5b14a43eaa95364334","fields":{"nom_de_la_commune":"NOYAL PONTIVY","libell_d_acheminement":"NOYAL PONTIVY","code_postal":"56920","coordonnees_gps":[48.0614251201,-2.89115096448],"code_commune_insee":"56151"},"geometry":{"type":"Point","coordinates":[-2.89115096448,48.0614251201]},"record_timestamp":"2016-05-09T15:17:00+02:00"},{"datasetid":"laposte_hexasmal","recordid":"1145653412fd72981b2d3179dcd13da58ddb9e8f","fields":{"nom_de_la_commune":"PLEUCADEUC","libell_d_acheminement":"PLEUCADEUC","code_postal":"56140","coordonnees_gps":[47.7694959397,-2.38667192104],"code_commune_insee":"56159"},"geometry":{"type":"Point","coordinates":[-2.38667192104,47.7694959397]},"record_timestamp":"2016-05-09T15:17:00+02:00"},{"datasetid":"laposte_hexasmal","recordid":"1b051a3b928a8b03e07c8d94d78d163ed92f18c9","fields":{"nom_de_la_commune":"PLOEMEUR","libell_d_acheminement":"PLOEMEUR","code_postal":"56270","coordonnees_gps":[47.7325584986,-3.44178815745],"code_commune_insee":"56162"},"geometry":{"type":"Point","coordinates":[-3.44178815745,47.7325584986]},"record_timestamp":"2016-05-09T15:17:00+02:00"},{"datasetid":"laposte_hexasmal","recordid":"119da8ddd729fb5e549eea38dd8381277516968f","fields":{"nom_de_la_commune":"PLOUHARNEL","libell_d_acheminement":"PLOUHARNEL","code_postal":"56340","coordonnees_gps":[47.5996860072,-3.12263540651],"code_commune_insee":"56168"},"geometry":{"type":"Point","coordinates":[-3.12263540651,47.5996860072]},"record_timestamp":"2016-05-09T15:17:00+02:00"},{"datasetid":"laposte_hexasmal","recordid":"a043d153564766dfb0ea9e87dd2d7f63a6a17ae4","fields":{"nom_de_la_commune":"PLOUHINEC","libell_d_acheminement":"PLOUHINEC","code_postal":"56680","coordonnees_gps":[47.6929109171,-3.23358959435],"code_commune_insee":"56169"},"geometry":{"type":"Point","coordinates":[-3.23358959435,47.6929109171]},"record_timestamp":"2016-05-09T15:17:00+02:00"},{"datasetid":"laposte_hexasmal","recordid":"993405c946470eac42ef917cd0183b146cd5dd4e","fields":{"nom_de_la_commune":"PLUMELEC","libell_d_acheminement":"PLUMELEC","code_postal":"56420","coordonnees_gps":[47.8257230255,-2.62344380142],"code_commune_insee":"56172"},"geometry":{"type":"Point","coordinates":[-2.62344380142,47.8257230255]},"record_timestamp":"2016-05-09T15:17:00+02:00"},{"datasetid":"laposte_hexasmal","recordid":"0ac3fea085db1278f4181ac9b3160de26549127a","fields":{"nom_de_la_commune":"PLUVIGNER","libell_d_acheminement":"PLUVIGNER","code_postal":"56330","coordonnees_gps":[47.7824013121,-3.01608916771],"code_commune_insee":"56177"},"geometry":{"type":"Point","coordinates":[-3.01608916771,47.7824013121]},"record_timestamp":"2016-05-09T15:17:00+02:00"},{"datasetid":"laposte_hexasmal","recordid":"6d6588e7c16a42c747e732de8f47bfa001273ac8","fields":{"code_postal":"56330","code_commune_insee":"56177","libell_d_acheminement":"PLUVIGNER","ligne_5":"BIEUZY LANVAUX","nom_de_la_commune":"PLUVIGNER","coordonnees_gps":[47.7824013121,-3.01608916771]},"geometry":{"type":"Point","coordinates":[-3.01608916771,47.7824013121]},"record_timestamp":"2016-05-09T15:17:00+02:00"},{"datasetid":"laposte_hexasmal","recordid":"0251bb9fe7fdf1421e0fcbca4a09fd71ba847f5b","fields":{"nom_de_la_commune":"PONTIVY","libell_d_acheminement":"PONTIVY","code_postal":"56300","coordonnees_gps":[48.0729953877,-2.97046592885],"code_commune_insee":"56178"},"geometry":{"type":"Point","coordinates":[-2.97046592885,48.0729953877]},"record_timestamp":"2016-05-09T15:17:00+02:00"},{"datasetid":"laposte_hexasmal","recordid":"6fcda2463898c80e4a8447c230e27e8c46097940","fields":{"nom_de_la_commune":"QUESTEMBERT","libell_d_acheminement":"QUESTEMBERT","code_postal":"56230","coordonnees_gps":[47.6638017747,-2.43671076032],"code_commune_insee":"56184"},"geometry":{"type":"Point","coordinates":[-2.43671076032,47.6638017747]},"record_timestamp":"2016-05-09T15:17:00+02:00"},{"datasetid":"laposte_hexasmal","recordid":"827a4fff30124f261746ad5777a61861d88477e3","fields":{"nom_de_la_commune":"ROCHEFORT EN TERRE","libell_d_acheminement":"ROCHEFORT EN TERRE","code_postal":"56220","coordonnees_gps":[47.6983579224,-2.34412952507],"code_commune_insee":"56196"},"geometry":{"type":"Point","coordinates":[-2.34412952507,47.6983579224]},"record_timestamp":"2016-05-09T15:17:00+02:00"},{"datasetid":"laposte_hexasmal","recordid":"c124a5a53651dfa8ac7dbed9ced8f6b8ee97d718","fields":{"code_postal":"56580","code_commune_insee":"56198","libell_d_acheminement":"ROHAN","ligne_5":"ST SAMSON","nom_de_la_commune":"ROHAN","coordonnees_gps":[48.0894729078,-2.74289349801]},"geometry":{"type":"Point","coordinates":[-2.74289349801,48.0894729078]},"record_timestamp":"2016-05-09T15:17:00+02:00"},{"datasetid":"laposte_hexasmal","recordid":"fc66f2f044f4fe000b8a06038dca98655a13b97c","fields":{"nom_de_la_commune":"RUFFIAC","libell_d_acheminement":"RUFFIAC","code_postal":"56140","coordonnees_gps":[47.8135299611,-2.28477717582],"code_commune_insee":"56200"},"geometry":{"type":"Point","coordinates":[-2.28477717582,47.8135299611]},"record_timestamp":"2016-05-09T15:17:00+02:00"},{"datasetid":"laposte_hexasmal","recordid":"abbab5346640d2f15a4b4ae309656b1f089b2f85","fields":{"nom_de_la_commune":"LE SAINT","libell_d_acheminement":"LE SAINT","code_postal":"56110","coordonnees_gps":[48.0965409362,-3.5652314791],"code_commune_insee":"56201"},"geometry":{"type":"Point","coordinates":[-3.5652314791,48.0965409362]},"record_timestamp":"2016-05-09T15:17:00+02:00"},{"datasetid":"laposte_hexasmal","recordid":"ec48f07c69118a80025608b7e4317e409a2450fe","fields":{"nom_de_la_commune":"ST CONGARD","libell_d_acheminement":"ST CONGARD","code_postal":"56140","coordonnees_gps":[47.7680806028,-2.32893095384],"code_commune_insee":"56211"},"geometry":{"type":"Point","coordinates":[-2.32893095384,47.7680806028]},"record_timestamp":"2016-05-09T15:17:00+02:00"},{"datasetid":"laposte_hexasmal","recordid":"b01a080f8e44c43bb178176b27476870046e02fd","fields":{"nom_de_la_commune":"STE HELENE","libell_d_acheminement":"STE HELENE","code_postal":"56700","coordonnees_gps":[47.7172153555,-3.18492247934],"code_commune_insee":"56220"},"geometry":{"type":"Point","coordinates":[-3.18492247934,47.7172153555]},"record_timestamp":"2016-05-09T15:17:00+02:00"},{"datasetid":"laposte_hexasmal","recordid":"29c2b4ff7bee1ad9b733cb9c621425dcb6a06eb9","fields":{"nom_de_la_commune":"ST NICOLAS DU TERTRE","libell_d_acheminement":"ST NICOLAS DU TERTRE","code_postal":"56910","coordonnees_gps":[47.7960541424,-2.21778311468],"code_commune_insee":"56230"},"geometry":{"type":"Point","coordinates":[-2.21778311468,47.7960541424]},"record_timestamp":"2016-05-09T15:17:00+02:00"},{"datasetid":"laposte_hexasmal","recordid":"ad416a0452934b059fb879ccb17a395ccfd83617","fields":{"nom_de_la_commune":"ST SERVANT","libell_d_acheminement":"ST SERVANT","code_postal":"56120","coordonnees_gps":[47.89876779,-2.5120013112],"code_commune_insee":"56236"},"geometry":{"type":"Point","coordinates":[-2.5120013112,47.89876779]},"record_timestamp":"2016-05-09T15:17:00+02:00"},{"datasetid":"laposte_hexasmal","recordid":"3c7aedd8d1fdbe13d682aefe505e44580d25540b","fields":{"nom_de_la_commune":"ST TUGDUAL","libell_d_acheminement":"ST TUGDUAL","code_postal":"56540","coordonnees_gps":[48.0961762993,-3.36700769419],"code_commune_insee":"56238"},"geometry":{"type":"Point","coordinates":[-3.36700769419,48.0961762993]},"record_timestamp":"2016-05-09T15:17:00+02:00"},{"datasetid":"laposte_hexasmal","recordid":"cca4a035a008fb3a5b7ee3004eb235012c78c54c","fields":{"nom_de_la_commune":"SARZEAU","libell_d_acheminement":"SARZEAU","code_postal":"56370","coordonnees_gps":[47.5235379478,-2.75087136906],"code_commune_insee":"56240"},"geometry":{"type":"Point","coordinates":[-2.75087136906,47.5235379478]},"record_timestamp":"2016-05-09T15:17:00+02:00"},{"datasetid":"laposte_hexasmal","recordid":"3ff4799a6a1422f5e57be23bcd72d379dba0372f","fields":{"nom_de_la_commune":"SAUZON","libell_d_acheminement":"SAUZON","code_postal":"56360","coordonnees_gps":[47.353750697,-3.23035128949],"code_commune_insee":"56241"},"geometry":{"type":"Point","coordinates":[-3.23035128949,47.353750697]},"record_timestamp":"2016-05-09T15:17:00+02:00"},{"datasetid":"laposte_hexasmal","recordid":"95bfc13cedb1f491510a2763130fdbbb8cdb44b6","fields":{"nom_de_la_commune":"LE SOURN","libell_d_acheminement":"LE SOURN","code_postal":"56300","coordonnees_gps":[48.0382214758,-2.99470821094],"code_commune_insee":"56246"},"geometry":{"type":"Point","coordinates":[-2.99470821094,48.0382214758]},"record_timestamp":"2016-05-09T15:17:00+02:00"},{"datasetid":"laposte_hexasmal","recordid":"2d58fe7e8ad10fc058a06687072c76fcb23a6f1e","fields":{"nom_de_la_commune":"SULNIAC","libell_d_acheminement":"SULNIAC","code_postal":"56250","coordonnees_gps":[47.6598704315,-2.56262143424],"code_commune_insee":"56247"},"geometry":{"type":"Point","coordinates":[-2.56262143424,47.6598704315]},"record_timestamp":"2016-05-09T15:17:00+02:00"},{"datasetid":"laposte_hexasmal","recordid":"fae80827606b8f7405c3cc56fb48a8021c2173ef","fields":{"nom_de_la_commune":"TAUPONT","libell_d_acheminement":"TAUPONT","code_postal":"56800","coordonnees_gps":[47.9622874981,-2.44276588766],"code_commune_insee":"56249"},"geometry":{"type":"Point","coordinates":[-2.44276588766,47.9622874981]},"record_timestamp":"2016-05-09T15:17:00+02:00"},{"datasetid":"laposte_hexasmal","recordid":"6acc58ef3c82322419cd47477b417f5437a93c4a","fields":{"nom_de_la_commune":"LA TRINITE SUR MER","libell_d_acheminement":"LA TRINITE SUR MER","code_postal":"56470","coordonnees_gps":[47.5909007393,-3.03700751097],"code_commune_insee":"56258"},"geometry":{"type":"Point","coordinates":[-3.03700751097,47.5909007393]},"record_timestamp":"2016-05-09T15:17:00+02:00"},{"datasetid":"laposte_hexasmal","recordid":"480ed7021578b98ae208092c3560472c272d22e1","fields":{"nom_de_la_commune":"ARZAL","libell_d_acheminement":"ARZAL","code_postal":"56190","coordonnees_gps":[47.519901266,-2.40478493652],"code_commune_insee":"56004"},"geometry":{"type":"Point","coordinates":[-2.40478493652,47.519901266]},"record_timestamp":"2016-05-09T15:17:00+02:00"},{"datasetid":"laposte_hexasmal","recordid":"517124ff4bee6fb996a689463a4136f87281a46a","fields":{"code_postal":"56640","code_commune_insee":"56005","libell_d_acheminement":"ARZON","ligne_5":"PORT NAVALO","nom_de_la_commune":"ARZON","coordonnees_gps":[47.5470278592,-2.88784873321]},"geometry":{"type":"Point","coordinates":[-2.88784873321,47.5470278592]},"record_timestamp":"2016-05-09T15:17:00+02:00"},{"datasetid":"laposte_hexasmal","recordid":"dc1e884bd430ef82ea5eb4fb5d705719b4a277dc","fields":{"nom_de_la_commune":"AUGAN","libell_d_acheminement":"AUGAN","code_postal":"56800","coordonnees_gps":[47.9122301916,-2.26794243142],"code_commune_insee":"56006"},"geometry":{"type":"Point","coordinates":[-2.26794243142,47.9122301916]},"record_timestamp":"2016-05-09T15:17:00+02:00"},{"datasetid":"laposte_hexasmal","recordid":"b4a08814744d3d4eb5faef14d0c74acba15c2f2c","fields":{"nom_de_la_commune":"BAUD","libell_d_acheminement":"BAUD","code_postal":"56150","coordonnees_gps":[47.8753982698,-3.03131524701],"code_commune_insee":"56010"},"geometry":{"type":"Point","coordinates":[-3.03131524701,47.8753982698]},"record_timestamp":"2016-05-09T15:17:00+02:00"},{"datasetid":"laposte_hexasmal","recordid":"d1a65547760451b74b267d02aa8b4befe03ae006","fields":{"nom_de_la_commune":"BELZ","libell_d_acheminement":"BELZ","code_postal":"56550","coordonnees_gps":[47.6719818192,-3.16245947522],"code_commune_insee":"56013"},"geometry":{"type":"Point","coordinates":[-3.16245947522,47.6719818192]},"record_timestamp":"2016-05-09T15:17:00+02:00"},{"datasetid":"laposte_hexasmal","recordid":"d6daf007e2c6f051d017f1b94b03bf3471995b23","fields":{"nom_de_la_commune":"BIEUZY","libell_d_acheminement":"BIEUZY LES EAUX","code_postal":"56310","coordonnees_gps":[47.9996986994,-3.03463534674],"code_commune_insee":"56016"},"geometry":{"type":"Point","coordinates":[-3.03463534674,47.9996986994]},"record_timestamp":"2016-05-09T15:17:00+02:00"},{"datasetid":"laposte_hexasmal","recordid":"1e5c493788624f8752ac3f9abff5068bf060e91d","fields":{"nom_de_la_commune":"BILLIERS","libell_d_acheminement":"BILLIERS","code_postal":"56190","coordonnees_gps":[47.5234827047,-2.47972989397],"code_commune_insee":"56018"},"geometry":{"type":"Point","coordinates":[-2.47972989397,47.5234827047]},"record_timestamp":"2016-05-09T15:17:00+02:00"},{"datasetid":"laposte_hexasmal","recordid":"41cfc7d9d5f4d44ad830b4b1dab63147ff40dd19","fields":{"nom_de_la_commune":"BILLIO","libell_d_acheminement":"BILLIO","code_postal":"56420","coordonnees_gps":[47.8676423674,-2.64808099654],"code_commune_insee":"56019"},"geometry":{"type":"Point","coordinates":[-2.64808099654,47.8676423674]},"record_timestamp":"2016-05-09T15:17:00+02:00"},{"datasetid":"laposte_hexasmal","recordid":"30d2422e8ac0d06ddf745fe3aaf155791ecd4c56","fields":{"nom_de_la_commune":"BOHAL","libell_d_acheminement":"BOHAL","code_postal":"56140","coordonnees_gps":[47.7842091553,-2.44701555999],"code_commune_insee":"56020"},"geometry":{"type":"Point","coordinates":[-2.44701555999,47.7842091553]},"record_timestamp":"2016-05-09T15:17:00+02:00"},{"datasetid":"laposte_hexasmal","recordid":"f0f358a531b0fc55ddbf98b6ccf4931fdd6fc3ef","fields":{"nom_de_la_commune":"BRANDIVY","libell_d_acheminement":"BRANDIVY","code_postal":"56390","coordonnees_gps":[47.7845009747,-2.92240814832],"code_commune_insee":"56022"},"geometry":{"type":"Point","coordinates":[-2.92240814832,47.7845009747]},"record_timestamp":"2016-05-09T15:17:00+02:00"},{"datasetid":"laposte_hexasmal","recordid":"c41a776194ec76d633ef9df5873edd6098192546","fields":{"nom_de_la_commune":"BREHAN","libell_d_acheminement":"BREHAN","code_postal":"56580","coordonnees_gps":[48.0699465844,-2.68732663005],"code_commune_insee":"56024"},"geometry":{"type":"Point","coordinates":[-2.68732663005,48.0699465844]},"record_timestamp":"2016-05-09T15:17:00+02:00"},{"datasetid":"laposte_hexasmal","recordid":"8d876ebbb7a7963565703d5642838187fcb2aa0f","fields":{"nom_de_la_commune":"CADEN","libell_d_acheminement":"CADEN","code_postal":"56220","coordonnees_gps":[47.6401091806,-2.29927254459],"code_commune_insee":"56028"},"geometry":{"type":"Point","coordinates":[-2.29927254459,47.6401091806]},"record_timestamp":"2016-05-09T15:17:00+02:00"},{"datasetid":"laposte_hexasmal","recordid":"efa267b5f243dd0de0def05b599d3b06e6832446","fields":{"nom_de_la_commune":"CAMPENEAC","libell_d_acheminement":"CAMPENEAC","code_postal":"56800","coordonnees_gps":[47.962439437,-2.27757699452],"code_commune_insee":"56032"},"geometry":{"type":"Point","coordinates":[-2.27757699452,47.962439437]},"record_timestamp":"2016-05-09T15:17:00+02:00"},{"datasetid":"laposte_hexasmal","recordid":"7d31cab7e55e3e477e563a6645a5359a03e80574","fields":{"nom_de_la_commune":"ELVEN","libell_d_acheminement":"ELVEN","code_postal":"56250","coordonnees_gps":[47.7326809062,-2.59279070215],"code_commune_insee":"56053"},"geometry":{"type":"Point","coordinates":[-2.59279070215,47.7326809062]},"record_timestamp":"2016-05-09T15:17:00+02:00"},{"datasetid":"laposte_hexasmal","recordid":"8f04456d7d7bd8e174b3c95b0dadacecc95a7021","fields":{"nom_de_la_commune":"ETEL","libell_d_acheminement":"ETEL","code_postal":"56410","coordonnees_gps":[47.6567860287,-3.1985408357],"code_commune_insee":"56055"},"geometry":{"type":"Point","coordinates":[-3.1985408357,47.6567860287]},"record_timestamp":"2016-05-09T15:17:00+02:00"},{"datasetid":"laposte_hexasmal","recordid":"a538eaa949e5c778dac107494e195eba8ed39bdf","fields":{"nom_de_la_commune":"GESTEL","libell_d_acheminement":"GESTEL","code_postal":"56530","coordonnees_gps":[47.8081867338,-3.43789895944],"code_commune_insee":"56063"},"geometry":{"type":"Point","coordinates":[-3.43789895944,47.8081867338]},"record_timestamp":"2016-05-09T15:17:00+02:00"},{"datasetid":"laposte_hexasmal","recordid":"8673cc3dbac78866c61b191f8d840e52dedb576d","fields":{"nom_de_la_commune":"GOURIN","libell_d_acheminement":"GOURIN","code_postal":"56110","coordonnees_gps":[48.1365207443,-3.60390071405],"code_commune_insee":"56066"},"geometry":{"type":"Point","coordinates":[-3.60390071405,48.1365207443]},"record_timestamp":"2016-05-09T15:17:00+02:00"},{"datasetid":"laposte_hexasmal","recordid":"7bfb924382a5f772d705d0e26e694545fded8181","fields":{"code_postal":"56380","code_commune_insee":"56075","libell_d_acheminement":"GUER","ligne_5":"COETQUIDAN BELLEVUE","nom_de_la_commune":"GUER","coordonnees_gps":[47.9073328689,-2.12921667557]},"geometry":{"type":"Point","coordinates":[-2.12921667557,47.9073328689]},"record_timestamp":"2016-05-09T15:17:00+02:00"},{"datasetid":"laposte_hexasmal","recordid":"eee40ab4b48740f576bc7a8c31365030812ed78e","fields":{"nom_de_la_commune":"LE GUERNO","libell_d_acheminement":"LE GUERNO","code_postal":"56190","coordonnees_gps":[47.5911293554,-2.39975146229],"code_commune_insee":"56077"},"geometry":{"type":"Point","coordinates":[-2.39975146229,47.5911293554]},"record_timestamp":"2016-05-09T15:17:00+02:00"},{"datasetid":"laposte_hexasmal","recordid":"a203b56c9b2fa0f2dfbbb6470f984cb4460bf936","fields":{"nom_de_la_commune":"GUILLIERS","libell_d_acheminement":"GUILLIERS","code_postal":"56490","coordonnees_gps":[48.0517458182,-2.41446112985],"code_commune_insee":"56080"},"geometry":{"type":"Point","coordinates":[-2.41446112985,48.0517458182]},"record_timestamp":"2016-05-09T15:17:00+02:00"},{"datasetid":"laposte_hexasmal","recordid":"98060dff291ddf9cfd7bdbd3c8756355faee049a","fields":{"nom_de_la_commune":"ILE D ARZ","libell_d_acheminement":"ILE D ARZ","code_postal":"56840","coordonnees_gps":[47.5921615847,-2.80045392153],"code_commune_insee":"56088"},"geometry":{"type":"Point","coordinates":[-2.80045392153,47.5921615847]},"record_timestamp":"2016-05-09T15:17:00+02:00"},{"datasetid":"laposte_hexasmal","recordid":"657561ec0e47124d563f4f1d4ea115c4584f598d","fields":{"nom_de_la_commune":"INZINZAC LOCHRIST","libell_d_acheminement":"INZINZAC LOCHRIST","code_postal":"56650","coordonnees_gps":[47.8558359743,-3.25178122558],"code_commune_insee":"56090"},"geometry":{"type":"Point","coordinates":[-3.25178122558,47.8558359743]},"record_timestamp":"2016-05-09T15:17:00+02:00"},{"datasetid":"laposte_hexasmal","recordid":"d5f0af6d99b2f0abd6e7002082a5105b80178ce9","fields":{"nom_de_la_commune":"JOSSELIN","libell_d_acheminement":"JOSSELIN","code_postal":"56120","coordonnees_gps":[47.9544411983,-2.54877600621],"code_commune_insee":"56091"},"geometry":{"type":"Point","coordinates":[-2.54877600621,47.9544411983]},"record_timestamp":"2016-05-09T15:17:00+02:00"},{"datasetid":"laposte_hexasmal","recordid":"3df675513d567272f3ae0e30ea211402f3db5026","fields":{"nom_de_la_commune":"LANGONNET","libell_d_acheminement":"LANGONNET","code_postal":"56630","coordonnees_gps":[48.1318811919,-3.48128235286],"code_commune_insee":"56100"},"geometry":{"type":"Point","coordinates":[-3.48128235286,48.1318811919]},"record_timestamp":"2016-05-09T15:17:00+02:00"},{"datasetid":"laposte_hexasmal","recordid":"d8865886234c561778c153fe37e1f35c2c0415fd","fields":{"nom_de_la_commune":"LARMOR BADEN","libell_d_acheminement":"LARMOR BADEN","code_postal":"56870","coordonnees_gps":[47.5934456952,-2.89858472133],"code_commune_insee":"56106"},"geometry":{"type":"Point","coordinates":[-2.89858472133,47.5934456952]},"record_timestamp":"2016-05-09T15:17:00+02:00"},{"datasetid":"laposte_hexasmal","recordid":"ea5870b3257c92dcafc371c058f2bc217b3fb2e0","fields":{"nom_de_la_commune":"LIMERZEL","libell_d_acheminement":"LIMERZEL","code_postal":"56220","coordonnees_gps":[47.6357871831,-2.36132601788],"code_commune_insee":"56111"},"geometry":{"type":"Point","coordinates":[-2.36132601788,47.6357871831]},"record_timestamp":"2016-05-09T15:17:00+02:00"},{"datasetid":"laposte_hexasmal","recordid":"afcb93b16a6f3535b1a989cef882c12221c26326","fields":{"nom_de_la_commune":"LOCOAL MENDON","libell_d_acheminement":"LOCOAL MENDON","code_postal":"56550","coordonnees_gps":[47.70208162,-3.11005717259],"code_commune_insee":"56119"},"geometry":{"type":"Point","coordinates":[-3.11005717259,47.70208162]},"record_timestamp":"2016-05-09T15:17:00+02:00"},{"datasetid":"laposte_hexasmal","recordid":"7835c3b0934e5e95cc299187a6d0a554cbf08d48","fields":{"nom_de_la_commune":"LOYAT","libell_d_acheminement":"LOYAT","code_postal":"56800","coordonnees_gps":[47.9922231376,-2.38391082278],"code_commune_insee":"56122"},"geometry":{"type":"Point","coordinates":[-2.38391082278,47.9922231376]},"record_timestamp":"2016-05-09T15:17:00+02:00"},{"datasetid":"laposte_hexasmal","recordid":"579ccc6829a234e04788175c121279042a7d59ce","fields":{"nom_de_la_commune":"MALESTROIT","libell_d_acheminement":"MALESTROIT","code_postal":"56140","coordonnees_gps":[47.8076863788,-2.38701072581],"code_commune_insee":"56124"},"geometry":{"type":"Point","coordinates":[-2.38701072581,47.8076863788]},"record_timestamp":"2016-05-09T15:17:00+02:00"},{"datasetid":"laposte_hexasmal","recordid":"a3a3cb347ec3c367c56f4dcf55ac464386531585","fields":{"nom_de_la_commune":"MAURON","libell_d_acheminement":"MAURON","code_postal":"56430","coordonnees_gps":[48.0820059121,-2.30432452661],"code_commune_insee":"56127"},"geometry":{"type":"Point","coordinates":[-2.30432452661,48.0820059121]},"record_timestamp":"2016-05-09T15:17:00+02:00"},{"datasetid":"laposte_hexasmal","recordid":"25c3844428867d10647825426527c802189c432d","fields":{"nom_de_la_commune":"MERLEVENEZ","libell_d_acheminement":"MERLEVENEZ","code_postal":"56700","coordonnees_gps":[47.7329410625,-3.24339145538],"code_commune_insee":"56130"},"geometry":{"type":"Point","coordinates":[-3.24339145538,47.7329410625]},"record_timestamp":"2016-05-09T15:17:00+02:00"},{"datasetid":"laposte_hexasmal","recordid":"812ea06241b2f2be54f85da6852d8f6ac9e0d803","fields":{"nom_de_la_commune":"MONTERBLANC","libell_d_acheminement":"MONTERBLANC","code_postal":"56250","coordonnees_gps":[47.7315728601,-2.69647257441],"code_commune_insee":"56137"},"geometry":{"type":"Point","coordinates":[-2.69647257441,47.7315728601]},"record_timestamp":"2016-05-09T15:17:00+02:00"},{"datasetid":"laposte_hexasmal","recordid":"bc6ac600807ba8eec710a3bf269734076323d1ef","fields":{"nom_de_la_commune":"MONTERTELOT","libell_d_acheminement":"MONTERTELOT","code_postal":"56800","coordonnees_gps":[47.8855029773,-2.41232336354],"code_commune_insee":"56139"},"geometry":{"type":"Point","coordinates":[-2.41232336354,47.8855029773]},"record_timestamp":"2016-05-09T15:17:00+02:00"},{"datasetid":"laposte_hexasmal","recordid":"6c8f267ec194bde61edc5efa43c1fc381c4ef8c0","fields":{"nom_de_la_commune":"NEULLIAC","libell_d_acheminement":"NEULLIAC","code_postal":"56300","coordonnees_gps":[48.1221729003,-2.97176123226],"code_commune_insee":"56146"},"geometry":{"type":"Point","coordinates":[-2.97176123226,48.1221729003]},"record_timestamp":"2016-05-09T15:17:00+02:00"},{"datasetid":"laposte_hexasmal","recordid":"68b5bdc8efc59a09cd9c7c9fdfa134192f7ef054","fields":{"nom_de_la_commune":"NOSTANG","libell_d_acheminement":"NOSTANG","code_postal":"56690","coordonnees_gps":[47.7545531097,-3.17469853998],"code_commune_insee":"56148"},"geometry":{"type":"Point","coordinates":[-3.17469853998,47.7545531097]},"record_timestamp":"2016-05-09T15:17:00+02:00"},{"datasetid":"laposte_hexasmal","recordid":"16dc3768d91f91903d73d14cc1ecf44b71f7bb2c","fields":{"nom_de_la_commune":"PLOURAY","libell_d_acheminement":"PLOURAY","code_postal":"56770","coordonnees_gps":[48.1343832686,-3.37547839068],"code_commune_insee":"56170"},"geometry":{"type":"Point","coordinates":[-3.37547839068,48.1343832686]},"record_timestamp":"2016-05-09T15:17:00+02:00"},{"datasetid":"laposte_hexasmal","recordid":"26391c0af08e358e793911ed07a3ad73d16dc2d3","fields":{"nom_de_la_commune":"PLUMERGAT","libell_d_acheminement":"PLUMERGAT","code_postal":"56400","coordonnees_gps":[47.7279059531,-2.92323704418],"code_commune_insee":"56175"},"geometry":{"type":"Point","coordinates":[-2.92323704418,47.7279059531]},"record_timestamp":"2016-05-09T15:17:00+02:00"},{"datasetid":"laposte_hexasmal","recordid":"164f770595f5fe1afafaeeb0bccc2ee2eaaaa2b4","fields":{"nom_de_la_commune":"PORT LOUIS","libell_d_acheminement":"PORT LOUIS","code_postal":"56290","coordonnees_gps":[47.7099205258,-3.34845750769],"code_commune_insee":"56181"},"geometry":{"type":"Point","coordinates":[-3.34845750769,47.7099205258]},"record_timestamp":"2016-05-09T15:17:00+02:00"},{"datasetid":"laposte_hexasmal","recordid":"daab7a4f579b32b368400c51b61a1b520f8adb0c","fields":{"nom_de_la_commune":"QUELNEUC","libell_d_acheminement":"QUELNEUC","code_postal":"56910","coordonnees_gps":[47.8353968876,-2.06653226615],"code_commune_insee":"56183"},"geometry":{"type":"Point","coordinates":[-2.06653226615,47.8353968876]},"record_timestamp":"2016-05-09T15:17:00+02:00"},{"datasetid":"laposte_hexasmal","recordid":"fbf81a1075714dad925e5767fe063a2c31a110a5","fields":{"nom_de_la_commune":"RADENAC","libell_d_acheminement":"RADENAC","code_postal":"56500","coordonnees_gps":[47.9491864881,-2.7130262254],"code_commune_insee":"56189"},"geometry":{"type":"Point","coordinates":[-2.7130262254,47.9491864881]},"record_timestamp":"2016-05-09T15:17:00+02:00"},{"datasetid":"laposte_hexasmal","recordid":"2e5f277791c38defc4d649853e286bc0978c5234","fields":{"code_postal":"56460","code_commune_insee":"56197","libell_d_acheminement":"VAL D OUST","ligne_5":"LE ROC ST ANDRE","nom_de_la_commune":"VAL D OUST","coordonnees_gps":[47.8685533688,-2.45624648415]},"geometry":{"type":"Point","coordinates":[-2.45624648415,47.8685533688]},"record_timestamp":"2016-05-09T15:17:00+02:00"},{"datasetid":"laposte_hexasmal","recordid":"a46685ac3afde264d885b236f05573a398814498","fields":{"code_postal":"56580","code_commune_insee":"56198","libell_d_acheminement":"ROHAN","ligne_5":"ST GOUVRY","nom_de_la_commune":"ROHAN","coordonnees_gps":[48.0894729078,-2.74289349801]},"geometry":{"type":"Point","coordinates":[-2.74289349801,48.0894729078]},"record_timestamp":"2016-05-09T15:17:00+02:00"},{"datasetid":"laposte_hexasmal","recordid":"13ea865ed075a52b9bd3f5ee58af176c4f27ddbd","fields":{"nom_de_la_commune":"ROUDOUALLEC","libell_d_acheminement":"ROUDOUALLEC","code_postal":"56110","coordonnees_gps":[48.1198265822,-3.69385005734],"code_commune_insee":"56199"},"geometry":{"type":"Point","coordinates":[-3.69385005734,48.1198265822]},"record_timestamp":"2016-05-09T15:17:00+02:00"},{"datasetid":"laposte_hexasmal","recordid":"cc4be2f8b9a989a3b8bb9c36fce22752753717be","fields":{"nom_de_la_commune":"ST ABRAHAM","libell_d_acheminement":"ST ABRAHAM","code_postal":"56140","coordonnees_gps":[47.8475889201,-2.40640451407],"code_commune_insee":"56202"},"geometry":{"type":"Point","coordinates":[-2.40640451407,47.8475889201]},"record_timestamp":"2016-05-09T15:17:00+02:00"},{"datasetid":"laposte_hexasmal","recordid":"065bd71ae8f8e8b13de8c502637902624288f186","fields":{"nom_de_la_commune":"ST DOLAY","libell_d_acheminement":"ST DOLAY","code_postal":"56130","coordonnees_gps":[47.5474738486,-2.17191320646],"code_commune_insee":"56212"},"geometry":{"type":"Point","coordinates":[-2.17191320646,47.5474738486]},"record_timestamp":"2016-05-09T15:17:00+02:00"},{"datasetid":"laposte_hexasmal","recordid":"acceed62671e7bab423e98bfb6c0fe13e9c0994d","fields":{"nom_de_la_commune":"ST GUYOMARD","libell_d_acheminement":"ST GUYOMARD","code_postal":"56460","coordonnees_gps":[47.7793419253,-2.50210374964],"code_commune_insee":"56219"},"geometry":{"type":"Point","coordinates":[-2.50210374964,47.7793419253]},"record_timestamp":"2016-05-09T15:17:00+02:00"},{"datasetid":"laposte_hexasmal","recordid":"3d4cf288188103bc197d6b34dd4b19a56f8bf475","fields":{"nom_de_la_commune":"ST JACUT LES PINS","libell_d_acheminement":"ST JACUT LES PINS","code_postal":"56220","coordonnees_gps":[47.6776522748,-2.21229939133],"code_commune_insee":"56221"},"geometry":{"type":"Point","coordinates":[-2.21229939133,47.6776522748]},"record_timestamp":"2016-05-09T15:17:00+02:00"},{"datasetid":"laposte_hexasmal","recordid":"79613a011868ff6d04676fdc1307e42c46458279","fields":{"nom_de_la_commune":"ST JEAN LA POTERIE","libell_d_acheminement":"ST JEAN LA POTERIE","code_postal":"56350","coordonnees_gps":[47.6453867213,-2.12256103473],"code_commune_insee":"56223"},"geometry":{"type":"Point","coordinates":[-2.12256103473,47.6453867213]},"record_timestamp":"2016-05-09T15:17:00+02:00"},{"datasetid":"laposte_hexasmal","recordid":"6f96238be23687988fefabb1adef406c3af67f8e","fields":{"nom_de_la_commune":"ST LERY","libell_d_acheminement":"ST LERY","code_postal":"56430","coordonnees_gps":[48.091355996,-2.2632759244],"code_commune_insee":"56225"},"geometry":{"type":"Point","coordinates":[-2.2632759244,48.091355996]},"record_timestamp":"2016-05-09T15:17:00+02:00"},{"datasetid":"laposte_hexasmal","recordid":"ee476d3c62da6ebfc6ddec8b9588efeb6bdee37c","fields":{"nom_de_la_commune":"ST MALO DE BEIGNON","libell_d_acheminement":"ST MALO DE BEIGNON","code_postal":"56380","coordonnees_gps":[47.9565800203,-2.14364557766],"code_commune_insee":"56226"},"geometry":{"type":"Point","coordinates":[-2.14364557766,47.9565800203]},"record_timestamp":"2016-05-09T15:17:00+02:00"},{"datasetid":"laposte_hexasmal","recordid":"05ea2f16fa2bfa7faab6b9c9dfba864a55fb61b6","fields":{"nom_de_la_commune":"ST PIERRE QUIBERON","libell_d_acheminement":"ST PIERRE QUIBERON","code_postal":"56510","coordonnees_gps":[47.5229822162,-3.13814252591],"code_commune_insee":"56234"},"geometry":{"type":"Point","coordinates":[-3.13814252591,47.5229822162]},"record_timestamp":"2016-05-09T15:17:00+02:00"},{"datasetid":"laposte_hexasmal","recordid":"27aa9c41afc698fdd7e18c534c6337ecf7778d3a","fields":{"nom_de_la_commune":"SENE","libell_d_acheminement":"SENE","code_postal":"56860","coordonnees_gps":[47.6228786892,-2.72442609453],"code_commune_insee":"56243"},"geometry":{"type":"Point","coordinates":[-2.72442609453,47.6228786892]},"record_timestamp":"2016-05-09T15:17:00+02:00"},{"datasetid":"laposte_hexasmal","recordid":"393d027e635b3a51e431c0081731a1b92665c29f","fields":{"nom_de_la_commune":"SERENT","libell_d_acheminement":"SERENT","code_postal":"56460","coordonnees_gps":[47.8245310823,-2.49728404193],"code_commune_insee":"56244"},"geometry":{"type":"Point","coordinates":[-2.49728404193,47.8245310823]},"record_timestamp":"2016-05-09T15:17:00+02:00"},{"datasetid":"laposte_hexasmal","recordid":"2f5c39e6413fd9fb3802754d40ed4c83d0b29a8a","fields":{"nom_de_la_commune":"SILFIAC","libell_d_acheminement":"SILFIAC","code_postal":"56480","coordonnees_gps":[48.1449436665,-3.17252446086],"code_commune_insee":"56245"},"geometry":{"type":"Point","coordinates":[-3.17252446086,48.1449436665]},"record_timestamp":"2016-05-09T15:17:00+02:00"},{"datasetid":"laposte_hexasmal","recordid":"93ddf9bf7a358c24a0ee6a2949619ecf8b8e9387","fields":{"nom_de_la_commune":"LE TOUR DU PARC","libell_d_acheminement":"LE TOUR DU PARC","code_postal":"56370","coordonnees_gps":[47.5293514837,-2.6538249578],"code_commune_insee":"56252"},"geometry":{"type":"Point","coordinates":[-2.6538249578,47.5293514837]},"record_timestamp":"2016-05-09T15:17:00+02:00"},{"datasetid":"laposte_hexasmal","recordid":"7003b49d10d451a7b033ffde42ccb06bed398da9","fields":{"nom_de_la_commune":"TREFFLEAN","libell_d_acheminement":"TREFFLEAN","code_postal":"56250","coordonnees_gps":[47.6781213314,-2.62203549701],"code_commune_insee":"56255"},"geometry":{"type":"Point","coordinates":[-2.62203549701,47.6781213314]},"record_timestamp":"2016-05-09T15:17:00+02:00"},{"datasetid":"laposte_hexasmal","recordid":"b19051c429bae67dcfbe4b03426f8b4bfd08fdbe","fields":{"nom_de_la_commune":"TREHORENTEUC","libell_d_acheminement":"TREHORENTEUC","code_postal":"56430","coordonnees_gps":[48.003791815,-2.29527448191],"code_commune_insee":"56256"},"geometry":{"type":"Point","coordinates":[-2.29527448191,48.003791815]},"record_timestamp":"2016-05-09T15:17:00+02:00"},{"datasetid":"laposte_hexasmal","recordid":"ba971c266de4f90e63a997f09a50fb61c523fae5","fields":{"nom_de_la_commune":"AMBON","libell_d_acheminement":"AMBON","code_postal":"56190","coordonnees_gps":[47.5570972136,-2.54057380669],"code_commune_insee":"56002"},"geometry":{"type":"Point","coordinates":[-2.54057380669,47.5570972136]},"record_timestamp":"2016-05-09T15:17:00+02:00"},{"datasetid":"laposte_hexasmal","recordid":"b1961d89d0881a59cf95f0c3833fd36c613c08d5","fields":{"nom_de_la_commune":"AURAY","libell_d_acheminement":"AURAY","code_postal":"56400","coordonnees_gps":[47.6677057368,-2.99041112225],"code_commune_insee":"56007"},"geometry":{"type":"Point","coordinates":[-2.99041112225,47.6677057368]},"record_timestamp":"2016-05-09T15:17:00+02:00"},{"datasetid":"laposte_hexasmal","recordid":"37850d1a36e9be81378e0601bc84e4f48e872a8d","fields":{"nom_de_la_commune":"BANGOR","libell_d_acheminement":"BANGOR","code_postal":"56360","coordonnees_gps":[47.313014109,-3.1920046614],"code_commune_insee":"56009"},"geometry":{"type":"Point","coordinates":[-3.1920046614,47.313014109]},"record_timestamp":"2016-05-09T15:17:00+02:00"},{"datasetid":"laposte_hexasmal","recordid":"a01e1fe2d0e570962710731b50ed0d78f10e9e10","fields":{"nom_de_la_commune":"BRIGNAC","libell_d_acheminement":"BRIGNAC","code_postal":"56430","coordonnees_gps":[48.1120379683,-2.39511005338],"code_commune_insee":"56025"},"geometry":{"type":"Point","coordinates":[-2.39511005338,48.1120379683]},"record_timestamp":"2016-05-09T15:17:00+02:00"},{"datasetid":"laposte_hexasmal","recordid":"4882ff37c2ad554b8675c8d20a774c59714947e8","fields":{"nom_de_la_commune":"BUBRY","libell_d_acheminement":"BUBRY","code_postal":"56310","coordonnees_gps":[47.969363201,-3.17594645997],"code_commune_insee":"56026"},"geometry":{"type":"Point","coordinates":[-3.17594645997,47.969363201]},"record_timestamp":"2016-05-09T15:17:00+02:00"},{"datasetid":"laposte_hexasmal","recordid":"285a09e567ca599fb12553364d7fd077d212b8f3","fields":{"nom_de_la_commune":"CAMORS","libell_d_acheminement":"CAMORS","code_postal":"56330","coordonnees_gps":[47.8301134196,-3.0000365994],"code_commune_insee":"56031"},"geometry":{"type":"Point","coordinates":[-3.0000365994,47.8301134196]},"record_timestamp":"2016-05-09T15:17:00+02:00"},{"datasetid":"laposte_hexasmal","recordid":"963d3f547d5b7304b8740e1d29139f7466ee32d3","fields":{"nom_de_la_commune":"LA CHAPELLE GACELINE","libell_d_acheminement":"LA CHAPELLE GACELINE","code_postal":"56200","coordonnees_gps":[47.790691436,-2.10022603174],"code_commune_insee":"56038"},"geometry":{"type":"Point","coordinates":[-2.10022603174,47.790691436]},"record_timestamp":"2016-05-09T15:17:00+02:00"},{"datasetid":"laposte_hexasmal","recordid":"ebc38bf0b564741dc7f72f8019b76d5088d26763","fields":{"nom_de_la_commune":"COURNON","libell_d_acheminement":"COURNON","code_postal":"56200","coordonnees_gps":[47.7490041075,-2.09816065532],"code_commune_insee":"56044"},"geometry":{"type":"Point","coordinates":[-2.09816065532,47.7490041075]},"record_timestamp":"2016-05-09T15:17:00+02:00"},{"datasetid":"laposte_hexasmal","recordid":"3022dede5271517864c67d15eeffbd682f0cfd8d","fields":{"nom_de_la_commune":"LE COURS","libell_d_acheminement":"LE COURS","code_postal":"56230","coordonnees_gps":[47.7495071048,-2.50848106104],"code_commune_insee":"56045"},"geometry":{"type":"Point","coordinates":[-2.50848106104,47.7495071048]},"record_timestamp":"2016-05-09T15:17:00+02:00"},{"datasetid":"laposte_hexasmal","recordid":"ecda0b5192ca5e692fcbc103237efffde855c172","fields":{"nom_de_la_commune":"CRACH","libell_d_acheminement":"CRACH","code_postal":"56950","coordonnees_gps":[47.6301210908,-3.00077657572],"code_commune_insee":"56046"},"geometry":{"type":"Point","coordinates":[-3.00077657572,47.6301210908]},"record_timestamp":"2016-05-09T15:17:00+02:00"},{"datasetid":"laposte_hexasmal","recordid":"1eaa9c46f05763fab8d2d8e6bfbcd5a44a022eee","fields":{"nom_de_la_commune":"LE CROISTY","libell_d_acheminement":"LE CROISTY","code_postal":"56540","coordonnees_gps":[48.0614013727,-3.37327067635],"code_commune_insee":"56048"},"geometry":{"type":"Point","coordinates":[-3.37327067635,48.0614013727]},"record_timestamp":"2016-05-09T15:17:00+02:00"},{"datasetid":"laposte_hexasmal","recordid":"d771a9a42be295e72ec55fbae26e540367e4a37b","fields":{"nom_de_la_commune":"DAMGAN","libell_d_acheminement":"DAMGAN","code_postal":"56750","coordonnees_gps":[47.5225849121,-2.58591349552],"code_commune_insee":"56052"},"geometry":{"type":"Point","coordinates":[-2.58591349552,47.5225849121]},"record_timestamp":"2016-05-09T15:17:00+02:00"},{"datasetid":"laposte_hexasmal","recordid":"e64a1760459eaef240f405a8561585fcee994378","fields":{"nom_de_la_commune":"EVRIGUET","libell_d_acheminement":"EVRIGUET","code_postal":"56490","coordonnees_gps":[48.0832901567,-2.404814166],"code_commune_insee":"56056"},"geometry":{"type":"Point","coordinates":[-2.404814166,48.0832901567]},"record_timestamp":"2016-05-09T15:17:00+02:00"},{"datasetid":"laposte_hexasmal","recordid":"725a0daf55c8dd00374c3991f8b94753174060ed","fields":{"nom_de_la_commune":"GAVRES","libell_d_acheminement":"GAVRES","code_postal":"56680","coordonnees_gps":[47.6951381724,-3.33453004583],"code_commune_insee":"56062"},"geometry":{"type":"Point","coordinates":[-3.33453004583,47.6951381724]},"record_timestamp":"2016-05-09T15:17:00+02:00"},{"datasetid":"laposte_hexasmal","recordid":"49d7f0d94814d175342b4f9ae08a43b403101367","fields":{"nom_de_la_commune":"GUERN","libell_d_acheminement":"GUERN","code_postal":"56310","coordonnees_gps":[48.034812094,-3.10210819961],"code_commune_insee":"56076"},"geometry":{"type":"Point","coordinates":[-3.10210819961,48.034812094]},"record_timestamp":"2016-05-09T15:17:00+02:00"},{"datasetid":"laposte_hexasmal","recordid":"a9c4cb854cb7245abcabb1bcd5511c001c61da44","fields":{"nom_de_la_commune":"GUILLAC","libell_d_acheminement":"GUILLAC","code_postal":"56800","coordonnees_gps":[47.9238724593,-2.47986722223],"code_commune_insee":"56079"},"geometry":{"type":"Point","coordinates":[-2.47986722223,47.9238724593]},"record_timestamp":"2016-05-09T15:17:00+02:00"},{"datasetid":"laposte_hexasmal","recordid":"9c5cbf13c5da9a257294c57fe694ac86e7ff76d5","fields":{"nom_de_la_commune":"HOEDIC","libell_d_acheminement":"ILE DE HOEDIC","code_postal":"56170","coordonnees_gps":[47.3396501062,-2.87582897878],"code_commune_insee":"56085"},"geometry":{"type":"Point","coordinates":[-2.87582897878,47.3396501062]},"record_timestamp":"2016-05-09T15:17:00+02:00"},{"datasetid":"laposte_hexasmal","recordid":"2d300864da6ebffbf06131d4ef898501a2086f96","fields":{"nom_de_la_commune":"ILE D HOUAT","libell_d_acheminement":"ILE D HOUAT","code_postal":"56170","coordonnees_gps":[47.3894319946,-2.96687516001],"code_commune_insee":"56086"},"geometry":{"type":"Point","coordinates":[-2.96687516001,47.3894319946]},"record_timestamp":"2016-05-09T15:17:00+02:00"},{"datasetid":"laposte_hexasmal","recordid":"703e870a1c441598e6232aec36d69a0aa2e8582c","fields":{"nom_de_la_commune":"LANDAUL","libell_d_acheminement":"LANDAUL","code_postal":"56690","coordonnees_gps":[47.7417597623,-3.09860506584],"code_commune_insee":"56096"},"geometry":{"type":"Point","coordinates":[-3.09860506584,47.7417597623]},"record_timestamp":"2016-05-09T15:17:00+02:00"},{"datasetid":"laposte_hexasmal","recordid":"4c9f481b98e0ab9888a1b71e207841ded1ccf5da","fields":{"nom_de_la_commune":"LANGOELAN","libell_d_acheminement":"LANGOELAN","code_postal":"56160","coordonnees_gps":[48.1207904206,-3.23318501887],"code_commune_insee":"56099"},"geometry":{"type":"Point","coordinates":[-3.23318501887,48.1207904206]},"record_timestamp":"2016-05-09T15:17:00+02:00"},{"datasetid":"laposte_hexasmal","recordid":"04106cbd62d67a8ccb25c7dd54022bce49673004","fields":{"nom_de_la_commune":"LANVAUDAN","libell_d_acheminement":"LANVAUDAN","code_postal":"56240","coordonnees_gps":[47.8927979736,-3.24455555644],"code_commune_insee":"56104"},"geometry":{"type":"Point","coordinates":[-3.24455555644,47.8927979736]},"record_timestamp":"2016-05-09T15:17:00+02:00"},{"datasetid":"laposte_hexasmal","recordid":"c6a32508ae50e25cabb2f4f87ed7685a485ae0a8","fields":{"nom_de_la_commune":"LOCMALO","libell_d_acheminement":"LOCMALO","code_postal":"56160","coordonnees_gps":[48.0622114432,-3.18337050069],"code_commune_insee":"56113"},"geometry":{"type":"Point","coordinates":[-3.18337050069,48.0622114432]},"record_timestamp":"2016-05-09T15:17:00+02:00"},{"datasetid":"laposte_hexasmal","recordid":"9e77ef6419ec6443014da9b2956c921b8c58c305","fields":{"nom_de_la_commune":"LOCMIQUELIC","libell_d_acheminement":"LOCMIQUELIC","code_postal":"56570","coordonnees_gps":[47.7303087589,-3.32842997885],"code_commune_insee":"56118"},"geometry":{"type":"Point","coordinates":[-3.32842997885,47.7303087589]},"record_timestamp":"2016-05-09T15:17:00+02:00"},{"datasetid":"laposte_hexasmal","recordid":"0b9e0b90116dfe72404df193d47fabaff4e0281f","fields":{"nom_de_la_commune":"MALANSAC","libell_d_acheminement":"MALANSAC","code_postal":"56220","coordonnees_gps":[47.6861486744,-2.2997401984],"code_commune_insee":"56123"},"geometry":{"type":"Point","coordinates":[-2.2997401984,47.6861486744]},"record_timestamp":"2016-05-09T15:17:00+02:00"},{"datasetid":"laposte_hexasmal","recordid":"1a6ce208762efe2e4c35523357aaa85c6a70eafe","fields":{"nom_de_la_commune":"MOHON","libell_d_acheminement":"MOHON","code_postal":"56490","coordonnees_gps":[48.0633640521,-2.49561629627],"code_commune_insee":"56134"},"geometry":{"type":"Point","coordinates":[-2.49561629627,48.0633640521]},"record_timestamp":"2016-05-09T15:17:00+02:00"},{"datasetid":"laposte_hexasmal","recordid":"5ca35d2a90d412863521fc3803e2d644c9f4a76a","fields":{"nom_de_la_commune":"MOUSTOIR AC","libell_d_acheminement":"MOUSTOIR AC","code_postal":"56500","coordonnees_gps":[47.8426011958,-2.85850436809],"code_commune_insee":"56141"},"geometry":{"type":"Point","coordinates":[-2.85850436809,47.8426011958]},"record_timestamp":"2016-05-09T15:17:00+02:00"},{"datasetid":"laposte_hexasmal","recordid":"5cac7d7afbe0e3216865e6380f3fd1275d4660e9","fields":{"nom_de_la_commune":"PEAULE","libell_d_acheminement":"PEAULE","code_postal":"56130","coordonnees_gps":[47.5826411591,-2.33551260645],"code_commune_insee":"56153"},"geometry":{"type":"Point","coordinates":[-2.33551260645,47.5826411591]},"record_timestamp":"2016-05-09T15:17:00+02:00"},{"datasetid":"laposte_hexasmal","recordid":"6024ee7782fa32edd8d4f5e7037120361391f616","fields":{"nom_de_la_commune":"PENESTIN","libell_d_acheminement":"PENESTIN","code_postal":"56760","coordonnees_gps":[47.4726864791,-2.46473254944],"code_commune_insee":"56155"},"geometry":{"type":"Point","coordinates":[-2.46473254944,47.4726864791]},"record_timestamp":"2016-05-09T15:17:00+02:00"},{"datasetid":"laposte_hexasmal","recordid":"8c3014563cdfb9a1235b6db803c23e3f0ec9840e","fields":{"nom_de_la_commune":"PERSQUEN","libell_d_acheminement":"PERSQUEN","code_postal":"56160","coordonnees_gps":[48.0148048063,-3.21876275805],"code_commune_insee":"56156"},"geometry":{"type":"Point","coordinates":[-3.21876275805,48.0148048063]},"record_timestamp":"2016-05-09T15:17:00+02:00"},{"datasetid":"laposte_hexasmal","recordid":"59d10b0fab21fc1680eca2b347c41bc74da066dc","fields":{"nom_de_la_commune":"PLOUGOUMELEN","libell_d_acheminement":"PLOUGOUMELEN","code_postal":"56400","coordonnees_gps":[47.6608388788,-2.89786302771],"code_commune_insee":"56167"},"geometry":{"type":"Point","coordinates":[-2.89786302771,47.6608388788]},"record_timestamp":"2016-05-09T15:17:00+02:00"},{"datasetid":"laposte_hexasmal","recordid":"091c48f9fe5983fd008f7c7bc06d1217d1e92dc5","fields":{"nom_de_la_commune":"PORCARO","libell_d_acheminement":"PORCARO","code_postal":"56380","coordonnees_gps":[47.9198730267,-2.19384701914],"code_commune_insee":"56180"},"geometry":{"type":"Point","coordinates":[-2.19384701914,47.9198730267]},"record_timestamp":"2016-05-09T15:17:00+02:00"},{"datasetid":"laposte_hexasmal","recordid":"100fbabcc3d0c84a801156bd86d0b10474f3d4cc","fields":{"nom_de_la_commune":"PRIZIAC","libell_d_acheminement":"PRIZIAC","code_postal":"56320","coordonnees_gps":[48.055864397,-3.43477253026],"code_commune_insee":"56182"},"geometry":{"type":"Point","coordinates":[-3.43477253026,48.055864397]},"record_timestamp":"2016-05-09T15:17:00+02:00"},{"datasetid":"laposte_hexasmal","recordid":"5d11ce0cbbad69b43968e2c4c7f5acd25df926e9","fields":{"nom_de_la_commune":"QUEVEN","libell_d_acheminement":"QUEVEN","code_postal":"56530","coordonnees_gps":[47.7841865998,-3.41957717053],"code_commune_insee":"56185"},"geometry":{"type":"Point","coordinates":[-3.41957717053,47.7841865998]},"record_timestamp":"2016-05-09T15:17:00+02:00"},{"datasetid":"laposte_hexasmal","recordid":"1ba8adabfed04a991bf6082262a0292aacc3a524","fields":{"nom_de_la_commune":"RIEUX","libell_d_acheminement":"RIEUX","code_postal":"56350","coordonnees_gps":[47.6054822523,-2.12584604962],"code_commune_insee":"56194"},"geometry":{"type":"Point","coordinates":[-2.12584604962,47.6054822523]},"record_timestamp":"2016-05-09T15:17:00+02:00"},{"datasetid":"laposte_hexasmal","recordid":"5c90fa55fa622800dd527ddf9a444bb3770e18e5","fields":{"code_postal":"56800","code_commune_insee":"56197","libell_d_acheminement":"VAL D OUST","ligne_5":"QUILY","nom_de_la_commune":"VAL D OUST","coordonnees_gps":[47.8685533688,-2.45624648415]},"geometry":{"type":"Point","coordinates":[-2.45624648415,47.8685533688]},"record_timestamp":"2016-05-09T15:17:00+02:00"},{"datasetid":"laposte_hexasmal","recordid":"1fd327df626ca29ef134ea51df5e700da9ec0b40","fields":{"nom_de_la_commune":"ROHAN","libell_d_acheminement":"ROHAN","code_postal":"56580","coordonnees_gps":[48.0894729078,-2.74289349801],"code_commune_insee":"56198"},"geometry":{"type":"Point","coordinates":[-2.74289349801,48.0894729078]},"record_timestamp":"2016-05-09T15:17:00+02:00"},{"datasetid":"laposte_hexasmal","recordid":"5e15687b7c4677b446495c47ace5cc814f971282","fields":{"nom_de_la_commune":"ST BRIEUC DE MAURON","libell_d_acheminement":"ST BRIEUC DE MAURON","code_postal":"56430","coordonnees_gps":[48.0900360435,-2.36145460306],"code_commune_insee":"56208"},"geometry":{"type":"Point","coordinates":[-2.36145460306,48.0900360435]},"record_timestamp":"2016-05-09T15:17:00+02:00"},{"datasetid":"laposte_hexasmal","recordid":"afc1e5b8fe66f6c6f855ce69d8f7bb0f11fd3cca","fields":{"nom_de_la_commune":"STE BRIGITTE","libell_d_acheminement":"STE BRIGITTE","code_postal":"56480","coordonnees_gps":[48.1771391346,-3.11020493167],"code_commune_insee":"56209"},"geometry":{"type":"Point","coordinates":[-3.11020493167,48.1771391346]},"record_timestamp":"2016-05-09T15:17:00+02:00"},{"datasetid":"laposte_hexasmal","recordid":"1a88b1f1bf92a749399f2128209b5e6c552ad715","fields":{"nom_de_la_commune":"ST GONNERY","libell_d_acheminement":"ST GONNERY","code_postal":"56920","coordonnees_gps":[48.1259650305,-2.82225083617],"code_commune_insee":"56215"},"geometry":{"type":"Point","coordinates":[-2.82225083617,48.1259650305]},"record_timestamp":"2016-05-09T15:17:00+02:00"},{"datasetid":"laposte_hexasmal","recordid":"9e1965bdebf2359f3826a8d0a28737260ad66e73","fields":{"nom_de_la_commune":"ST GRAVE","libell_d_acheminement":"ST GRAVE","code_postal":"56220","coordonnees_gps":[47.7228923689,-2.28820700863],"code_commune_insee":"56218"},"geometry":{"type":"Point","coordinates":[-2.28820700863,47.7228923689]},"record_timestamp":"2016-05-09T15:17:00+02:00"},{"datasetid":"laposte_hexasmal","recordid":"d9e71156f4b9538f32295585135e00ad1c0b6019","fields":{"nom_de_la_commune":"ST JEAN BREVELAY","libell_d_acheminement":"ST JEAN BREVELAY","code_postal":"56660","coordonnees_gps":[47.831231207,-2.72758657957],"code_commune_insee":"56222"},