[{"datasetid":"laposte_hexasmal","recordid":"e8915c8e476ed8ce601719e7a1ab51343e353c10","fields":{"nom_de_la_commune":"AIX","libell_d_acheminement":"AIX","code_postal":"59310","coordonnees_gps":[50.498421043,3.30536772065],"code_commune_insee":"59004"},"geometry":{"type":"Point","coordinates":[3.30536772065,50.498421043]},"record_timestamp":"2016-05-09T15:17:00+02:00"},{"datasetid":"laposte_hexasmal","recordid":"9cc9badb814b140b1a3c0a2095fa0fc2e2b060ea","fields":{"nom_de_la_commune":"ANNEUX","libell_d_acheminement":"ANNEUX","code_postal":"59400","coordonnees_gps":[50.1570164384,3.12505671113],"code_commune_insee":"59010"},"geometry":{"type":"Point","coordinates":[3.12505671113,50.1570164384]},"record_timestamp":"2016-05-09T15:17:00+02:00"},{"datasetid":"laposte_hexasmal","recordid":"a4ee37f589d42236da7b4589c944fc25a3df9f68","fields":{"nom_de_la_commune":"ANNOEULLIN","libell_d_acheminement":"ANNOEULLIN","code_postal":"59112","coordonnees_gps":[50.5265153703,2.92753629479],"code_commune_insee":"59011"},"geometry":{"type":"Point","coordinates":[2.92753629479,50.5265153703]},"record_timestamp":"2016-05-09T15:17:00+02:00"},{"datasetid":"laposte_hexasmal","recordid":"33d7134f74c4ff641e75d4cf283a78752664d406","fields":{"nom_de_la_commune":"ARLEUX","libell_d_acheminement":"ARLEUX","code_postal":"59151","coordonnees_gps":[50.2820675827,3.11314479871],"code_commune_insee":"59015"},"geometry":{"type":"Point","coordinates":[3.11314479871,50.2820675827]},"record_timestamp":"2016-05-09T15:17:00+02:00"},{"datasetid":"laposte_hexasmal","recordid":"537389609c7eedd260edb8e7360ece0c7102507a","fields":{"nom_de_la_commune":"ARTRES","libell_d_acheminement":"ARTRES","code_postal":"59269","coordonnees_gps":[50.2956596119,3.53884943565],"code_commune_insee":"59019"},"geometry":{"type":"Point","coordinates":[3.53884943565,50.2956596119]},"record_timestamp":"2016-05-09T15:17:00+02:00"},{"datasetid":"laposte_hexasmal","recordid":"fa57183fce227e204e1a8bbab0a01704ca6cf3e1","fields":{"nom_de_la_commune":"ATTICHES","libell_d_acheminement":"ATTICHES","code_postal":"59551","coordonnees_gps":[50.5138938279,3.06223374765],"code_commune_insee":"59022"},"geometry":{"type":"Point","coordinates":[3.06223374765,50.5138938279]},"record_timestamp":"2016-05-09T15:17:00+02:00"},{"datasetid":"laposte_hexasmal","recordid":"96e2fa390bea3d790e177c988a2c97a4e9f27477","fields":{"nom_de_la_commune":"AUBERS","libell_d_acheminement":"AUBERS","code_postal":"59249","coordonnees_gps":[50.5960514415,2.81995366841],"code_commune_insee":"59025"},"geometry":{"type":"Point","coordinates":[2.81995366841,50.5960514415]},"record_timestamp":"2016-05-09T15:17:00+02:00"},{"datasetid":"laposte_hexasmal","recordid":"617533e24ec06636297eabe7e4d78103c8b4c9b7","fields":{"nom_de_la_commune":"AUCHY LEZ ORCHIES","libell_d_acheminement":"AUCHY LEZ ORCHIES","code_postal":"59310","coordonnees_gps":[50.480622996,3.19519541331],"code_commune_insee":"59029"},"geometry":{"type":"Point","coordinates":[3.19519541331,50.480622996]},"record_timestamp":"2016-05-09T15:17:00+02:00"},{"datasetid":"laposte_hexasmal","recordid":"0cf019b3587d21f383f0a076862db8ab6e5fc1a0","fields":{"nom_de_la_commune":"AVESNELLES","libell_d_acheminement":"AVESNELLES","code_postal":"59440","coordonnees_gps":[50.1056589526,3.95096845588],"code_commune_insee":"59035"},"geometry":{"type":"Point","coordinates":[3.95096845588,50.1056589526]},"record_timestamp":"2016-05-09T15:17:00+02:00"},{"datasetid":"laposte_hexasmal","recordid":"ef1612e332ac7a4d0c57f158dd6675d30070003d","fields":{"nom_de_la_commune":"AVESNES SUR HELPE","libell_d_acheminement":"AVESNES SUR HELPE","code_postal":"59440","coordonnees_gps":[50.1242937124,3.92754898552],"code_commune_insee":"59036"},"geometry":{"type":"Point","coordinates":[3.92754898552,50.1242937124]},"record_timestamp":"2016-05-09T15:17:00+02:00"},{"datasetid":"laposte_hexasmal","recordid":"b89b65fd17cb638034f58f85cb520108dbf35280","fields":{"nom_de_la_commune":"AVESNES LES AUBERT","libell_d_acheminement":"AVESNES LES AUBERT","code_postal":"59129","coordonnees_gps":[50.1911782213,3.37676857334],"code_commune_insee":"59037"},"geometry":{"type":"Point","coordinates":[3.37676857334,50.1911782213]},"record_timestamp":"2016-05-09T15:17:00+02:00"},{"datasetid":"laposte_hexasmal","recordid":"3595cc3632c35274f4b52484a4a4ae70ea941839","fields":{"nom_de_la_commune":"AVESNES LE SEC","libell_d_acheminement":"AVESNES LE SEC","code_postal":"59296","coordonnees_gps":[50.2483988689,3.37145460907],"code_commune_insee":"59038"},"geometry":{"type":"Point","coordinates":[3.37145460907,50.2483988689]},"record_timestamp":"2016-05-09T15:17:00+02:00"},{"datasetid":"laposte_hexasmal","recordid":"9ecefcec683f3ca4dde0d2bf793b99d04c712642","fields":{"nom_de_la_commune":"BAVAY","libell_d_acheminement":"BAVAY","code_postal":"59570","coordonnees_gps":[50.2936087618,3.80308794658],"code_commune_insee":"59053"},"geometry":{"type":"Point","coordinates":[3.80308794658,50.2936087618]},"record_timestamp":"2016-05-09T15:17:00+02:00"},{"datasetid":"laposte_hexasmal","recordid":"d4154758cec95adbc4d42ad9188f16d32a5c4fe6","fields":{"nom_de_la_commune":"BEAURAIN","libell_d_acheminement":"BEAURAIN","code_postal":"59730","coordonnees_gps":[50.1779797016,3.55059200886],"code_commune_insee":"59060"},"geometry":{"type":"Point","coordinates":[3.55059200886,50.1779797016]},"record_timestamp":"2016-05-09T15:17:00+02:00"},{"datasetid":"laposte_hexasmal","recordid":"799387b57d2e0bcd5e9072c5a3bfaeb1bfbfbfe9","fields":{"nom_de_la_commune":"BEAUVOIS EN CAMBRESIS","libell_d_acheminement":"BEAUVOIS EN CAMBRESIS","code_postal":"59157","coordonnees_gps":[50.1403335661,3.38449590227],"code_commune_insee":"59063"},"geometry":{"type":"Point","coordinates":[3.38449590227,50.1403335661]},"record_timestamp":"2016-05-09T15:17:00+02:00"},{"datasetid":"laposte_hexasmal","recordid":"d74bcdd5c7ebe88f8430cade5fe1da66b8c8cb28","fields":{"nom_de_la_commune":"BERSEE","libell_d_acheminement":"BERSEE","code_postal":"59235","coordonnees_gps":[50.4804538835,3.15078397856],"code_commune_insee":"59071"},"geometry":{"type":"Point","coordinates":[3.15078397856,50.4804538835]},"record_timestamp":"2016-05-09T15:17:00+02:00"},{"datasetid":"laposte_hexasmal","recordid":"cfd4ad3126f0bf3d100d222e311b163fca295b9c","fields":{"nom_de_la_commune":"BETTRECHIES","libell_d_acheminement":"BETTRECHIES","code_postal":"59570","coordonnees_gps":[50.3221407699,3.74013412317],"code_commune_insee":"59077"},"geometry":{"type":"Point","coordinates":[3.74013412317,50.3221407699]},"record_timestamp":"2016-05-09T15:17:00+02:00"},{"datasetid":"laposte_hexasmal","recordid":"9489da3585c707759ba272ff467237187494d45f","fields":{"nom_de_la_commune":"BEUGNIES","libell_d_acheminement":"BEUGNIES","code_postal":"59216","coordonnees_gps":[50.1628708508,3.99516722908],"code_commune_insee":"59078"},"geometry":{"type":"Point","coordinates":[3.99516722908,50.1628708508]},"record_timestamp":"2016-05-09T15:17:00+02:00"},{"datasetid":"laposte_hexasmal","recordid":"735406e8f6aac2fc675a16e06e8fb9f4b5872089","fields":{"nom_de_la_commune":"BEUVRY LA FORET","libell_d_acheminement":"BEUVRY LA FORET","code_postal":"59310","coordonnees_gps":[50.4499686964,3.28271096457],"code_commune_insee":"59080"},"geometry":{"type":"Point","coordinates":[3.28271096457,50.4499686964]},"record_timestamp":"2016-05-09T15:17:00+02:00"},{"datasetid":"laposte_hexasmal","recordid":"b0a4f6fba6964e8a2c7ce5998ac600687951072b","fields":{"nom_de_la_commune":"BLARINGHEM","libell_d_acheminement":"BLARINGHEM","code_postal":"59173","coordonnees_gps":[50.6905234393,2.409606447],"code_commune_insee":"59084"},"geometry":{"type":"Point","coordinates":[2.409606447,50.6905234393]},"record_timestamp":"2016-05-09T15:17:00+02:00"},{"datasetid":"laposte_hexasmal","recordid":"88a3bfc73d788a002f9c3da791fb41a89bd311c8","fields":{"nom_de_la_commune":"BONDUES","libell_d_acheminement":"BONDUES","code_postal":"59910","coordonnees_gps":[50.7096656233,3.09529083038],"code_commune_insee":"59090"},"geometry":{"type":"Point","coordinates":[3.09529083038,50.7096656233]},"record_timestamp":"2016-05-09T15:17:00+02:00"},{"datasetid":"laposte_hexasmal","recordid":"1c02902951078d473cd5601f4a61a473ac3c0217","fields":{"code_postal":"59111","code_commune_insee":"59092","libell_d_acheminement":"BOUCHAIN","ligne_5":"BASSIN ROND","nom_de_la_commune":"BOUCHAIN","coordonnees_gps":[50.2808463643,3.3121651121]},"geometry":{"type":"Point","coordinates":[3.3121651121,50.2808463643]},"record_timestamp":"2016-05-09T15:17:00+02:00"},{"datasetid":"laposte_hexasmal","recordid":"d7e651211f50ae0627d066c574c0c69119f7380c","fields":{"nom_de_la_commune":"BOURSIES","libell_d_acheminement":"BOURSIES","code_postal":"59400","coordonnees_gps":[50.1408057238,3.04441612391],"code_commune_insee":"59097"},"geometry":{"type":"Point","coordinates":[3.04441612391,50.1408057238]},"record_timestamp":"2016-05-09T15:17:00+02:00"},{"datasetid":"laposte_hexasmal","recordid":"7921140c41c3f6e2a3641e4927100da9cb96135b","fields":{"nom_de_la_commune":"BOUSSIERES EN CAMBRESIS","libell_d_acheminement":"BOUSSIERES EN CAMBRESIS","code_postal":"59217","coordonnees_gps":[50.1638275467,3.37224279409],"code_commune_insee":"59102"},"geometry":{"type":"Point","coordinates":[3.37224279409,50.1638275467]},"record_timestamp":"2016-05-09T15:17:00+02:00"},{"datasetid":"laposte_hexasmal","recordid":"59e73501a3383b1ccb511237c6360cd4a4765855","fields":{"nom_de_la_commune":"BOUVINES","libell_d_acheminement":"BOUVINES","code_postal":"59830","coordonnees_gps":[50.5822303153,3.19348904281],"code_commune_insee":"59106"},"geometry":{"type":"Point","coordinates":[3.19348904281,50.5822303153]},"record_timestamp":"2016-05-09T15:17:00+02:00"},{"datasetid":"laposte_hexasmal","recordid":"034ab11f29bbe4ae37b8a1319ab851aa288abb42","fields":{"nom_de_la_commune":"BRUILLE LEZ MARCHIENNES","libell_d_acheminement":"BRUILLE LEZ MARCHIENNES","code_postal":"59490","coordonnees_gps":[50.3559112318,3.24310396614],"code_commune_insee":"59113"},"geometry":{"type":"Point","coordinates":[3.24310396614,50.3559112318]},"record_timestamp":"2016-05-09T15:17:00+02:00"},{"datasetid":"laposte_hexasmal","recordid":"d796de93e3600592dd3784087e88e95b2202facd","fields":{"nom_de_la_commune":"BRUILLE ST AMAND","libell_d_acheminement":"BRUILLE ST AMAND","code_postal":"59199","coordonnees_gps":[50.4652689949,3.50624365329],"code_commune_insee":"59114"},"geometry":{"type":"Point","coordinates":[3.50624365329,50.4652689949]},"record_timestamp":"2016-05-09T15:17:00+02:00"},{"datasetid":"laposte_hexasmal","recordid":"eba853f187c2885e40a237fc35275fea9cecb2e8","fields":{"nom_de_la_commune":"BRY","libell_d_acheminement":"BRY","code_postal":"59144","coordonnees_gps":[50.3162997425,3.68368839887],"code_commune_insee":"59116"},"geometry":{"type":"Point","coordinates":[3.68368839887,50.3162997425]},"record_timestamp":"2016-05-09T15:17:00+02:00"},{"datasetid":"laposte_hexasmal","recordid":"51850e12a7fc7a24818904a35fada3889d1f8e71","fields":{"nom_de_la_commune":"CAGNONCLES","libell_d_acheminement":"CAGNONCLES","code_postal":"59161","coordonnees_gps":[50.185423787,3.31868765658],"code_commune_insee":"59121"},"geometry":{"type":"Point","coordinates":[3.31868765658,50.185423787]},"record_timestamp":"2016-05-09T15:17:00+02:00"},{"datasetid":"laposte_hexasmal","recordid":"a14f6abb5ae6ec3000922b440ca6dd583e7f8411","fields":{"nom_de_la_commune":"CAPPELLE LA GRANDE","libell_d_acheminement":"CAPPELLE LA GRANDE","code_postal":"59180","coordonnees_gps":[50.9960740777,2.37003367458],"code_commune_insee":"59131"},"geometry":{"type":"Point","coordinates":[2.37003367458,50.9960740777]},"record_timestamp":"2016-05-09T15:17:00+02:00"},{"datasetid":"laposte_hexasmal","recordid":"f2e494f714ea6db0786172ce87149028e4bbbafd","fields":{"nom_de_la_commune":"CASSEL","libell_d_acheminement":"CASSEL","code_postal":"59670","coordonnees_gps":[50.795681277,2.49423243668],"code_commune_insee":"59135"},"geometry":{"type":"Point","coordinates":[2.49423243668,50.795681277]},"record_timestamp":"2016-05-09T15:17:00+02:00"},{"datasetid":"laposte_hexasmal","recordid":"9b7e56da89edf258c92d7434590bdbdcc5c35876","fields":{"nom_de_la_commune":"CATILLON SUR SAMBRE","libell_d_acheminement":"CATILLON SUR SAMBRE","code_postal":"59360","coordonnees_gps":[50.0704090435,3.64485751091],"code_commune_insee":"59137"},"geometry":{"type":"Point","coordinates":[3.64485751091,50.0704090435]},"record_timestamp":"2016-05-09T15:17:00+02:00"},{"datasetid":"laposte_hexasmal","recordid":"edaeb2206de5465ab1acc23e0ffb2e06b6c3e530","fields":{"nom_de_la_commune":"CHATEAU L ABBAYE","libell_d_acheminement":"CHATEAU L ABBAYE","code_postal":"59230","coordonnees_gps":[50.4858024683,3.47414949128],"code_commune_insee":"59144"},"geometry":{"type":"Point","coordinates":[3.47414949128,50.4858024683]},"record_timestamp":"2016-05-09T15:17:00+02:00"},{"datasetid":"laposte_hexasmal","recordid":"df17cc88f27a0e53e1f483a071b55d2a0a7e2f43","fields":{"nom_de_la_commune":"COBRIEUX","libell_d_acheminement":"COBRIEUX","code_postal":"59830","coordonnees_gps":[50.5391896198,3.24034953595],"code_commune_insee":"59150"},"geometry":{"type":"Point","coordinates":[3.24034953595,50.5391896198]},"record_timestamp":"2016-05-09T15:17:00+02:00"},{"datasetid":"laposte_hexasmal","recordid":"503e3b36ee3395da1a8ee74f4057c0b7f255293d","fields":{"nom_de_la_commune":"CONDE SUR L ESCAUT","libell_d_acheminement":"CONDE SUR L ESCAUT","code_postal":"59163","coordonnees_gps":[50.4678612037,3.60589087978],"code_commune_insee":"59153"},"geometry":{"type":"Point","coordinates":[3.60589087978,50.4678612037]},"record_timestamp":"2016-05-09T15:17:00+02:00"},{"datasetid":"laposte_hexasmal","recordid":"88a28e82b705379922e12d87276c1b4925a27003","fields":{"nom_de_la_commune":"CRESPIN","libell_d_acheminement":"CRESPIN","code_postal":"59154","coordonnees_gps":[50.4217331557,3.65237979993],"code_commune_insee":"59160"},"geometry":{"type":"Point","coordinates":[3.65237979993,50.4217331557]},"record_timestamp":"2016-05-09T15:17:00+02:00"},{"datasetid":"laposte_hexasmal","recordid":"b97a6617b9b4f8e822bcfd769fdcc5f8f19f9598","fields":{"nom_de_la_commune":"CYSOING","libell_d_acheminement":"CYSOING","code_postal":"59830","coordonnees_gps":[50.5639123041,3.21398704215],"code_commune_insee":"59168"},"geometry":{"type":"Point","coordinates":[3.21398704215,50.5639123041]},"record_timestamp":"2016-05-09T15:17:00+02:00"},{"datasetid":"laposte_hexasmal","recordid":"06243b030ea007d20e90a7dc198789e3b0ebafb6","fields":{"nom_de_la_commune":"DAMOUSIES","libell_d_acheminement":"DAMOUSIES","code_postal":"59680","coordonnees_gps":[50.2195042293,4.00850987305],"code_commune_insee":"59169"},"geometry":{"type":"Point","coordinates":[4.00850987305,50.2195042293]},"record_timestamp":"2016-05-09T15:17:00+02:00"},{"datasetid":"laposte_hexasmal","recordid":"50f625da4d408130855783276cd4e7aaadc59940","fields":{"nom_de_la_commune":"DOIGNIES","libell_d_acheminement":"DOIGNIES","code_postal":"59400","coordonnees_gps":[50.1321485769,3.01379384494],"code_commune_insee":"59176"},"geometry":{"type":"Point","coordinates":[3.01379384494,50.1321485769]},"record_timestamp":"2016-05-09T15:17:00+02:00"},{"datasetid":"laposte_hexasmal","recordid":"ffc4a9cc48c18fa0566f361aabb6d406669dcac2","fields":{"nom_de_la_commune":"DOMPIERRE SUR HELPE","libell_d_acheminement":"DOMPIERRE SUR HELPE","code_postal":"59440","coordonnees_gps":[50.1420178536,3.8595206672],"code_commune_insee":"59177"},"geometry":{"type":"Point","coordinates":[3.8595206672,50.1420178536]},"record_timestamp":"2016-05-09T15:17:00+02:00"},{"datasetid":"laposte_hexasmal","recordid":"7a0eeb737bc18f676271e7fe99c03a4258c8aaba","fields":{"code_postal":"59500","code_commune_insee":"59178","libell_d_acheminement":"DOUAI","ligne_5":"DORIGNIES","nom_de_la_commune":"DOUAI","coordonnees_gps":[50.3823195335,3.09145683114]},"geometry":{"type":"Point","coordinates":[3.09145683114,50.3823195335]},"record_timestamp":"2016-05-09T15:17:00+02:00"},{"datasetid":"laposte_hexasmal","recordid":"a115535b6db9779436f94dd56a0d9bcafffddbef","fields":{"code_postal":"59240","code_commune_insee":"59183","libell_d_acheminement":"DUNKERQUE","ligne_5":"MALO LES BAINS","nom_de_la_commune":"DUNKERQUE","coordonnees_gps":[51.0307229078,2.33752414095]},"geometry":{"type":"Point","coordinates":[2.33752414095,51.0307229078]},"record_timestamp":"2016-05-09T15:17:00+02:00"},{"datasetid":"laposte_hexasmal","recordid":"b28fd2fcd6da921618882db70d3e227ad78e38d1","fields":{"code_postal":"59430","code_commune_insee":"59183","libell_d_acheminement":"DUNKERQUE","ligne_5":"ST POL SUR MER","nom_de_la_commune":"DUNKERQUE","coordonnees_gps":[51.0307229078,2.33752414095]},"geometry":{"type":"Point","coordinates":[2.33752414095,51.0307229078]},"record_timestamp":"2016-05-09T15:17:00+02:00"},{"datasetid":"laposte_hexasmal","recordid":"ab491df2713b3dc846e0d70f89d7427ef4297245","fields":{"nom_de_la_commune":"ECAILLON","libell_d_acheminement":"ECAILLON","code_postal":"59176","coordonnees_gps":[50.3482315234,3.21529635453],"code_commune_insee":"59185"},"geometry":{"type":"Point","coordinates":[3.21529635453,50.3482315234]},"record_timestamp":"2016-05-09T15:17:00+02:00"},{"datasetid":"laposte_hexasmal","recordid":"8c5a254fddfa3e0f4acf30ffeb1331f9c09841ff","fields":{"nom_de_la_commune":"ECLAIBES","libell_d_acheminement":"ECLAIBES","code_postal":"59330","coordonnees_gps":[50.1999798551,3.93837593672],"code_commune_insee":"59187"},"geometry":{"type":"Point","coordinates":[3.93837593672,50.1999798551]},"record_timestamp":"2016-05-09T15:17:00+02:00"},{"datasetid":"laposte_hexasmal","recordid":"0c927625bc0c0b4e1424ca6efcd5f38619e7d12b","fields":{"nom_de_la_commune":"EMERCHICOURT","libell_d_acheminement":"EMERCHICOURT","code_postal":"59580","coordonnees_gps":[50.3117441641,3.25561088678],"code_commune_insee":"59192"},"geometry":{"type":"Point","coordinates":[3.25561088678,50.3117441641]},"record_timestamp":"2016-05-09T15:17:00+02:00"},{"datasetid":"laposte_hexasmal","recordid":"18a3ccb612203acd4dd44fd5277150f992f2096b","fields":{"nom_de_la_commune":"ENNEVELIN","libell_d_acheminement":"ENNEVELIN","code_postal":"59710","coordonnees_gps":[50.5387195422,3.12792567754],"code_commune_insee":"59197"},"geometry":{"type":"Point","coordinates":[3.12792567754,50.5387195422]},"record_timestamp":"2016-05-09T15:17:00+02:00"},{"datasetid":"laposte_hexasmal","recordid":"9075b0b0646a79226a60e280fab4a6e3a37cccbf","fields":{"nom_de_la_commune":"ESTAIRES","libell_d_acheminement":"ESTAIRES","code_postal":"59940","coordonnees_gps":[50.654423304,2.72156583757],"code_commune_insee":"59212"},"geometry":{"type":"Point","coordinates":[2.72156583757,50.654423304]},"record_timestamp":"2016-05-09T15:17:00+02:00"},{"datasetid":"laposte_hexasmal","recordid":"02aa5abf881bb2cc14c5e8aad7449863c88ad76a","fields":{"nom_de_la_commune":"ESTOURMEL","libell_d_acheminement":"ESTOURMEL","code_postal":"59400","coordonnees_gps":[50.1518286613,3.32132515587],"code_commune_insee":"59213"},"geometry":{"type":"Point","coordinates":[3.32132515587,50.1518286613]},"record_timestamp":"2016-05-09T15:17:00+02:00"},{"datasetid":"laposte_hexasmal","recordid":"37affbc68a79f75c5e7705a88fa98c46c1edfc49","fields":{"nom_de_la_commune":"FERRIERE LA PETITE","libell_d_acheminement":"FERRIERE LA PETITE","code_postal":"59680","coordonnees_gps":[50.2403988666,4.02739766598],"code_commune_insee":"59231"},"geometry":{"type":"Point","coordinates":[4.02739766598,50.2403988666]},"record_timestamp":"2016-05-09T15:17:00+02:00"},{"datasetid":"laposte_hexasmal","recordid":"0b429c51757057cdd2b096c77f8214cc745e2d6f","fields":{"nom_de_la_commune":"FLINES LES MORTAGNE","libell_d_acheminement":"FLINES LES MORTAGNE","code_postal":"59158","coordonnees_gps":[50.5128551387,3.48452339444],"code_commune_insee":"59238"},"geometry":{"type":"Point","coordinates":[3.48452339444,50.5128551387]},"record_timestamp":"2016-05-09T15:17:00+02:00"},{"datasetid":"laposte_hexasmal","recordid":"3195ea06c048aa491c008f53dd61b96968b8c4fa","fields":{"nom_de_la_commune":"FLOURSIES","libell_d_acheminement":"FLOURSIES","code_postal":"59440","coordonnees_gps":[50.1863221041,3.97166819813],"code_commune_insee":"59240"},"geometry":{"type":"Point","coordinates":[3.97166819813,50.1863221041]},"record_timestamp":"2016-05-09T15:17:00+02:00"},{"datasetid":"laposte_hexasmal","recordid":"b8da2dbcdc74aa7e32ce0e9f0f76aa284c4dc8d2","fields":{"nom_de_la_commune":"FLOYON","libell_d_acheminement":"FLOYON","code_postal":"59219","coordonnees_gps":[50.0412036226,3.88418001471],"code_commune_insee":"59241"},"geometry":{"type":"Point","coordinates":[3.88418001471,50.0412036226]},"record_timestamp":"2016-05-09T15:17:00+02:00"},{"datasetid":"laposte_hexasmal","recordid":"7a71913850462b0c0a7bb70f65ccb92bb7150f58","fields":{"nom_de_la_commune":"FOURNES EN WEPPES","libell_d_acheminement":"FOURNES EN WEPPES","code_postal":"59134","coordonnees_gps":[50.5917277363,2.89362071865],"code_commune_insee":"59250"},"geometry":{"type":"Point","coordinates":[2.89362071865,50.5917277363]},"record_timestamp":"2016-05-09T15:17:00+02:00"},{"datasetid":"laposte_hexasmal","recordid":"2b5215f17f23df96cb7bc9b39da58ad07bb774fd","fields":{"nom_de_la_commune":"FRELINGHIEN","libell_d_acheminement":"FRELINGHIEN","code_postal":"59236","coordonnees_gps":[50.703109663,2.95178380263],"code_commune_insee":"59252"},"geometry":{"type":"Point","coordinates":[2.95178380263,50.703109663]},"record_timestamp":"2016-05-09T15:17:00+02:00"},{"datasetid":"laposte_hexasmal","recordid":"07a90819d3dc4d02bb1e782724c2d6ff34df318a","fields":{"nom_de_la_commune":"FRESSIES","libell_d_acheminement":"FRESSIES","code_postal":"59268","coordonnees_gps":[50.2494910786,3.18888373782],"code_commune_insee":"59255"},"geometry":{"type":"Point","coordinates":[3.18888373782,50.2494910786]},"record_timestamp":"2016-05-09T15:17:00+02:00"},{"datasetid":"laposte_hexasmal","recordid":"305ab2d048414f96311801a22d9e715218e92d22","fields":{"nom_de_la_commune":"GLAGEON","libell_d_acheminement":"GLAGEON","code_postal":"59132","coordonnees_gps":[50.0506114879,4.06404937092],"code_commune_insee":"59261"},"geometry":{"type":"Point","coordinates":[4.06404937092,50.0506114879]},"record_timestamp":"2016-05-09T15:17:00+02:00"},{"datasetid":"laposte_hexasmal","recordid":"34d15be4cf568b1efaa1d1be23d2ecffefde8e98","fields":{"nom_de_la_commune":"LA GORGUE","libell_d_acheminement":"LA GORGUE","code_postal":"59253","coordonnees_gps":[50.6309281138,2.73945543193],"code_commune_insee":"59268"},"geometry":{"type":"Point","coordinates":[2.73945543193,50.6309281138]},"record_timestamp":"2016-05-09T15:17:00+02:00"},{"datasetid":"laposte_hexasmal","recordid":"c91131783e9a823eddbaf315b81e4eccc7bbd6b9","fields":{"nom_de_la_commune":"GRANDE SYNTHE","libell_d_acheminement":"GRANDE SYNTHE","code_postal":"59760","coordonnees_gps":[51.0167874642,2.29071143357],"code_commune_insee":"59271"},"geometry":{"type":"Point","coordinates":[2.29071143357,51.0167874642]},"record_timestamp":"2016-05-09T15:17:00+02:00"},{"datasetid":"laposte_hexasmal","recordid":"04f30ed28c157aa881f8782ea31f846e273276d2","fields":{"nom_de_la_commune":"GUESNAIN","libell_d_acheminement":"GUESNAIN","code_postal":"59287","coordonnees_gps":[50.3483461671,3.14816711364],"code_commune_insee":"59276"},"geometry":{"type":"Point","coordinates":[3.14816711364,50.3483461671]},"record_timestamp":"2016-05-09T15:17:00+02:00"},{"datasetid":"laposte_hexasmal","recordid":"e459809b407b51e296ce3f287f703e039d22ea24","fields":{"nom_de_la_commune":"HALLENNES LEZ HAUBOURDIN","libell_d_acheminement":"HALLENNES LEZ HAUBOURDIN","code_postal":"59320","coordonnees_gps":[50.6120409794,2.95454404454],"code_commune_insee":"59278"},"geometry":{"type":"Point","coordinates":[2.95454404454,50.6120409794]},"record_timestamp":"2016-05-09T15:17:00+02:00"},{"datasetid":"laposte_hexasmal","recordid":"32cd214a00223a94cdc8267c519b36f604200d28","fields":{"nom_de_la_commune":"HARDIFORT","libell_d_acheminement":"HARDIFORT","code_postal":"59670","coordonnees_gps":[50.8187124794,2.48138038993],"code_commune_insee":"59282"},"geometry":{"type":"Point","coordinates":[2.48138038993,50.8187124794]},"record_timestamp":"2016-05-09T15:17:00+02:00"},{"datasetid":"laposte_hexasmal","recordid":"64cd3a591b796ca99ed377b4f1e4ea11d3963b01","fields":{"nom_de_la_commune":"HAUBOURDIN","libell_d_acheminement":"HAUBOURDIN","code_postal":"59320","coordonnees_gps":[50.6044150332,2.98727183184],"code_commune_insee":"59286"},"geometry":{"type":"Point","coordinates":[2.98727183184,50.6044150332]},"record_timestamp":"2016-05-09T15:17:00+02:00"},{"datasetid":"laposte_hexasmal","recordid":"03143bca66099460a9c149ae9be50e9f0bbeae34","fields":{"nom_de_la_commune":"HAUCOURT EN CAMBRESIS","libell_d_acheminement":"HAUCOURT EN CAMBRESIS","code_postal":"59191","coordonnees_gps":[50.1068286942,3.34360726309],"code_commune_insee":"59287"},"geometry":{"type":"Point","coordinates":[3.34360726309,50.1068286942]},"record_timestamp":"2016-05-09T15:17:00+02:00"},{"datasetid":"laposte_hexasmal","recordid":"e2d0a335c289aa914fd70d06a7152e0b882d8c74","fields":{"nom_de_la_commune":"HERIN","libell_d_acheminement":"HERIN","code_postal":"59195","coordonnees_gps":[50.3588545059,3.44801878538],"code_commune_insee":"59302"},"geometry":{"type":"Point","coordinates":[3.44801878538,50.3588545059]},"record_timestamp":"2016-05-09T15:17:00+02:00"},{"datasetid":"laposte_hexasmal","recordid":"a981c36433a0d533520fc1476f9389dcf63ea754","fields":{"nom_de_la_commune":"HONDEGHEM","libell_d_acheminement":"HONDEGHEM","code_postal":"59190","coordonnees_gps":[50.7552272301,2.5153551845],"code_commune_insee":"59308"},"geometry":{"type":"Point","coordinates":[2.5153551845,50.7552272301]},"record_timestamp":"2016-05-09T15:17:00+02:00"},{"datasetid":"laposte_hexasmal","recordid":"2d454c7c50fc80045f14e471c67d718adc4c27c8","fields":{"nom_de_la_commune":"HOUPLIN ANCOISNE","libell_d_acheminement":"HOUPLIN ANCOISNE","code_postal":"59263","coordonnees_gps":[50.5699205029,2.99498019167],"code_commune_insee":"59316"},"geometry":{"type":"Point","coordinates":[2.99498019167,50.5699205029]},"record_timestamp":"2016-05-09T15:17:00+02:00"},{"datasetid":"laposte_hexasmal","recordid":"2d2f3751b9a7f8d490ba75e7c42b9484deeef87b","fields":{"nom_de_la_commune":"JEUMONT","libell_d_acheminement":"JEUMONT","code_postal":"59460","coordonnees_gps":[50.2913767196,4.10405698183],"code_commune_insee":"59324"},"geometry":{"type":"Point","coordinates":[4.10405698183,50.2913767196]},"record_timestamp":"2016-05-09T15:17:00+02:00"},{"datasetid":"laposte_hexasmal","recordid":"150a94cec55abe46386205656657011e6a721861","fields":{"nom_de_la_commune":"LAMBRES LEZ DOUAI","libell_d_acheminement":"LAMBRES LEZ DOUAI","code_postal":"59552","coordonnees_gps":[50.3542349649,3.05466709825],"code_commune_insee":"59329"},"geometry":{"type":"Point","coordinates":[3.05466709825,50.3542349649]},"record_timestamp":"2016-05-09T15:17:00+02:00"},{"datasetid":"laposte_hexasmal","recordid":"0146bd303df9a6ec2df8d9579e81455b39bdc52c","fields":{"nom_de_la_commune":"LANDRECIES","libell_d_acheminement":"LANDRECIES","code_postal":"59550","coordonnees_gps":[50.1205093509,3.68851283044],"code_commune_insee":"59331"},"geometry":{"type":"Point","coordinates":[3.68851283044,50.1205093509]},"record_timestamp":"2016-05-09T15:17:00+02:00"},{"datasetid":"laposte_hexasmal","recordid":"a437997068912ada3ec99f2e36446bbc38d90c1b","fields":{"nom_de_la_commune":"LAROUILLIES","libell_d_acheminement":"LAROUILLIES","code_postal":"59219","coordonnees_gps":[50.0378159159,3.93206496317],"code_commune_insee":"59333"},"geometry":{"type":"Point","coordinates":[3.93206496317,50.0378159159]},"record_timestamp":"2016-05-09T15:17:00+02:00"},{"datasetid":"laposte_hexasmal","recordid":"d787d60ad64e021440d2df604dd744025c6d998c","fields":{"nom_de_la_commune":"LAUWIN PLANQUE","libell_d_acheminement":"LAUWIN PLANQUE","code_postal":"59553","coordonnees_gps":[50.3929252275,3.02930995162],"code_commune_insee":"59334"},"geometry":{"type":"Point","coordinates":[3.02930995162,50.3929252275]},"record_timestamp":"2016-05-09T15:17:00+02:00"},{"datasetid":"laposte_hexasmal","recordid":"01268cca9dd8273b94b241bf0bcad790d6184274","fields":{"nom_de_la_commune":"LEDRINGHEM","libell_d_acheminement":"LEDRINGHEM","code_postal":"59470","coordonnees_gps":[50.862026516,2.44478876781],"code_commune_insee":"59338"},"geometry":{"type":"Point","coordinates":[2.44478876781,50.862026516]},"record_timestamp":"2016-05-09T15:17:00+02:00"},{"datasetid":"laposte_hexasmal","recordid":"310c4e59cab236372bc4c7ffdc9ab0ca7292a760","fields":{"nom_de_la_commune":"LEERS","libell_d_acheminement":"LEERS","code_postal":"59115","coordonnees_gps":[50.6813150077,3.23964411032],"code_commune_insee":"59339"},"geometry":{"type":"Point","coordinates":[3.23964411032,50.6813150077]},"record_timestamp":"2016-05-09T15:17:00+02:00"},{"datasetid":"laposte_hexasmal","recordid":"d6e84550abc3f228e0ca3bfe3e74e5b6d949da95","fields":{"code_postal":"59160","code_commune_insee":"59350","libell_d_acheminement":"LILLE","ligne_5":"LOMME","nom_de_la_commune":"LILLE","coordonnees_gps":[50.6317183168,3.04783272312]},"geometry":{"type":"Point","coordinates":[3.04783272312,50.6317183168]},"record_timestamp":"2016-05-09T15:17:00+02:00"},{"datasetid":"laposte_hexasmal","recordid":"03867ba46c8d1ea4a010c14aa8a10e141ff4f4a1","fields":{"nom_de_la_commune":"LA LONGUEVILLE","libell_d_acheminement":"LA LONGUEVILLE","code_postal":"59570","coordonnees_gps":[50.2961357977,3.87102048316],"code_commune_insee":"59357"},"geometry":{"type":"Point","coordinates":[3.87102048316,50.2961357977]},"record_timestamp":"2016-05-09T15:17:00+02:00"},{"datasetid":"laposte_hexasmal","recordid":"ebe97c5b8554c04b75dbc286d27ff473e7d4965a","fields":{"nom_de_la_commune":"LYNDE","libell_d_acheminement":"LYNDE","code_postal":"59173","coordonnees_gps":[50.7186012441,2.43465079994],"code_commune_insee":"59366"},"geometry":{"type":"Point","coordinates":[2.43465079994,50.7186012441]},"record_timestamp":"2016-05-09T15:17:00+02:00"},{"datasetid":"laposte_hexasmal","recordid":"2cf0c24a775ccdbbee25e56ccc8035036856a3b4","fields":{"nom_de_la_commune":"MAING","libell_d_acheminement":"MAING","code_postal":"59233","coordonnees_gps":[50.3036687499,3.48802239874],"code_commune_insee":"59369"},"geometry":{"type":"Point","coordinates":[3.48802239874,50.3036687499]},"record_timestamp":"2016-05-09T15:17:00+02:00"},{"datasetid":"laposte_hexasmal","recordid":"63e40c9dd5a0e7bbc14233703a3ee40c8edb9722","fields":{"nom_de_la_commune":"MARESCHES","libell_d_acheminement":"MARESCHES","code_postal":"59990","coordonnees_gps":[50.2940290785,3.57606019881],"code_commune_insee":"59381"},"geometry":{"type":"Point","coordinates":[3.57606019881,50.2940290785]},"record_timestamp":"2016-05-09T15:17:00+02:00"},{"datasetid":"laposte_hexasmal","recordid":"42a91e3682aa7ea832bbb4a38ddf0ed8de6e240f","fields":{"nom_de_la_commune":"MAROILLES","libell_d_acheminement":"MAROILLES","code_postal":"59550","coordonnees_gps":[50.1319269189,3.75814901282],"code_commune_insee":"59384"},"geometry":{"type":"Point","coordinates":[3.75814901282,50.1319269189]},"record_timestamp":"2016-05-09T15:17:00+02:00"},{"datasetid":"laposte_hexasmal","recordid":"85fdd2c852776e7b06b4c06449c2a086bf2d5e33","fields":{"nom_de_la_commune":"MARQUILLIES","libell_d_acheminement":"MARQUILLIES","code_postal":"59274","coordonnees_gps":[50.5507925122,2.86815833452],"code_commune_insee":"59388"},"geometry":{"type":"Point","coordinates":[2.86815833452,50.5507925122]},"record_timestamp":"2016-05-09T15:17:00+02:00"},{"datasetid":"laposte_hexasmal","recordid":"dbcf2b33a4aa67a2331d79fb635725372ecaa5b6","fields":{"code_postal":"59600","code_commune_insee":"59392","libell_d_acheminement":"MAUBEUGE","ligne_5":"DOUZIES","nom_de_la_commune":"MAUBEUGE","coordonnees_gps":[50.283630719,3.96328053037]},"geometry":{"type":"Point","coordinates":[3.96328053037,50.283630719]},"record_timestamp":"2016-05-09T15:17:00+02:00"},{"datasetid":"laposte_hexasmal","recordid":"944f0073734d4d1d0a1338400c541910a090249d","fields":{"nom_de_la_commune":"MAULDE","libell_d_acheminement":"MAULDE","code_postal":"59158","coordonnees_gps":[50.4952908946,3.42538565597],"code_commune_insee":"59393"},"geometry":{"type":"Point","coordinates":[3.42538565597,50.4952908946]},"record_timestamp":"2016-05-09T15:17:00+02:00"},{"datasetid":"laposte_hexasmal","recordid":"663561c2d717df9458c075db4a2da3b9b7472778","fields":{"nom_de_la_commune":"MERRIS","libell_d_acheminement":"MERRIS","code_postal":"59270","coordonnees_gps":[50.7178435961,2.6572770613],"code_commune_insee":"59399"},"geometry":{"type":"Point","coordinates":[2.6572770613,50.7178435961]},"record_timestamp":"2016-05-09T15:17:00+02:00"},{"datasetid":"laposte_hexasmal","recordid":"b50417df322e1f2794b747d4a53edf0ee12f969f","fields":{"nom_de_la_commune":"MILLAM","libell_d_acheminement":"MILLAM","code_postal":"59143","coordonnees_gps":[50.8559210958,2.25120770329],"code_commune_insee":"59402"},"geometry":{"type":"Point","coordinates":[2.25120770329,50.8559210958]},"record_timestamp":"2016-05-09T15:17:00+02:00"},{"datasetid":"laposte_hexasmal","recordid":"93d0076b59ad0d6aa7ad30edba0b53f8766b343a","fields":{"nom_de_la_commune":"MONCHECOURT","libell_d_acheminement":"MONCHECOURT","code_postal":"59234","coordonnees_gps":[50.3061963745,3.21073984637],"code_commune_insee":"59409"},"geometry":{"type":"Point","coordinates":[3.21073984637,50.3061963745]},"record_timestamp":"2016-05-09T15:17:00+02:00"},{"datasetid":"laposte_hexasmal","recordid":"5ebc554bf6a0d9b4b6f24ec37b880819a0c0c684","fields":{"nom_de_la_commune":"MOUCHIN","libell_d_acheminement":"MOUCHIN","code_postal":"59310","coordonnees_gps":[50.5168601993,3.28629185123],"code_commune_insee":"59419"},"geometry":{"type":"Point","coordinates":[3.28629185123,50.5168601993]},"record_timestamp":"2016-05-09T15:17:00+02:00"},{"datasetid":"laposte_hexasmal","recordid":"1c7ed487dfeba3bf188e8abbbcf484b8b1ab7b99","fields":{"nom_de_la_commune":"NEUVILLE EN AVESNOIS","libell_d_acheminement":"NEUVILLE EN AVESNOIS","code_postal":"59218","coordonnees_gps":[50.1995093719,3.57904088445],"code_commune_insee":"59425"},"geometry":{"type":"Point","coordinates":[3.57904088445,50.1995093719]},"record_timestamp":"2016-05-09T15:17:00+02:00"},{"datasetid":"laposte_hexasmal","recordid":"24a431bf7e6371d87621bb29326d4b2afd97c8c6","fields":{"nom_de_la_commune":"NEUVILLE EN FERRAIN","libell_d_acheminement":"NEUVILLE EN FERRAIN","code_postal":"59960","coordonnees_gps":[50.7533162393,3.15977251104],"code_commune_insee":"59426"},"geometry":{"type":"Point","coordinates":[3.15977251104,50.7533162393]},"record_timestamp":"2016-05-09T15:17:00+02:00"},{"datasetid":"laposte_hexasmal","recordid":"0aaa42881de9bb057b4d146369916e821d447b82","fields":{"nom_de_la_commune":"NEUVILLE ST REMY","libell_d_acheminement":"NEUVILLE ST REMY","code_postal":"59554","coordonnees_gps":[50.1876980939,3.21918185069],"code_commune_insee":"59428"},"geometry":{"type":"Point","coordinates":[3.21918185069,50.1876980939]},"record_timestamp":"2016-05-09T15:17:00+02:00"},{"datasetid":"laposte_hexasmal","recordid":"2207c30dec29e36bf38b0f90263ef35720c7ec9d","fields":{"nom_de_la_commune":"NEUVILLY","libell_d_acheminement":"NEUVILLY","code_postal":"59360","coordonnees_gps":[50.1349971919,3.51024982301],"code_commune_insee":"59430"},"geometry":{"type":"Point","coordinates":[3.51024982301,50.1349971919]},"record_timestamp":"2016-05-09T15:17:00+02:00"},{"datasetid":"laposte_hexasmal","recordid":"44977fcbb5bdef05ab5007a4ba41dd4e2d0051c8","fields":{"nom_de_la_commune":"NOORDPEENE","libell_d_acheminement":"NOORDPEENE","code_postal":"59670","coordonnees_gps":[50.7945101601,2.36741593689],"code_commune_insee":"59436"},"geometry":{"type":"Point","coordinates":[2.36741593689,50.7945101601]},"record_timestamp":"2016-05-09T15:17:00+02:00"},{"datasetid":"laposte_hexasmal","recordid":"0264a0f22041c7c0ee9c3b4e66d18e8b2a414136","fields":{"nom_de_la_commune":"OBIES","libell_d_acheminement":"OBIES","code_postal":"59570","coordonnees_gps":[50.2692950414,3.7760866867],"code_commune_insee":"59441"},"geometry":{"type":"Point","coordinates":[3.7760866867,50.2692950414]},"record_timestamp":"2016-05-09T15:17:00+02:00"},{"datasetid":"laposte_hexasmal","recordid":"5bc4de64b51f56b3c2d46a02a272903bcf5cec15","fields":{"nom_de_la_commune":"ONNAING","libell_d_acheminement":"ONNAING","code_postal":"59264","coordonnees_gps":[50.3867147723,3.59668401083],"code_commune_insee":"59447"},"geometry":{"type":"Point","coordinates":[3.59668401083,50.3867147723]},"record_timestamp":"2016-05-09T15:17:00+02:00"},{"datasetid":"laposte_hexasmal","recordid":"923683d1fcff86659f90db10aab8db295059778a","fields":{"nom_de_la_commune":"ORCHIES","libell_d_acheminement":"ORCHIES","code_postal":"59310","coordonnees_gps":[50.4684491037,3.23890685351],"code_commune_insee":"59449"},"geometry":{"type":"Point","coordinates":[3.23890685351,50.4684491037]},"record_timestamp":"2016-05-09T15:17:00+02:00"},{"datasetid":"laposte_hexasmal","recordid":"7f21b476b1ecd1362345383918a8413f8be0dd62","fields":{"nom_de_la_commune":"OSTRICOURT","libell_d_acheminement":"OSTRICOURT","code_postal":"59162","coordonnees_gps":[50.4571255859,3.03269713092],"code_commune_insee":"59452"},"geometry":{"type":"Point","coordinates":[3.03269713092,50.4571255859]},"record_timestamp":"2016-05-09T15:17:00+02:00"},{"datasetid":"laposte_hexasmal","recordid":"14815e0391574408c8d3444598c5db968d940e6c","fields":{"nom_de_la_commune":"OUDEZEELE","libell_d_acheminement":"OUDEZEELE","code_postal":"59670","coordonnees_gps":[50.8399999116,2.51032290122],"code_commune_insee":"59453"},"geometry":{"type":"Point","coordinates":[2.51032290122,50.8399999116]},"record_timestamp":"2016-05-09T15:17:00+02:00"},{"datasetid":"laposte_hexasmal","recordid":"fb8f076039d45fbfb7d997b300d95c73df2fbbf6","fields":{"nom_de_la_commune":"PONT SUR SAMBRE","libell_d_acheminement":"PONT SUR SAMBRE","code_postal":"59138","coordonnees_gps":[50.2317600389,3.84512612151],"code_commune_insee":"59467"},"geometry":{"type":"Point","coordinates":[3.84512612151,50.2317600389]},"record_timestamp":"2016-05-09T15:17:00+02:00"},{"datasetid":"laposte_hexasmal","recordid":"e42b852c695ee3a7ad216b98bdf24346dd9ea493","fields":{"nom_de_la_commune":"PRADELLES","libell_d_acheminement":"PRADELLES","code_postal":"59190","coordonnees_gps":[50.7340517429,2.60269224096],"code_commune_insee":"59469"},"geometry":{"type":"Point","coordinates":[2.60269224096,50.7340517429]},"record_timestamp":"2016-05-09T15:17:00+02:00"},{"datasetid":"laposte_hexasmal","recordid":"a19f960bdaea5dc34e1ed1a553e0a6691a034d55","fields":{"code_postal":"59840","code_commune_insee":"59470","libell_d_acheminement":"PREMESQUES","ligne_5":"MONT DE PREMESQUES","nom_de_la_commune":"PREMESQUES","coordonnees_gps":[50.6607863693,2.9485483768]},"geometry":{"type":"Point","coordinates":[2.9485483768,50.6607863693]},"record_timestamp":"2016-05-09T15:17:00+02:00"},{"datasetid":"laposte_hexasmal","recordid":"8ac1d80d6574a8f8fb851fdd142faf16ac4c3c61","fields":{"nom_de_la_commune":"PREUX AU BOIS","libell_d_acheminement":"PREUX AU BOIS","code_postal":"59288","coordonnees_gps":[50.1647138146,3.6553638264],"code_commune_insee":"59472"},"geometry":{"type":"Point","coordinates":[3.6553638264,50.1647138146]},"record_timestamp":"2016-05-09T15:17:00+02:00"},{"datasetid":"laposte_hexasmal","recordid":"c969ebe2be8901218e57e03f6c62b0e7644e6c9f","fields":{"nom_de_la_commune":"PRISCHES","libell_d_acheminement":"PRISCHES","code_postal":"59550","coordonnees_gps":[50.0779109986,3.75922395806],"code_commune_insee":"59474"},"geometry":{"type":"Point","coordinates":[3.75922395806,50.0779109986]},"record_timestamp":"2016-05-09T15:17:00+02:00"},{"datasetid":"laposte_hexasmal","recordid":"4f46619b7c1d0fdeadb2b5e44b3b5506d7f32a6f","fields":{"nom_de_la_commune":"QUAROUBLE","libell_d_acheminement":"QUAROUBLE","code_postal":"59243","coordonnees_gps":[50.4035655109,3.6270603909],"code_commune_insee":"59479"},"geometry":{"type":"Point","coordinates":[3.6270603909,50.4035655109]},"record_timestamp":"2016-05-09T15:17:00+02:00"},{"datasetid":"laposte_hexasmal","recordid":"2f5b89c63f2b796cbb0f41db30c2cf08a7ef2427","fields":{"nom_de_la_commune":"LE QUESNOY","libell_d_acheminement":"LE QUESNOY","code_postal":"59530","coordonnees_gps":[50.2506593981,3.62486177207],"code_commune_insee":"59481"},"geometry":{"type":"Point","coordinates":[3.62486177207,50.2506593981]},"record_timestamp":"2016-05-09T15:17:00+02:00"},{"datasetid":"laposte_hexasmal","recordid":"317d4edd81ae6e68136f9272fb6fb2f13e48bc64","fields":{"nom_de_la_commune":"QUESNOY SUR DEULE","libell_d_acheminement":"QUESNOY SUR DEULE","code_postal":"59890","coordonnees_gps":[50.7129994523,3.00861966929],"code_commune_insee":"59482"},"geometry":{"type":"Point","coordinates":[3.00861966929,50.7129994523]},"record_timestamp":"2016-05-09T15:17:00+02:00"},{"datasetid":"laposte_hexasmal","recordid":"71f3195d3f849299881ee438e8c36aedcdd03eba","fields":{"nom_de_la_commune":"RAISMES","libell_d_acheminement":"RAISMES","code_postal":"59590","coordonnees_gps":[50.410089317,3.48909318774],"code_commune_insee":"59491"},"geometry":{"type":"Point","coordinates":[3.48909318774,50.410089317]},"record_timestamp":"2016-05-09T15:17:00+02:00"},{"datasetid":"laposte_hexasmal","recordid":"e65650e5d18a8ca89cd0737acc60809e7cefd3b9","fields":{"nom_de_la_commune":"RAUCOURT AU BOIS","libell_d_acheminement":"RAUCOURT AU BOIS","code_postal":"59530","coordonnees_gps":[50.2067851455,3.6560114776],"code_commune_insee":"59494"},"geometry":{"type":"Point","coordinates":[3.6560114776,50.2067851455]},"record_timestamp":"2016-05-09T15:17:00+02:00"},{"datasetid":"laposte_hexasmal","recordid":"f02fda62284d2ad45a7bc5ce67a0b1bf09d71f78","fields":{"nom_de_la_commune":"RIEUX EN CAMBRESIS","libell_d_acheminement":"RIEUX EN CAMBRESIS","code_postal":"59277","coordonnees_gps":[50.2043374368,3.35238504979],"code_commune_insee":"59502"},"geometry":{"type":"Point","coordinates":[3.35238504979,50.2043374368]},"record_timestamp":"2016-05-09T15:17:00+02:00"},{"datasetid":"laposte_hexasmal","recordid":"9c592256d17587a278000c4fb8ac36eafcf32b45","fields":{"nom_de_la_commune":"ROEULX","libell_d_acheminement":"ROEULX","code_postal":"59172","coordonnees_gps":[50.3127229733,3.32813430468],"code_commune_insee":"59504"},"geometry":{"type":"Point","coordinates":[3.32813430468,50.3127229733]},"record_timestamp":"2016-05-09T15:17:00+02:00"},{"datasetid":"laposte_hexasmal","recordid":"89b0d7df9e60d7bf4e91efe14d73f46b3ac1a718","fields":{"nom_de_la_commune":"RONCQ","libell_d_acheminement":"RONCQ","code_postal":"59223","coordonnees_gps":[50.747350697,3.11815606165],"code_commune_insee":"59508"},"geometry":{"type":"Point","coordinates":[3.11815606165,50.747350697]},"record_timestamp":"2016-05-09T15:17:00+02:00"},{"datasetid":"laposte_hexasmal","recordid":"0ebece86f598ec59996f6f13728b585d5ce2ae21","fields":{"nom_de_la_commune":"RUBROUCK","libell_d_acheminement":"RUBROUCK","code_postal":"59285","coordonnees_gps":[50.8331982321,2.36252595858],"code_commune_insee":"59516"},"geometry":{"type":"Point","coordinates":[2.36252595858,50.8331982321]},"record_timestamp":"2016-05-09T15:17:00+02:00"},{"datasetid":"laposte_hexasmal","recordid":"426c9bfd0c0a6f99fd86014fb726feede01f611a","fields":{"nom_de_la_commune":"SAINGHIN EN WEPPES","libell_d_acheminement":"SAINGHIN EN WEPPES","code_postal":"59184","coordonnees_gps":[50.5583359872,2.89740255201],"code_commune_insee":"59524"},"geometry":{"type":"Point","coordinates":[2.89740255201,50.5583359872]},"record_timestamp":"2016-05-09T15:17:00+02:00"},{"datasetid":"laposte_hexasmal","recordid":"ad66d3830b278790b51ed2e260219202987ce007","fields":{"nom_de_la_commune":"ST AUBIN","libell_d_acheminement":"ST AUBIN","code_postal":"59440","coordonnees_gps":[50.1709642642,3.91201093007],"code_commune_insee":"59529"},"geometry":{"type":"Point","coordinates":[3.91201093007,50.1709642642]},"record_timestamp":"2016-05-09T15:17:00+02:00"},{"datasetid":"laposte_hexasmal","recordid":"70c5bd433a716c8b3e9d59274baf3cc8f5b875b1","fields":{"nom_de_la_commune":"ST AYBERT","libell_d_acheminement":"ST AYBERT","code_postal":"59163","coordonnees_gps":[50.4513178883,3.64979329449],"code_commune_insee":"59530"},"geometry":{"type":"Point","coordinates":[3.64979329449,50.4513178883]},"record_timestamp":"2016-05-09T15:17:00+02:00"},{"datasetid":"laposte_hexasmal","recordid":"0687fbd8ecaa0afe2a2782dc459bb5a251e0d00c","fields":{"nom_de_la_commune":"ST HILAIRE SUR HELPE","libell_d_acheminement":"ST HILAIRE SUR HELPE","code_postal":"59440","coordonnees_gps":[50.1366870157,3.90004713488],"code_commune_insee":"59534"},"geometry":{"type":"Point","coordinates":[3.90004713488,50.1366870157]},"record_timestamp":"2016-05-09T15:17:00+02:00"},{"datasetid":"laposte_hexasmal","recordid":"67fa647b0d1541240373461f1aa1a4138aefdf32","fields":{"nom_de_la_commune":"ST MOMELIN","libell_d_acheminement":"ST MOMELIN","code_postal":"59143","coordonnees_gps":[50.8126413042,2.24135657399],"code_commune_insee":"59538"},"geometry":{"type":"Point","coordinates":[2.24135657399,50.8126413042]},"record_timestamp":"2016-05-09T15:17:00+02:00"},{"datasetid":"laposte_hexasmal","recordid":"ab219d6350bb25ced0ccf099c03ee0d9e669ebd3","fields":{"nom_de_la_commune":"ST PIERRE BROUCK","libell_d_acheminement":"ST PIERRE BROUCK","code_postal":"59630","coordonnees_gps":[50.8950694199,2.19025685455],"code_commune_insee":"59539"},"geometry":{"type":"Point","coordinates":[2.19025685455,50.8950694199]},"record_timestamp":"2016-05-09T15:17:00+02:00"},{"datasetid":"laposte_hexasmal","recordid":"22d0f1c94fb02c13744908b04772ce169ce93963","fields":{"nom_de_la_commune":"SALESCHES","libell_d_acheminement":"SALESCHES","code_postal":"59218","coordonnees_gps":[50.2082539959,3.59623286765],"code_commune_insee":"59549"},"geometry":{"type":"Point","coordinates":[3.59623286765,50.2082539959]},"record_timestamp":"2016-05-09T15:17:00+02:00"},{"datasetid":"laposte_hexasmal","recordid":"d1784da82ac0ec4320368164993780a7b6ff9125","fields":{"nom_de_la_commune":"SAMEON","libell_d_acheminement":"SAMEON","code_postal":"59310","coordonnees_gps":[50.4772545596,3.33248163784],"code_commune_insee":"59551"},"geometry":{"type":"Point","coordinates":[3.33248163784,50.4772545596]},"record_timestamp":"2016-05-09T15:17:00+02:00"},{"datasetid":"laposte_hexasmal","recordid":"3711dcd56d645c6f29a6d7c6dc52f7f41bb1a418","fields":{"nom_de_la_commune":"SANCOURT","libell_d_acheminement":"SANCOURT","code_postal":"59268","coordonnees_gps":[50.2144498638,3.19130962776],"code_commune_insee":"59552"},"geometry":{"type":"Point","coordinates":[3.19130962776,50.2144498638]},"record_timestamp":"2016-05-09T15:17:00+02:00"},{"datasetid":"laposte_hexasmal","recordid":"3a1d6cdc859e3dd97d3702d448a231f6abd8dcff","fields":{"nom_de_la_commune":"SAULTAIN","libell_d_acheminement":"SAULTAIN","code_postal":"59990","coordonnees_gps":[50.335080255,3.58004167583],"code_commune_insee":"59557"},"geometry":{"type":"Point","coordinates":[3.58004167583,50.335080255]},"record_timestamp":"2016-05-09T15:17:00+02:00"},{"datasetid":"laposte_hexasmal","recordid":"1a6c13b8127442da2b2a6e6c028d220cc46d57be","fields":{"nom_de_la_commune":"SEBOURG","libell_d_acheminement":"SEBOURG","code_postal":"59990","coordonnees_gps":[50.3441268565,3.64525979429],"code_commune_insee":"59559"},"geometry":{"type":"Point","coordinates":[3.64525979429,50.3441268565]},"record_timestamp":"2016-05-09T15:17:00+02:00"},{"datasetid":"laposte_hexasmal","recordid":"daeccd99e22baa0952e1f82668d07348362048ab","fields":{"nom_de_la_commune":"SIN LE NOBLE","libell_d_acheminement":"SIN LE NOBLE","code_postal":"59450","coordonnees_gps":[50.3677512577,3.12071297192],"code_commune_insee":"59569"},"geometry":{"type":"Point","coordinates":[3.12071297192,50.3677512577]},"record_timestamp":"2016-05-09T15:17:00+02:00"},{"datasetid":"laposte_hexasmal","recordid":"aed3044df9e97ae61f4ac5084b19fd6ee2c91fd4","fields":{"nom_de_la_commune":"SOCX","libell_d_acheminement":"SOCX","code_postal":"59380","coordonnees_gps":[50.9358655303,2.42417743396],"code_commune_insee":"59570"},"geometry":{"type":"Point","coordinates":[2.42417743396,50.9358655303]},"record_timestamp":"2016-05-09T15:17:00+02:00"},{"datasetid":"laposte_hexasmal","recordid":"660717dd920c3b02b08b20192c1fa72120d53797","fields":{"nom_de_la_commune":"SOLRE LE CHATEAU","libell_d_acheminement":"SOLRE LE CHATEAU","code_postal":"59740","coordonnees_gps":[50.1722246859,4.09630317789],"code_commune_insee":"59572"},"geometry":{"type":"Point","coordinates":[4.09630317789,50.1722246859]},"record_timestamp":"2016-05-09T15:17:00+02:00"},{"datasetid":"laposte_hexasmal","recordid":"5115ec50670b84cef568392a02752b7fe6ed26f9","fields":{"nom_de_la_commune":"ANICHE","libell_d_acheminement":"ANICHE","code_postal":"59580","coordonnees_gps":[50.330855319,3.25574141604],"code_commune_insee":"59008"},"geometry":{"type":"Point","coordinates":[3.25574141604,50.330855319]},"record_timestamp":"2016-05-09T15:17:00+02:00"},{"datasetid":"laposte_hexasmal","recordid":"1a540a77be1e2df1f024c01009cb3f232153b360","fields":{"nom_de_la_commune":"ANSTAING","libell_d_acheminement":"ANSTAING","code_postal":"59152","coordonnees_gps":[50.603523536,3.18920215192],"code_commune_insee":"59013"},"geometry":{"type":"Point","coordinates":[3.18920215192,50.603523536]},"record_timestamp":"2016-05-09T15:17:00+02:00"},{"datasetid":"laposte_hexasmal","recordid":"649f1f7bd17f5a887b66da35c62fa89dbef8fb48","fields":{"nom_de_la_commune":"ANZIN","libell_d_acheminement":"ANZIN","code_postal":"59410","coordonnees_gps":[50.3753643424,3.51113183833],"code_commune_insee":"59014"},"geometry":{"type":"Point","coordinates":[3.51113183833,50.3753643424]},"record_timestamp":"2016-05-09T15:17:00+02:00"},{"datasetid":"laposte_hexasmal","recordid":"20eceaf71cd027707b6aaf4c708712f72252f788","fields":{"nom_de_la_commune":"ARNEKE","libell_d_acheminement":"ARNEKE","code_postal":"59285","coordonnees_gps":[50.8416889858,2.41843292762],"code_commune_insee":"59018"},"geometry":{"type":"Point","coordinates":[2.41843292762,50.8416889858]},"record_timestamp":"2016-05-09T15:17:00+02:00"},{"datasetid":"laposte_hexasmal","recordid":"656b4c0d7639283d59fab4fadfd4c132885b1582","fields":{"nom_de_la_commune":"AUBERCHICOURT","libell_d_acheminement":"AUBERCHICOURT","code_postal":"59165","coordonnees_gps":[50.3299785774,3.22782402703],"code_commune_insee":"59024"},"geometry":{"type":"Point","coordinates":[3.22782402703,50.3299785774]},"record_timestamp":"2016-05-09T15:17:00+02:00"},{"datasetid":"laposte_hexasmal","recordid":"843490995ab2a9a56c8d6e87d470d2785e135f81","fields":{"nom_de_la_commune":"AUDIGNIES","libell_d_acheminement":"AUDIGNIES","code_postal":"59570","coordonnees_gps":[50.2783465062,3.82456125193],"code_commune_insee":"59031"},"geometry":{"type":"Point","coordinates":[3.82456125193,50.2783465062]},"record_timestamp":"2016-05-09T15:17:00+02:00"},{"datasetid":"laposte_hexasmal","recordid":"0460b64d0495ee43aaf9d10c6aa14c5efde11ff7","fields":{"nom_de_la_commune":"AULNOY LEZ VALENCIENNES","libell_d_acheminement":"AULNOY LEZ VALENCIENNES","code_postal":"59300","coordonnees_gps":[50.3261545044,3.53764264287],"code_commune_insee":"59032"},"geometry":{"type":"Point","coordinates":[3.53764264287,50.3261545044]},"record_timestamp":"2016-05-09T15:17:00+02:00"},{"datasetid":"laposte_hexasmal","recordid":"6f8ab4559642dd36d06ec3eec3997a98a642d301","fields":{"nom_de_la_commune":"BACHY","libell_d_acheminement":"BACHY","code_postal":"59830","coordonnees_gps":[50.5435916608,3.26883958433],"code_commune_insee":"59042"},"geometry":{"type":"Point","coordinates":[3.26883958433,50.5435916608]},"record_timestamp":"2016-05-09T15:17:00+02:00"},{"datasetid":"laposte_hexasmal","recordid":"cda1789f7b703a3916ddcdcd74769f389a647302","fields":{"nom_de_la_commune":"BAISIEUX","libell_d_acheminement":"BAISIEUX","code_postal":"59780","coordonnees_gps":[50.6111718868,3.24121907398],"code_commune_insee":"59044"},"geometry":{"type":"Point","coordinates":[3.24121907398,50.6111718868]},"record_timestamp":"2016-05-09T15:17:00+02:00"},{"datasetid":"laposte_hexasmal","recordid":"f7424f2676ad760db10cbf6c7970fc18faee7957","fields":{"nom_de_la_commune":"BANTEUX","libell_d_acheminement":"BANTEUX","code_postal":"59266","coordonnees_gps":[50.0656630113,3.18790046791],"code_commune_insee":"59047"},"geometry":{"type":"Point","coordinates":[3.18790046791,50.0656630113]},"record_timestamp":"2016-05-09T15:17:00+02:00"},{"datasetid":"laposte_hexasmal","recordid":"1bc80f6c8ecbcfa1dbf80ff1d423f268c083038f","fields":{"nom_de_la_commune":"BELLAING","libell_d_acheminement":"BELLAING","code_postal":"59135","coordonnees_gps":[50.3659312022,3.42553238229],"code_commune_insee":"59064"},"geometry":{"type":"Point","coordinates":[3.42553238229,50.3659312022]},"record_timestamp":"2016-05-09T15:17:00+02:00"},{"datasetid":"laposte_hexasmal","recordid":"3568d908b9fce578f20148aacd14fe1210b26196","fields":{"nom_de_la_commune":"BERSILLIES","libell_d_acheminement":"BERSILLIES","code_postal":"59600","coordonnees_gps":[50.3244968872,3.99559417236],"code_commune_insee":"59072"},"geometry":{"type":"Point","coordinates":[3.99559417236,50.3244968872]},"record_timestamp":"2016-05-09T15:17:00+02:00"},{"datasetid":"laposte_hexasmal","recordid":"16ad13336a16a188b36ded20802e68f7545dd385","fields":{"nom_de_la_commune":"BEUVRAGES","libell_d_acheminement":"BEUVRAGES","code_postal":"59192","coordonnees_gps":[50.3883826633,3.50595410504],"code_commune_insee":"59079"},"geometry":{"type":"Point","coordinates":[3.50595410504,50.3883826633]},"record_timestamp":"2016-05-09T15:17:00+02:00"},{"datasetid":"laposte_hexasmal","recordid":"49dc5a5063b754c42c7e61a689ccfa671d347076","fields":{"nom_de_la_commune":"BOESEGHEM","libell_d_acheminement":"BOESEGHEM","code_postal":"59189","coordonnees_gps":[50.6691135946,2.44242706344],"code_commune_insee":"59087"},"geometry":{"type":"Point","coordinates":[2.44242706344,50.6691135946]},"record_timestamp":"2016-05-09T15:17:00+02:00"},{"datasetid":"laposte_hexasmal","recordid":"5a4a2dba7650d12dff9fcda703abb8809d96c820","fields":{"nom_de_la_commune":"BOIS GRENIER","libell_d_acheminement":"BOIS GRENIER","code_postal":"59280","coordonnees_gps":[50.6487129112,2.87274435291],"code_commune_insee":"59088"},"geometry":{"type":"Point","coordinates":[2.87274435291,50.6487129112]},"record_timestamp":"2016-05-09T15:17:00+02:00"},{"datasetid":"laposte_hexasmal","recordid":"1ae53c8e72c8bb6d9f294d48d4d79ab5074bb9c1","fields":{"nom_de_la_commune":"BOURGHELLES","libell_d_acheminement":"BOURGHELLES","code_postal":"59830","coordonnees_gps":[50.5637205192,3.24739149692],"code_commune_insee":"59096"},"geometry":{"type":"Point","coordinates":[3.24739149692,50.5637205192]},"record_timestamp":"2016-05-09T15:17:00+02:00"},{"datasetid":"laposte_hexasmal","recordid":"900d33b6fa37f4b53d9ef396b0dd2523fc761015","fields":{"nom_de_la_commune":"BOUSIGNIES SUR ROC","libell_d_acheminement":"BOUSIGNIES SUR ROC","code_postal":"59149","coordonnees_gps":[50.2638826677,4.18728654005],"code_commune_insee":"59101"},"geometry":{"type":"Point","coordinates":[4.18728654005,50.2638826677]},"record_timestamp":"2016-05-09T15:17:00+02:00"},{"datasetid":"laposte_hexasmal","recordid":"d7891f86426ff5775d131d5af041dd7f569c1b40","fields":{"nom_de_la_commune":"BOUSSOIS","libell_d_acheminement":"BOUSSOIS","code_postal":"59168","coordonnees_gps":[50.2948725712,4.04711513653],"code_commune_insee":"59104"},"geometry":{"type":"Point","coordinates":[4.04711513653,50.2948725712]},"record_timestamp":"2016-05-09T15:17:00+02:00"},{"datasetid":"laposte_hexasmal","recordid":"da313fe9463ba2e9ed3fbefda45a50c079635230","fields":{"nom_de_la_commune":"BROUCKERQUE","libell_d_acheminement":"BROUCKERQUE","code_postal":"59630","coordonnees_gps":[50.9515630712,2.28707334994],"code_commune_insee":"59110"},"geometry":{"type":"Point","coordinates":[2.28707334994,50.9515630712]},"record_timestamp":"2016-05-09T15:17:00+02:00"},{"datasetid":"laposte_hexasmal","recordid":"e744b3ce01730f3864301afa2e80f8b3ccabca02","fields":{"nom_de_la_commune":"BUGNICOURT","libell_d_acheminement":"BUGNICOURT","code_postal":"59151","coordonnees_gps":[50.2910659273,3.15468753018],"code_commune_insee":"59117"},"geometry":{"type":"Point","coordinates":[3.15468753018,50.2910659273]},"record_timestamp":"2016-05-09T15:17:00+02:00"},{"datasetid":"laposte_hexasmal","recordid":"5b7467d6129d387ce8efb2eaa2f880a1befd8509","fields":{"nom_de_la_commune":"BUSIGNY","libell_d_acheminement":"BUSIGNY","code_postal":"59137","coordonnees_gps":[50.0375979868,3.46602965443],"code_commune_insee":"59118"},"geometry":{"type":"Point","coordinates":[3.46602965443,50.0375979868]},"record_timestamp":"2016-05-09T15:17:00+02:00"},{"datasetid":"laposte_hexasmal","recordid":"919cb6e3dc8d4df2dc6d403ed2ef9911da807f0e","fields":{"code_postal":"59400","code_commune_insee":"59122","libell_d_acheminement":"CAMBRAI","ligne_5":"MORENCHIES","nom_de_la_commune":"CAMBRAI","coordonnees_gps":[50.1702775977,3.24221021072]},"geometry":{"type":"Point","coordinates":[3.24221021072,50.1702775977]},"record_timestamp":"2016-05-09T15:17:00+02:00"},{"datasetid":"laposte_hexasmal","recordid":"76ff960e564b7f2a1479be8fa772b67b2ae96d81","fields":{"nom_de_la_commune":"CAMPHIN EN CAREMBAULT","libell_d_acheminement":"CAMPHIN EN CAREMBAULT","code_postal":"59133","coordonnees_gps":[50.5106436194,2.99165906644],"code_commune_insee":"59123"},"geometry":{"type":"Point","coordinates":[2.99165906644,50.5106436194]},"record_timestamp":"2016-05-09T15:17:00+02:00"},{"datasetid":"laposte_hexasmal","recordid":"fdaf4468de58037fcfa2e0e4071bc355d6ccda20","fields":{"nom_de_la_commune":"CANTAING SUR ESCAUT","libell_d_acheminement":"CANTAING SUR ESCAUT","code_postal":"59267","coordonnees_gps":[50.1451657481,3.15708777258],"code_commune_insee":"59125"},"geometry":{"type":"Point","coordinates":[3.15708777258,50.1451657481]},"record_timestamp":"2016-05-09T15:17:00+02:00"},{"datasetid":"laposte_hexasmal","recordid":"ff727bf600e8c56af46d7c0064b0077ab07bf70e","fields":{"nom_de_la_commune":"CHERENG","libell_d_acheminement":"CHERENG","code_postal":"59152","coordonnees_gps":[50.6108890768,3.20972154636],"code_commune_insee":"59146"},"geometry":{"type":"Point","coordinates":[3.20972154636,50.6108890768]},"record_timestamp":"2016-05-09T15:17:00+02:00"},{"datasetid":"laposte_hexasmal","recordid":"6ddee5ed195675a75db750a59414c5a0818afde5","fields":{"nom_de_la_commune":"CHOISIES","libell_d_acheminement":"CHOISIES","code_postal":"59740","coordonnees_gps":[50.212677337,4.04878255804],"code_commune_insee":"59147"},"geometry":{"type":"Point","coordinates":[4.04878255804,50.212677337]},"record_timestamp":"2016-05-09T15:17:00+02:00"},{"datasetid":"laposte_hexasmal","recordid":"ac3879b81b3ec3c30e71c241de9ae97632dc3b51","fields":{"nom_de_la_commune":"CLAIRFAYTS","libell_d_acheminement":"CLAIRFAYTS","code_postal":"59740","coordonnees_gps":[50.1564472386,4.12464922424],"code_commune_insee":"59148"},"geometry":{"type":"Point","coordinates":[4.12464922424,50.1564472386]},"record_timestamp":"2016-05-09T15:17:00+02:00"},{"datasetid":"laposte_hexasmal","recordid":"2aa024e9e1292be9705c5963c8bad105e4b10ea7","fields":{"nom_de_la_commune":"COMINES","libell_d_acheminement":"COMINES","code_postal":"59560","coordonnees_gps":[50.7497420422,3.01679477405],"code_commune_insee":"59152"},"geometry":{"type":"Point","coordinates":[3.01679477405,50.7497420422]},"record_timestamp":"2016-05-09T15:17:00+02:00"},{"datasetid":"laposte_hexasmal","recordid":"d11a616f1caa05a1c20a537d2415c9b98d26cf44","fields":{"nom_de_la_commune":"CRAYWICK","libell_d_acheminement":"CRAYWICK","code_postal":"59279","coordonnees_gps":[50.9726285741,2.22142508421],"code_commune_insee":"59159"},"geometry":{"type":"Point","coordinates":[2.22142508421,50.9726285741]},"record_timestamp":"2016-05-09T15:17:00+02:00"},{"datasetid":"laposte_hexasmal","recordid":"58624d52ee6f95b6666ddb7a526e4e4ed93e24fa","fields":{"nom_de_la_commune":"DEULEMONT","libell_d_acheminement":"DEULEMONT","code_postal":"59890","coordonnees_gps":[50.7280171454,2.96967815507],"code_commune_insee":"59173"},"geometry":{"type":"Point","coordinates":[2.96967815507,50.7280171454]},"record_timestamp":"2016-05-09T15:17:00+02:00"},{"datasetid":"laposte_hexasmal","recordid":"1f4f1dce46eb91a7563576f0946a996810a0464f","fields":{"code_postal":"59500","code_commune_insee":"59178","libell_d_acheminement":"DOUAI","ligne_5":"FRAIS MARAIS","nom_de_la_commune":"DOUAI","coordonnees_gps":[50.3823195335,3.09145683114]},"geometry":{"type":"Point","coordinates":[3.09145683114,50.3823195335]},"record_timestamp":"2016-05-09T15:17:00+02:00"},{"datasetid":"laposte_hexasmal","recordid":"756d054bb808e150c15a13a5deee3025acf83dec","fields":{"nom_de_la_commune":"LE DOULIEU","libell_d_acheminement":"LE DOULIEU","code_postal":"59940","coordonnees_gps":[50.6800093864,2.69977444114],"code_commune_insee":"59180"},"geometry":{"type":"Point","coordinates":[2.69977444114,50.6800093864]},"record_timestamp":"2016-05-09T15:17:00+02:00"},{"datasetid":"laposte_hexasmal","recordid":"6789e012186f314f4195fe765aedc5ad42584f94","fields":{"nom_de_la_commune":"EECKE","libell_d_acheminement":"EECKE","code_postal":"59114","coordonnees_gps":[50.7800648549,2.59723080781],"code_commune_insee":"59189"},"geometry":{"type":"Point","coordinates":[2.59723080781,50.7800648549]},"record_timestamp":"2016-05-09T15:17:00+02:00"},{"datasetid":"laposte_hexasmal","recordid":"43fa79ecfc943db3f83e2206ac393e30793d29c5","fields":{"nom_de_la_commune":"ELESMES","libell_d_acheminement":"ELESMES","code_postal":"59600","coordonnees_gps":[50.3048578036,4.01140019092],"code_commune_insee":"59190"},"geometry":{"type":"Point","coordinates":[4.01140019092,50.3048578036]},"record_timestamp":"2016-05-09T15:17:00+02:00"},{"datasetid":"laposte_hexasmal","recordid":"07a39de3b21f8044634b363a0331d4dfb971b5e7","fields":{"nom_de_la_commune":"ENNETIERES EN WEPPES","libell_d_acheminement":"ENNETIERES EN WEPPES","code_postal":"59320","coordonnees_gps":[50.640484704,2.93312247961],"code_commune_insee":"59196"},"geometry":{"type":"Point","coordinates":[2.93312247961,50.640484704]},"record_timestamp":"2016-05-09T15:17:00+02:00"},{"datasetid":"laposte_hexasmal","recordid":"71b979acdbbd83c90effedb7b7ce8a286932aae6","fields":{"nom_de_la_commune":"ESCARMAIN","libell_d_acheminement":"ESCARMAIN","code_postal":"59213","coordonnees_gps":[50.2236333668,3.54874778179],"code_commune_insee":"59204"},"geometry":{"type":"Point","coordinates":[3.54874778179,50.2236333668]},"record_timestamp":"2016-05-09T15:17:00+02:00"},{"datasetid":"laposte_hexasmal","recordid":"731208d380024692c83d2a93926c782edad6a6fe","fields":{"nom_de_la_commune":"ESTREUX","libell_d_acheminement":"ESTREUX","code_postal":"59990","coordonnees_gps":[50.3527239271,3.60184515387],"code_commune_insee":"59215"},"geometry":{"type":"Point","coordinates":[3.60184515387,50.3527239271]},"record_timestamp":"2016-05-09T15:17:00+02:00"},{"datasetid":"laposte_hexasmal","recordid":"7dd00bb6c2dd6b45b5dd7e6c4a5d5e728c05a946","fields":{"nom_de_la_commune":"FECHAIN","libell_d_acheminement":"FECHAIN","code_postal":"59247","coordonnees_gps":[50.268615561,3.212900112],"code_commune_insee":"59224"},"geometry":{"type":"Point","coordinates":[3.212900112,50.268615561]},"record_timestamp":"2016-05-09T15:17:00+02:00"},{"datasetid":"laposte_hexasmal","recordid":"2276397d54a94ef3f9e965c4602f56ad58bd766f","fields":{"nom_de_la_commune":"FENAIN","libell_d_acheminement":"FENAIN","code_postal":"59179","coordonnees_gps":[50.3681590708,3.30010560597],"code_commune_insee":"59227"},"geometry":{"type":"Point","coordinates":[3.30010560597,50.3681590708]},"record_timestamp":"2016-05-09T15:17:00+02:00"},{"datasetid":"laposte_hexasmal","recordid":"4e0052816d6129d13e339e3242248f6c1a9880cc","fields":{"nom_de_la_commune":"FLAUMONT WAUDRECHIES","libell_d_acheminement":"FLAUMONT WAUDRECHIES","code_postal":"59440","coordonnees_gps":[50.1311318318,3.96984931969],"code_commune_insee":"59233"},"geometry":{"type":"Point","coordinates":[3.96984931969,50.1311318318]},"record_timestamp":"2016-05-09T15:17:00+02:00"},{"datasetid":"laposte_hexasmal","recordid":"9b73bd6dedbf56b964d13c11376263df68ba9fb3","fields":{"nom_de_la_commune":"FRETIN","libell_d_acheminement":"FRETIN","code_postal":"59273","coordonnees_gps":[50.5653657611,3.1322045776],"code_commune_insee":"59256"},"geometry":{"type":"Point","coordinates":[3.1322045776,50.5653657611]},"record_timestamp":"2016-05-09T15:17:00+02:00"},{"datasetid":"laposte_hexasmal","recordid":"81e59841ccc1db03ac76038b96b1bf29fc3a1fd3","fields":{"nom_de_la_commune":"FROMELLES","libell_d_acheminement":"FROMELLES","code_postal":"59249","coordonnees_gps":[50.6109686203,2.85464946616],"code_commune_insee":"59257"},"geometry":{"type":"Point","coordinates":[2.85464946616,50.6109686203]},"record_timestamp":"2016-05-09T15:17:00+02:00"},{"datasetid":"laposte_hexasmal","recordid":"d3d167c2f97cb0be9e31aecd2704fc1a5c2467d3","fields":{"nom_de_la_commune":"GHYVELDE","libell_d_acheminement":"GHYVELDE","code_postal":"59254","coordonnees_gps":[51.0486014481,2.51379722419],"code_commune_insee":"59260"},"geometry":{"type":"Point","coordinates":[2.51379722419,51.0486014481]},"record_timestamp":"2016-05-09T15:17:00+02:00"},{"datasetid":"laposte_hexasmal","recordid":"f2f9f1cfce2e35d06450b2de7f4b429cef0eef93","fields":{"nom_de_la_commune":"GODEWAERSVELDE","libell_d_acheminement":"GODEWAERSVELDE","code_postal":"59270","coordonnees_gps":[50.7950511501,2.6455520339],"code_commune_insee":"59262"},"geometry":{"type":"Point","coordinates":[2.6455520339,50.7950511501]},"record_timestamp":"2016-05-09T15:17:00+02:00"},{"datasetid":"laposte_hexasmal","recordid":"397f4a0c0b46bfa05bee41691569aed8f754b1b8","fields":{"nom_de_la_commune":"GRAND FAYT","libell_d_acheminement":"GRAND FAYT","code_postal":"59244","coordonnees_gps":[50.1123607999,3.79567600764],"code_commune_insee":"59270"},"geometry":{"type":"Point","coordinates":[3.79567600764,50.1123607999]},"record_timestamp":"2016-05-09T15:17:00+02:00"},{"datasetid":"laposte_hexasmal","recordid":"22a142710604f971ddab645878455c37fc728f79","fields":{"nom_de_la_commune":"GRAVELINES","libell_d_acheminement":"GRAVELINES","code_postal":"59820","coordonnees_gps":[50.9975626638,2.14413046485],"code_commune_insee":"59273"},"geometry":{"type":"Point","coordinates":[2.14413046485,50.9975626638]},"record_timestamp":"2016-05-09T15:17:00+02:00"},{"datasetid":"laposte_hexasmal","recordid":"ca0cc1e21cbda5fc489c037b0b1ee3dfd7413dd2","fields":{"nom_de_la_commune":"GUSSIGNIES","libell_d_acheminement":"GUSSIGNIES","code_postal":"59570","coordonnees_gps":[50.3405832772,3.74998509899],"code_commune_insee":"59277"},"geometry":{"type":"Point","coordinates":[3.74998509899,50.3405832772]},"record_timestamp":"2016-05-09T15:17:00+02:00"},{"datasetid":"laposte_hexasmal","recordid":"78e62a14ae7eecf2d0e6ceaf96825760346de637","fields":{"nom_de_la_commune":"HASPRES","libell_d_acheminement":"HASPRES","code_postal":"59198","coordonnees_gps":[50.2650877152,3.41176296658],"code_commune_insee":"59285"},"geometry":{"type":"Point","coordinates":[3.41176296658,50.2650877152]},"record_timestamp":"2016-05-09T15:17:00+02:00"},{"datasetid":"laposte_hexasmal","recordid":"4b0325e1864af1699a700b104d9541bfef008f9a","fields":{"nom_de_la_commune":"HAYNECOURT","libell_d_acheminement":"HAYNECOURT","code_postal":"59268","coordonnees_gps":[50.2094536408,3.15541640096],"code_commune_insee":"59294"},"geometry":{"type":"Point","coordinates":[3.15541640096,50.2094536408]},"record_timestamp":"2016-05-09T15:17:00+02:00"},{"datasetid":"laposte_hexasmal","recordid":"f8e761e684be84131bcb8da7c44a5d4fa306a122","fields":{"nom_de_la_commune":"HELESMES","libell_d_acheminement":"HELESMES","code_postal":"59171","coordonnees_gps":[50.3677526981,3.35840586833],"code_commune_insee":"59297"},"geometry":{"type":"Point","coordinates":[3.35840586833,50.3677526981]},"record_timestamp":"2016-05-09T15:17:00+02:00"},{"datasetid":"laposte_hexasmal","recordid":"79e299c3a22f8433650fd6cdcbdefbb6df9e7c64","fields":{"nom_de_la_commune":"HEM","libell_d_acheminement":"HEM","code_postal":"59510","coordonnees_gps":[50.6548049456,3.19305632608],"code_commune_insee":"59299"},"geometry":{"type":"Point","coordinates":[3.19305632608,50.6548049456]},"record_timestamp":"2016-05-09T15:17:00+02:00"},{"datasetid":"laposte_hexasmal","recordid":"2e2cdb8aa77305e03f8d044617d04aa6d20ae23d","fields":{"nom_de_la_commune":"HERLIES","libell_d_acheminement":"HERLIES","code_postal":"59134","coordonnees_gps":[50.5816535581,2.8531853808],"code_commune_insee":"59303"},"geometry":{"type":"Point","coordinates":[2.8531853808,50.5816535581]},"record_timestamp":"2016-05-09T15:17:00+02:00"},{"datasetid":"laposte_hexasmal","recordid":"686a6d6224bd7c8503d4dbcd6a7a3ffa41ed1db7","fields":{"nom_de_la_commune":"HOLQUE","libell_d_acheminement":"HOLQUE","code_postal":"59143","coordonnees_gps":[50.856500023,2.2050645429],"code_commune_insee":"59307"},"geometry":{"type":"Point","coordinates":[2.2050645429,50.856500023]},"record_timestamp":"2016-05-09T15:17:00+02:00"},{"datasetid":"laposte_hexasmal","recordid":"1af6e36595117c203465c67d0ac3bb18a7aa1190","fields":{"nom_de_la_commune":"HONDSCHOOTE","libell_d_acheminement":"HONDSCHOOTE","code_postal":"59122","coordonnees_gps":[50.971669311,2.58828514944],"code_commune_insee":"59309"},"geometry":{"type":"Point","coordinates":[2.58828514944,50.971669311]},"record_timestamp":"2016-05-09T15:17:00+02:00"},{"datasetid":"laposte_hexasmal","recordid":"c33afe9f298c17552937d1da14bbe641d687f3c7","fields":{"nom_de_la_commune":"HORDAIN","libell_d_acheminement":"HORDAIN","code_postal":"59111","coordonnees_gps":[50.2597936195,3.32675271349],"code_commune_insee":"59313"},"geometry":{"type":"Point","coordinates":[3.32675271349,50.2597936195]},"record_timestamp":"2016-05-09T15:17:00+02:00"},{"datasetid":"laposte_hexasmal","recordid":"7ed9a68668991151d97bd1150a682c44d62553ad","fields":{"nom_de_la_commune":"HORNAING","libell_d_acheminement":"HORNAING","code_postal":"59171","coordonnees_gps":[50.3696239428,3.33594044996],"code_commune_insee":"59314"},"geometry":{"type":"Point","coordinates":[3.33594044996,50.3696239428]},"record_timestamp":"2016-05-09T15:17:00+02:00"},{"datasetid":"laposte_hexasmal","recordid":"289a3e6c6914b9a564ff5c4de1ba0d3fcdcfcc7d","fields":{"nom_de_la_commune":"ILLIES","libell_d_acheminement":"ILLIES","code_postal":"59480","coordonnees_gps":[50.5626769272,2.82845132596],"code_commune_insee":"59320"},"geometry":{"type":"Point","coordinates":[2.82845132596,50.5626769272]},"record_timestamp":"2016-05-09T15:17:00+02:00"},{"datasetid":"laposte_hexasmal","recordid":"4df7760c0f9e812d6e3fcaa8397aa396c729d064","fields":{"nom_de_la_commune":"INCHY","libell_d_acheminement":"INCHY","code_postal":"59540","coordonnees_gps":[50.1219699248,3.47168074868],"code_commune_insee":"59321"},"geometry":{"type":"Point","coordinates":[3.47168074868,50.1219699248]},"record_timestamp":"2016-05-09T15:17:00+02:00"},{"datasetid":"laposte_hexasmal","recordid":"529ba3e1562f801aff6be70f48959640e0d5b48b","fields":{"nom_de_la_commune":"KILLEM","libell_d_acheminement":"KILLEM","code_postal":"59122","coordonnees_gps":[50.9575597067,2.55978032528],"code_commune_insee":"59326"},"geometry":{"type":"Point","coordinates":[2.55978032528,50.9575597067]},"record_timestamp":"2016-05-09T15:17:00+02:00"},{"datasetid":"laposte_hexasmal","recordid":"4b44c855c7989b3c9a18df26aaa9be736b599279","fields":{"nom_de_la_commune":"LALLAING","libell_d_acheminement":"LALLAING","code_postal":"59167","coordonnees_gps":[50.3864016974,3.16880269409],"code_commune_insee":"59327"},"geometry":{"type":"Point","coordinates":[3.16880269409,50.3864016974]},"record_timestamp":"2016-05-09T15:17:00+02:00"},{"datasetid":"laposte_hexasmal","recordid":"467d31af7e86c667f44e7d9863d35517facf44e0","fields":{"nom_de_la_commune":"LANDAS","libell_d_acheminement":"LANDAS","code_postal":"59310","coordonnees_gps":[50.4726958028,3.29518086014],"code_commune_insee":"59330"},"geometry":{"type":"Point","coordinates":[3.29518086014,50.4726958028]},"record_timestamp":"2016-05-09T15:17:00+02:00"},{"datasetid":"laposte_hexasmal","recordid":"4174fd151d3307dcbe80340033812d487d6a06d5","fields":{"nom_de_la_commune":"LANNOY","libell_d_acheminement":"LANNOY","code_postal":"59390","coordonnees_gps":[50.666027423,3.21037021622],"code_commune_insee":"59332"},"geometry":{"type":"Point","coordinates":[3.21037021622,50.666027423]},"record_timestamp":"2016-05-09T15:17:00+02:00"},{"datasetid":"laposte_hexasmal","recordid":"27a77c8fccad3faa6afa8fd9755801de3a209f1e","fields":{"nom_de_la_commune":"LEZ FONTAINE","libell_d_acheminement":"LEZ FONTAINE","code_postal":"59740","coordonnees_gps":[50.1733832806,4.06309065769],"code_commune_insee":"59342"},"geometry":{"type":"Point","coordinates":[4.06309065769,50.1733832806]},"record_timestamp":"2016-05-09T15:17:00+02:00"},{"datasetid":"laposte_hexasmal","recordid":"74629d33a96e240e4a9741bbf196e6c0ba8493de","fields":{"nom_de_la_commune":"LEVAL","libell_d_acheminement":"LEVAL","code_postal":"59620","coordonnees_gps":[50.180651266,3.83355819928],"code_commune_insee":"59344"},"geometry":{"type":"Point","coordinates":[3.83355819928,50.180651266]},"record_timestamp":"2016-05-09T15:17:00+02:00"},{"datasetid":"laposte_hexasmal","recordid":"ab9a75249bb4bcedc94a03bc4e592aadfb3b44e5","fields":{"nom_de_la_commune":"LEWARDE","libell_d_acheminement":"LEWARDE","code_postal":"59287","coordonnees_gps":[50.3367323265,3.16865198714],"code_commune_insee":"59345"},"geometry":{"type":"Point","coordinates":[3.16865198714,50.3367323265]},"record_timestamp":"2016-05-09T15:17:00+02:00"},{"datasetid":"laposte_hexasmal","recordid":"ae21374fbed0eecdf1a8ccfa4a74ee373ebfca47","fields":{"nom_de_la_commune":"LEZENNES","libell_d_acheminement":"LEZENNES","code_postal":"59260","coordonnees_gps":[50.6111691928,3.11824226491],"code_commune_insee":"59346"},"geometry":{"type":"Point","coordinates":[3.11824226491,50.6111691928]},"record_timestamp":"2016-05-09T15:17:00+02:00"},{"datasetid":"laposte_hexasmal","recordid":"5cb4f43febf050a75fa34eaa4693367fa0b989f0","fields":{"nom_de_la_commune":"LILLE","libell_d_acheminement":"LILLE","code_postal":"59000","coordonnees_gps":[50.6317183168,3.04783272312],"code_commune_insee":"59350"},"geometry":{"type":"Point","coordinates":[3.04783272312,50.6317183168]},"record_timestamp":"2016-05-09T15:17:00+02:00"},{"datasetid":"laposte_hexasmal","recordid":"c4a3ef9b2970b5d51711a3c4e656d383d58a783d","fields":{"code_postal":"59777","code_commune_insee":"59350","libell_d_acheminement":"LILLE","ligne_5":"EURALILLE","nom_de_la_commune":"LILLE","coordonnees_gps":[50.6317183168,3.04783272312]},"geometry":{"type":"Point","coordinates":[3.04783272312,50.6317183168]},"record_timestamp":"2016-05-09T15:17:00+02:00"},{"datasetid":"laposte_hexasmal","recordid":"2496249134e23565784c992b0fe919fd63912797","fields":{"nom_de_la_commune":"LOMPRET","libell_d_acheminement":"LOMPRET","code_postal":"59840","coordonnees_gps":[50.6631680443,2.99516100327],"code_commune_insee":"59356"},"geometry":{"type":"Point","coordinates":[2.99516100327,50.6631680443]},"record_timestamp":"2016-05-09T15:17:00+02:00"},{"datasetid":"laposte_hexasmal","recordid":"756a251ea0cff02734f7530d2fbc8372bd3f7b85","fields":{"nom_de_la_commune":"LOUVIGNIES QUESNOY","libell_d_acheminement":"LOUVIGNIES QUESNOY","code_postal":"59530","coordonnees_gps":[50.2165903097,3.64008191069],"code_commune_insee":"59363"},"geometry":{"type":"Point","coordinates":[3.64008191069,50.2165903097]},"record_timestamp":"2016-05-09T15:17:00+02:00"},{"datasetid":"laposte_hexasmal","recordid":"7f6674bb5c9326880fc07c846a68634d2536fac9","fields":{"nom_de_la_commune":"LYS LEZ LANNOY","libell_d_acheminement":"LYS LEZ LANNOY","code_postal":"59390","coordonnees_gps":[50.6721775091,3.2172382556],"code_commune_insee":"59367"},"geometry":{"type":"Point","coordinates":[3.2172382556,50.6721775091]},"record_timestamp":"2016-05-09T15:17:00+02:00"},{"datasetid":"laposte_hexasmal","recordid":"a469b958007bc26f75eac06aed8a6c87fee7c437","fields":{"nom_de_la_commune":"MARBAIX","libell_d_acheminement":"MARBAIX","code_postal":"59440","coordonnees_gps":[50.1280580168,3.83650655237],"code_commune_insee":"59374"},"geometry":{"type":"Point","coordinates":[3.83650655237,50.1280580168]},"record_timestamp":"2016-05-09T15:17:00+02:00"},{"datasetid":"laposte_hexasmal","recordid":"e1c2e0d85eb98f1a6791f0a8fd3a4aabc3b94a12","fields":{"nom_de_la_commune":"MARCOING","libell_d_acheminement":"MARCOING","code_postal":"59159","coordonnees_gps":[50.1144749853,3.17343200113],"code_commune_insee":"59377"},"geometry":{"type":"Point","coordinates":[3.17343200113,50.1144749853]},"record_timestamp":"2016-05-09T15:17:00+02:00"},{"datasetid":"laposte_hexasmal","recordid":"4b8495e2e7af60d8d6c7a1f2ec254341d02ec35f","fields":{"nom_de_la_commune":"MARCQ EN BAROEUL","libell_d_acheminement":"MARCQ EN BAROEUL","code_postal":"59700","coordonnees_gps":[50.6753348557,3.10093583816],"code_commune_insee":"59378"},"geometry":{"type":"Point","coordinates":[3.10093583816,50.6753348557]},"record_timestamp":"2016-05-09T15:17:00+02:00"},{"datasetid":"laposte_hexasmal","recordid":"ace852dc1b78628e57720f0e61abd86336bbc08b","fields":{"nom_de_la_commune":"MARLY","libell_d_acheminement":"MARLY","code_postal":"59770","coordonnees_gps":[50.3452442077,3.55000999792],"code_commune_insee":"59383"},"geometry":{"type":"Point","coordinates":[3.55000999792,50.3452442077]},"record_timestamp":"2016-05-09T15:17:00+02:00"},{"datasetid":"laposte_hexasmal","recordid":"94aacc04ccb80111286578682030c39b0d416c83","fields":{"nom_de_la_commune":"MASNIERES","libell_d_acheminement":"MASNIERES","code_postal":"59241","coordonnees_gps":[50.104659247,3.20208772877],"code_commune_insee":"59389"},"geometry":{"type":"Point","coordinates":[3.20208772877,50.104659247]},"record_timestamp":"2016-05-09T15:17:00+02:00"},{"datasetid":"laposte_hexasmal","recordid":"76208fa865f76a47d3f12e8b8ec78e9b47f95f9c","fields":{"nom_de_la_commune":"MECQUIGNIES","libell_d_acheminement":"MECQUIGNIES","code_postal":"59570","coordonnees_gps":[50.2704309321,3.80248207777],"code_commune_insee":"59396"},"geometry":{"type":"Point","coordinates":[3.80248207777,50.2704309321]},"record_timestamp":"2016-05-09T15:17:00+02:00"},{"datasetid":"laposte_hexasmal","recordid":"231012bb8b7ea363aec040f35d3f349d9d6ae8e8","fields":{"nom_de_la_commune":"MONS EN PEVELE","libell_d_acheminement":"MONS EN PEVELE","code_postal":"59246","coordonnees_gps":[50.4819644352,3.10317921728],"code_commune_insee":"59411"},"geometry":{"type":"Point","coordinates":[3.10317921728,50.4819644352]},"record_timestamp":"2016-05-09T15:17:00+02:00"},{"datasetid":"laposte_hexasmal","recordid":"b705f3fc1dcbde610127a37bcff7f37ed84407cb","fields":{"nom_de_la_commune":"MONTAY","libell_d_acheminement":"MONTAY","code_postal":"59360","coordonnees_gps":[50.1222064074,3.53460777852],"code_commune_insee":"59412"},"geometry":{"type":"Point","coordinates":[3.53460777852,50.1222064074]},"record_timestamp":"2016-05-09T15:17:00+02:00"},{"datasetid":"laposte_hexasmal","recordid":"e1cd4c5385d0d5407b2c61bf96faf3657535b6e2","fields":{"nom_de_la_commune":"MONTIGNY EN CAMBRESIS","libell_d_acheminement":"MONTIGNY EN CAMBRESIS","code_postal":"59225","coordonnees_gps":[50.0910970595,3.41429656763],"code_commune_insee":"59413"},"geometry":{"type":"Point","coordinates":[3.41429656763,50.0910970595]},"record_timestamp":"2016-05-09T15:17:00+02:00"},{"datasetid":"laposte_hexasmal","recordid":"a43440a183cb521d4894c2c9fe71f80aeb97aabf","fields":{"nom_de_la_commune":"MONTIGNY EN OSTREVENT","libell_d_acheminement":"MONTIGNY EN OSTREVENT","code_postal":"59182","coordonnees_gps":[50.3682405226,3.18011986506],"code_commune_insee":"59414"},"geometry":{"type":"Point","coordinates":[3.18011986506,50.3682405226]},"record_timestamp":"2016-05-09T15:17:00+02:00"},{"datasetid":"laposte_hexasmal","recordid":"fc74a0815ec0098d6517aacad2d419ee64a802ea","fields":{"nom_de_la_commune":"MORBECQUE","libell_d_acheminement":"MORBECQUE","code_postal":"59190","coordonnees_gps":[50.6768934286,2.53621614433],"code_commune_insee":"59416"},"geometry":{"type":"Point","coordinates":[2.53621614433,50.6768934286]},"record_timestamp":"2016-05-09T15:17:00+02:00"},{"datasetid":"laposte_hexasmal","recordid":"8e2ebeeac34817fdbd5b08965d48c178a547e353","fields":{"nom_de_la_commune":"MORTAGNE DU NORD","libell_d_acheminement":"MORTAGNE DU NORD","code_postal":"59158","coordonnees_gps":[50.5001515803,3.45327380801],"code_commune_insee":"59418"},"geometry":{"type":"Point","coordinates":[3.45327380801,50.5001515803]},"record_timestamp":"2016-05-09T15:17:00+02:00"},{"datasetid":"laposte_hexasmal","recordid":"b09fbb9147addc33ebc809a5e90910400ef646a4","fields":{"nom_de_la_commune":"NAVES","libell_d_acheminement":"NAVES","code_postal":"59161","coordonnees_gps":[50.2033732531,3.31732755418],"code_commune_insee":"59422"},"geometry":{"type":"Point","coordinates":[3.31732755418,50.2033732531]},"record_timestamp":"2016-05-09T15:17:00+02:00"},{"datasetid":"laposte_hexasmal","recordid":"618d4e231c70c195f8629779f0418f5659e41c64","fields":{"nom_de_la_commune":"NEUVILLE SUR ESCAUT","libell_d_acheminement":"NEUVILLE SUR ESCAUT","code_postal":"59293","coordonnees_gps":[50.2905014388,3.35160622721],"code_commune_insee":"59429"},"geometry":{"type":"Point","coordinates":[3.35160622721,50.2905014388]},"record_timestamp":"2016-05-09T15:17:00+02:00"},{"datasetid":"laposte_hexasmal","recordid":"62f2693841b80dd35c8ad4bc8411e7736102b186","fields":{"nom_de_la_commune":"NIEURLET","libell_d_acheminement":"NIEURLET","code_postal":"59143","coordonnees_gps":[50.7949144222,2.27990645597],"code_commune_insee":"59433"},"geometry":{"type":"Point","coordinates":[2.27990645597,50.7949144222]},"record_timestamp":"2016-05-09T15:17:00+02:00"},{"datasetid":"laposte_hexasmal","recordid":"5b0a9f8f10ec83f20157061cf702890e684246fa","fields":{"nom_de_la_commune":"NIVELLE","libell_d_acheminement":"NIVELLE","code_postal":"59230","coordonnees_gps":[50.4681563003,3.46013569739],"code_commune_insee":"59434"},"geometry":{"type":"Point","coordinates":[3.46013569739,50.4681563003]},"record_timestamp":"2016-05-09T15:17:00+02:00"},{"datasetid":"laposte_hexasmal","recordid":"bcdf9ada343297168b0db9bc2aea43fe9a7b157f","fields":{"nom_de_la_commune":"OOST CAPPEL","libell_d_acheminement":"OOST CAPPEL","code_postal":"59122","coordonnees_gps":[50.9297498837,2.58933450299],"code_commune_insee":"59448"},"geometry":{"type":"Point","coordinates":[2.58933450299,50.9297498837]},"record_timestamp":"2016-05-09T15:17:00+02:00"},{"datasetid":"laposte_hexasmal","recordid":"ecde17fa53d0310c4f3bb2f936f1bf53b4c7ba2e","fields":{"nom_de_la_commune":"ORS","libell_d_acheminement":"ORS","code_postal":"59360","coordonnees_gps":[50.1050821078,3.6311053836],"code_commune_insee":"59450"},"geometry":{"type":"Point","coordinates":[3.6311053836,50.1050821078]},"record_timestamp":"2016-05-09T15:17:00+02:00"},{"datasetid":"laposte_hexasmal","recordid":"d21eeeafee93d48b8b64bc41e3f7ab438e8d81b8","fields":{"nom_de_la_commune":"PECQUENCOURT","libell_d_acheminement":"PECQUENCOURT","code_postal":"59146","coordonnees_gps":[50.3763502504,3.21867627513],"code_commune_insee":"59456"},"geometry":{"type":"Point","coordinates":[3.21867627513,50.3763502504]},"record_timestamp":"2016-05-09T15:17:00+02:00"},{"datasetid":"laposte_hexasmal","recordid":"4836255d9213ef0ed888b7a27613bb3b152d4c64","fields":{"nom_de_la_commune":"PETITE FORET","libell_d_acheminement":"PETITE FORET","code_postal":"59494","coordonnees_gps":[50.3747760096,3.47594179576],"code_commune_insee":"59459"},"geometry":{"type":"Point","coordinates":[3.47594179576,50.3747760096]},"record_timestamp":"2016-05-09T15:17:00+02:00"},{"datasetid":"laposte_hexasmal","recordid":"ee2aa3e3e908196476b621fd7ef4f350e709c684","fields":{"nom_de_la_commune":"PETIT FAYT","libell_d_acheminement":"PETIT FAYT","code_postal":"59244","coordonnees_gps":[50.1023567532,3.82607936534],"code_commune_insee":"59461"},"geometry":{"type":"Point","coordinates":[3.82607936534,50.1023567532]},"record_timestamp":"2016-05-09T15:17:00+02:00"},{"datasetid":"laposte_hexasmal","recordid":"907088b6176cf5e67bab615a8ad1c9125722d49e","fields":{"nom_de_la_commune":"POTELLE","libell_d_acheminement":"POTELLE","code_postal":"59530","coordonnees_gps":[50.2386756413,3.66509880886],"code_commune_insee":"59468"},"geometry":{"type":"Point","coordinates":[3.66509880886,50.2386756413]},"record_timestamp":"2016-05-09T15:17:00+02:00"},{"datasetid":"laposte_hexasmal","recordid":"41d583ebed7b2c42f3ffa41875403b826abb6eb7","fields":{"nom_de_la_commune":"PREMESQUES","libell_d_acheminement":"PREMESQUES","code_postal":"59840","coordonnees_gps":[50.6607863693,2.9485483768],"code_commune_insee":"59470"},"geometry":{"type":"Point","coordinates":[2.9485483768,50.6607863693]},"record_timestamp":"2016-05-09T15:17:00+02:00"},{"datasetid":"laposte_hexasmal","recordid":"1fe7f90f795c4af836e4eca930c0140072c48e19","fields":{"nom_de_la_commune":"PROVIN","libell_d_acheminement":"PROVIN","code_postal":"59185","coordonnees_gps":[50.5134080019,2.91117965832],"code_commune_insee":"59477"},"geometry":{"type":"Point","coordinates":[2.91117965832,50.5134080019]},"record_timestamp":"2016-05-09T15:17:00+02:00"},{"datasetid":"laposte_hexasmal","recordid":"cad9cef5025146df9b9db6daa297dd5b758e1738","fields":{"nom_de_la_commune":"RACHES","libell_d_acheminement":"RACHES","code_postal":"59194","coordonnees_gps":[50.4201328892,3.13698851837],"code_commune_insee":"59486"},"geometry":{"type":"Point","coordinates":[3.13698851837,50.4201328892]},"record_timestamp":"2016-05-09T15:17:00+02:00"},{"datasetid":"laposte_hexasmal","recordid":"463c6bff1854637dea05ad84daf14a9dff07bc17","fields":{"nom_de_la_commune":"RADINGHEM EN WEPPES","libell_d_acheminement":"RADINGHEM EN WEPPES","code_postal":"59320","coordonnees_gps":[50.6281404058,2.89866058213],"code_commune_insee":"59487"},"geometry":{"type":"Point","coordinates":[2.89866058213,50.6281404058]},"record_timestamp":"2016-05-09T15:17:00+02:00"},{"datasetid":"laposte_hexasmal","recordid":"1f51fd399cf984b19a07d4bc03cc6be299d3c0d3","fields":{"nom_de_la_commune":"RAILLENCOURT STE OLLE","libell_d_acheminement":"RAILLENCOURT STE OLLE","code_postal":"59554","coordonnees_gps":[50.1884274141,3.17806914502],"code_commune_insee":"59488"},"geometry":{"type":"Point","coordinates":[3.17806914502,50.1884274141]},"record_timestamp":"2016-05-09T15:17:00+02:00"},{"datasetid":"laposte_hexasmal","recordid":"d673fbf12f88629c4276e21de00240c07ab7d16c","fields":{"nom_de_la_commune":"RAINSARS","libell_d_acheminement":"RAINSARS","code_postal":"59177","coordonnees_gps":[50.0704332931,3.99772859383],"code_commune_insee":"59490"},"geometry":{"type":"Point","coordinates":[3.99772859383,50.0704332931]},"record_timestamp":"2016-05-09T15:17:00+02:00"},{"datasetid":"laposte_hexasmal","recordid":"9bce1fd4c4b266ec50ebd3619891ae9f154a1d82","fields":{"nom_de_la_commune":"ROSULT","libell_d_acheminement":"ROSULT","code_postal":"59230","coordonnees_gps":[50.4521455969,3.36243705958],"code_commune_insee":"59511"},"geometry":{"type":"Point","coordinates":[3.36243705958,50.4521455969]},"record_timestamp":"2016-05-09T15:17:00+02:00"},{"datasetid":"laposte_hexasmal","recordid":"848202ec6be50363a1be8a4da83608f8ed977827","fields":{"nom_de_la_commune":"ROUBAIX","libell_d_acheminement":"ROUBAIX","code_postal":"59100","coordonnees_gps":[50.6879774811,3.18258434623],"code_commune_insee":"59512"},"geometry":{"type":"Point","coordinates":[3.18258434623,50.6879774811]},"record_timestamp":"2016-05-09T15:17:00+02:00"},{"datasetid":"laposte_hexasmal","recordid":"dd50e5c01b09a6d0a288537b4670402d61a9f8a7","fields":{"nom_de_la_commune":"ROUSIES","libell_d_acheminement":"ROUSIES","code_postal":"59131","coordonnees_gps":[50.2712617008,3.99972723492],"code_commune_insee":"59514"},"geometry":{"type":"Point","coordinates":[3.99972723492,50.2712617008]},"record_timestamp":"2016-05-09T15:17:00+02:00"},{"datasetid":"laposte_hexasmal","recordid":"0fa55bcfeb4770bcbce9093f80ae6f5a6c74c508","fields":{"nom_de_la_commune":"RUMEGIES","libell_d_acheminement":"RUMEGIES","code_postal":"59226","coordonnees_gps":[50.4924282163,3.35255840321],"code_commune_insee":"59519"},"geometry":{"type":"Point","coordinates":[3.35255840321,50.4924282163]},"record_timestamp":"2016-05-09T15:17:00+02:00"},{"datasetid":"laposte_hexasmal","recordid":"8a21357287364f5dde55c779f8794e413ad43936","fields":{"nom_de_la_commune":"ST AUBERT","libell_d_acheminement":"ST AUBERT","code_postal":"59188","coordonnees_gps":[50.2076147877,3.41741294384],"code_commune_insee":"59528"},"geometry":{"type":"Point","coordinates":[3.41741294384,50.2076147877]},"record_timestamp":"2016-05-09T15:17:00+02:00"},{"datasetid":"laposte_hexasmal","recordid":"38383ac05f40a89f70ada36e7fdf948ef0f60cd5","fields":{"nom_de_la_commune":"ST JANS CAPPEL","libell_d_acheminement":"ST JANS CAPPEL","code_postal":"59270","coordonnees_gps":[50.7684241988,2.72184821596],"code_commune_insee":"59535"},"geometry":{"type":"Point","coordinates":[2.72184821596,50.7684241988]},"record_timestamp":"2016-05-09T15:17:00+02:00"},{"datasetid":"laposte_hexasmal","recordid":"2d1299db1248dbad37f8e460902765f2c1376652","fields":{"nom_de_la_commune":"STE MARIE CAPPEL","libell_d_acheminement":"STE MARIE CAPPEL","code_postal":"59670","coordonnees_gps":[50.780208006,2.51589636551],"code_commune_insee":"59536"},"geometry":{"type":"Point","coordinates":[2.51589636551,50.780208006]},"record_timestamp":"2016-05-09T15:17:00+02:00"},{"datasetid":"laposte_hexasmal","recordid":"67f41d75639d12cafb6e9580b98bffe0cf578975","fields":{"nom_de_la_commune":"ST SAULVE","libell_d_acheminement":"ST SAULVE","code_postal":"59880","coordonnees_gps":[50.3750172475,3.56642418912],"code_commune_insee":"59544"},"geometry":{"type":"Point","coordinates":[3.56642418912,50.3750172475]},"record_timestamp":"2016-05-09T15:17:00+02:00"},{"datasetid":"laposte_hexasmal","recordid":"42181986ba55650e5c96e6b0dd8d0b75c4ac7266","fields":{"nom_de_la_commune":"ST VAAST EN CAMBRESIS","libell_d_acheminement":"ST VAAST EN CAMBRESIS","code_postal":"59188","coordonnees_gps":[50.1944271461,3.43509312626],"code_commune_insee":"59547"},"geometry":{"type":"Point","coordinates":[3.43509312626,50.1944271461]},"record_timestamp":"2016-05-09T15:17:00+02:00"},{"datasetid":"laposte_hexasmal","recordid":"e180172d8ddeab779d256554e8c2ae6aab396084","fields":{"nom_de_la_commune":"SALOME","libell_d_acheminement":"SALOME","code_postal":"59496","coordonnees_gps":[50.5358395709,2.83692247297],"code_commune_insee":"59550"},"geometry":{"type":"Point","coordinates":[2.83692247297,50.5358395709]},"record_timestamp":"2016-05-09T15:17:00+02:00"},{"datasetid":"laposte_hexasmal","recordid":"22c4ef431f67eb863db8b900645b88eb3b44c4dd","fields":{"nom_de_la_commune":"SEMERIES","libell_d_acheminement":"SEMERIES","code_postal":"59440","coordonnees_gps":[50.104983917,3.98854238684],"code_commune_insee":"59562"},"geometry":{"type":"Point","coordinates":[3.98854238684,50.104983917]},"record_timestamp":"2016-05-09T15:17:00+02:00"},{"datasetid":"laposte_hexasmal","recordid":"aed65051917715d3a023d575c8d537e3c27e7f90","fields":{"nom_de_la_commune":"SEPMERIES","libell_d_acheminement":"SEPMERIES","code_postal":"59269","coordonnees_gps":[50.2772551517,3.56080213817],"code_commune_insee":"59565"},"geometry":{"type":"Point","coordinates":[3.56080213817,50.2772551517]},"record_timestamp":"2016-05-09T15:17:00+02:00"},{"datasetid":"laposte_hexasmal","recordid":"66e5e1cdf396ea2747e3ca30bdc34cd52a6ac6bc","fields":{"nom_de_la_commune":"SOLESMES","libell_d_acheminement":"SOLESMES","code_postal":"59730","coordonnees_gps":[50.171784611,3.51976547867],"code_commune_insee":"59571"},"geometry":{"type":"Point","coordinates":[3.51976547867,50.171784611]},"record_timestamp":"2016-05-09T15:17:00+02:00"},{"datasetid":"laposte_hexasmal","recordid":"f88388b23eb9dd4b6a69ebed1bb38a9bde0a8932","fields":{"nom_de_la_commune":"STAPLE","libell_d_acheminement":"STAPLE","code_postal":"59190","coordonnees_gps":[50.7522593819,2.44870670166],"code_commune_insee":"59577"},"geometry":{"type":"Point","coordinates":[2.44870670166,50.7522593819]},"record_timestamp":"2016-05-09T15:17:00+02:00"},{"datasetid":"laposte_hexasmal","recordid":"230ba274d393064d09b155c4f75c70a6af82f9ad","fields":{"nom_de_la_commune":"STEENBECQUE","libell_d_acheminement":"STEENBECQUE","code_postal":"59189","coordonnees_gps":[50.6774388783,2.48812239192],"code_commune_insee":"59578"},"geometry":{"type":"Point","coordinates":[2.48812239192,50.6774388783]},"record_timestamp":"2016-05-09T15:17:00+02:00"},{"datasetid":"laposte_hexasmal","recordid":"9d8e7cfc3f9116e47c1273a6fa74d23c2db044e2","fields":{"nom_de_la_commune":"STRAZEELE","libell_d_acheminement":"STRAZEELE","code_postal":"59270","coordonnees_gps":[50.7237136693,2.61971858959],"code_commune_insee":"59582"},"geometry":{"type":"Point","coordinates":[2.61971858959,50.7237136693]},"record_timestamp":"2016-05-09T15:17:00+02:00"},{"datasetid":"laposte_hexasmal","recordid":"b215043752bcb6111e7f121ebcb5ee0ff74de7e4","fields":{"nom_de_la_commune":"TEMPLEMARS","libell_d_acheminement":"TEMPLEMARS","code_postal":"59175","coordonnees_gps":[50.5706303055,3.0593969462],"code_commune_insee":"59585"},"geometry":{"type":"Point","coordinates":[3.0593969462,50.5706303055]},"record_timestamp":"2016-05-09T15:17:00+02:00"},{"datasetid":"laposte_hexasmal","recordid":"1155b55c32760f3465353c5f7741b7639461d6cf","fields":{"nom_de_la_commune":"TERDEGHEM","libell_d_acheminement":"TERDEGHEM","code_postal":"59114","coordonnees_gps":[50.7976310827,2.55518666354],"code_commune_insee":"59587"},"geometry":{"type":"Point","coordinates":[2.55518666354,50.7976310827]},"record_timestamp":"2016-05-09T15:17:00+02:00"},{"datasetid":"laposte_hexasmal","recordid":"850f5db57d365532909e8e7f6210f703f3c0f7d2","fields":{"nom_de_la_commune":"TETEGHEM COUDEKERQUE VILLAGE","libell_d_acheminement":"TETEGHEM COUDEKERQUE VILLAGE","code_postal":"59229","coordonnees_gps":[51.0158652678,2.45278368133],"code_commune_insee":"59588"},"geometry":{"type":"Point","coordinates":[2.45278368133,51.0158652678]},"record_timestamp":"2016-05-09T15:17:00+02:00"},{"datasetid":"laposte_hexasmal","recordid":"ea52f1ee109de64127bc54e6eb135c35568729a0","fields":{"nom_de_la_commune":"THIANT","libell_d_acheminement":"THIANT","code_postal":"59224","coordonnees_gps":[50.2978015553,3.43898383487],"code_commune_insee":"59589"},"geometry":{"type":"Point","coordinates":[3.43898383487,50.2978015553]},"record_timestamp":"2016-05-09T15:17:00+02:00"},{"datasetid":"laposte_hexasmal","recordid":"8604fa977fbfba28b4040df8fd2e6ebec42ed8f2","fields":{"nom_de_la_commune":"THUN L EVEQUE","libell_d_acheminement":"THUN L EVEQUE","code_postal":"59141","coordonnees_gps":[50.2257650605,3.28109704734],"code_commune_insee":"59593"},"geometry":{"type":"Point","coordinates":[3.28109704734,50.2257650605]},"record_timestamp":"2016-05-09T15:17:00+02:00"},{"datasetid":"laposte_hexasmal","recordid":"0a95aa57471e81a457a7b24dd4bd8a11ddaefbfe","fields":{"nom_de_la_commune":"TILLOY LEZ MARCHIENNES","libell_d_acheminement":"TILLOY LEZ MARCHIENNES","code_postal":"59870","coordonnees_gps":[50.4251780134,3.32276515057],"code_commune_insee":"59596"},"geometry":{"type":"Point","coordinates":[3.32276515057,50.4251780134]},"record_timestamp":"2016-05-09T15:17:00+02:00"},{"datasetid":"laposte_hexasmal","recordid":"36624851d7d97a135d3a3ca9482b526df98b1cee","fields":{"nom_de_la_commune":"TRELON","libell_d_acheminement":"TRELON","code_postal":"59132","coordonnees_gps":[50.0755155252,4.12172301875],"code_commune_insee":"59601"},"geometry":{"type":"Point","coordinates":[4.12172301875,50.0755155252]},"record_timestamp":"2016-05-09T15:17:00+02:00"},{"datasetid":"laposte_hexasmal","recordid":"bb1a832475be876721f6d06a1e2cc0fc862b9085","fields":{"nom_de_la_commune":"TRESSIN","libell_d_acheminement":"TRESSIN","code_postal":"59152","coordonnees_gps":[50.6172932924,3.18934892273],"code_commune_insee":"59602"},"geometry":{"type":"Point","coordinates":[3.18934892273,50.6172932924]},"record_timestamp":"2016-05-09T15:17:00+02:00"},{"datasetid":"laposte_hexasmal","recordid":"55f6634119fe4c03d49c8d44a3bfff8b4b6c7406","fields":{"nom_de_la_commune":"UXEM","libell_d_acheminement":"UXEM","code_postal":"59229","coordonnees_gps":[51.0239750832,2.49246889837],"code_commune_insee":"59605"},"geometry":{"type":"Point","coordinates":[2.49246889837,51.0239750832]},"record_timestamp":"2016-05-09T15:17:00+02:00"},{"datasetid":"laposte_hexasmal","recordid":"31119dec58ee0d2c2942a9151d44b9500068dc9e","fields":{"nom_de_la_commune":"VALENCIENNES","libell_d_acheminement":"VALENCIENNES","code_postal":"59300","coordonnees_gps":[50.3588666163,3.51567664819],"code_commune_insee":"59606"},"geometry":{"type":"Point","coordinates":[3.51567664819,50.3588666163]},"record_timestamp":"2016-05-09T15:17:00+02:00"},{"datasetid":"laposte_hexasmal","recordid":"eb3a3e98db52430ab57b6375682f0455f1343e27","fields":{"nom_de_la_commune":"VENDEGIES SUR ECAILLON","libell_d_acheminement":"VENDEGIES SUR ECAILLON","code_postal":"59213","coordonnees_gps":[50.2600667641,3.50791948811],"code_commune_insee":"59608"},"geometry":{"type":"Point","coordinates":[3.50791948811,50.2600667641]},"record_timestamp":"2016-05-09T15:17:00+02:00"},{"datasetid":"laposte_hexasmal","recordid":"7a2ce7d929deefd1c786f1f618854c4dfb2361dc","fields":{"nom_de_la_commune":"VERTAIN","libell_d_acheminement":"VERTAIN","code_postal":"59730","coordonnees_gps":[50.2124028613,3.52268754362],"code_commune_insee":"59612"},"geometry":{"type":"Point","coordinates":[3.52268754362,50.2124028613]},"record_timestamp":"2016-05-09T15:17:00+02:00"},{"datasetid":"laposte_hexasmal","recordid":"0bd64e11299e5f568a9266c193a5e11a8bcd2f49","fields":{"nom_de_la_commune":"VILLERS EN CAUCHIES","libell_d_acheminement":"VILLERS EN CAUCHIES","code_postal":"59188","coordonnees_gps":[50.2264212975,3.39435479006],"code_commune_insee":"59622"},"geometry":{"type":"Point","coordinates":[3.39435479006,50.2264212975]},"record_timestamp":"2016-05-09T15:17:00+02:00"},{"datasetid":"laposte_hexasmal","recordid":"ccdd12f3a884c18e74af668003cd7a9bcf28e7d6","fields":{"nom_de_la_commune":"WAHAGNIES","libell_d_acheminement":"WAHAGNIES","code_postal":"59261","coordonnees_gps":[50.4837257649,3.03028758206],"code_commune_insee":"59630"},"geometry":{"type":"Point","coordinates":[3.03028758206,50.4837257649]},"record_timestamp":"2016-05-09T15:17:00+02:00"},{"datasetid":"laposte_hexasmal","recordid":"8806cc4ea42daae5a0ef2f81dbd09b78f7df3249","fields":{"nom_de_la_commune":"WALLERS","libell_d_acheminement":"WALLERS","code_postal":"59135","coordonnees_gps":[50.3808461182,3.39313610701],"code_commune_insee":"59632"},"geometry":{"type":"Point","coordinates":[3.39313610701,50.3808461182]},"record_timestamp":"2016-05-09T15:17:00+02:00"},{"datasetid":"laposte_hexasmal","recordid":"fdde58824f06c176f53559fe8b2cbc72955d205e","fields":{"nom_de_la_commune":"WAMBRECHIES","libell_d_acheminement":"WAMBRECHIES","code_postal":"59118","coordonnees_gps":[50.6957054596,3.0473159475],"code_commune_insee":"59636"},"geometry":{"type":"Point","coordinates":[3.0473159475,50.6957054596]},"record_timestamp":"2016-05-09T15:17:00+02:00"},{"datasetid":"laposte_hexasmal","recordid":"b8e84df60e3ba1394cf3ee2578e1aa5aa18662dd","fields":{"nom_de_la_commune":"WARLAING","libell_d_acheminement":"WARLAING","code_postal":"59870","coordonnees_gps":[50.4093268684,3.32433906396],"code_commune_insee":"59642"},"geometry":{"type":"Point","coordinates":[3.32433906396,50.4093268684]},"record_timestamp":"2016-05-09T15:17:00+02:00"},{"datasetid":"laposte_hexasmal","recordid":"b728c9b42521dd6501c7305b939e70c9260871a6","fields":{"nom_de_la_commune":"WASQUEHAL","libell_d_acheminement":"WASQUEHAL","code_postal":"59290","coordonnees_gps":[50.6750984751,3.12858017096],"code_commune_insee":"59646"},"geometry":{"type":"Point","coordinates":[3.12858017096,50.6750984751]},"record_timestamp":"2016-05-09T15:17:00+02:00"},