[{"datasetid":"laposte_hexasmal","recordid":"77a9a3a6b88ddd75b82e9a1edec5131c3abad9d1","fields":{"nom_de_la_commune":"ARBECEY","libell_d_acheminement":"ARBECEY","code_postal":"70120","coordonnees_gps":[47.7352817883,5.93210492724],"code_commune_insee":"70025"},"geometry":{"type":"Point","coordinates":[5.93210492724,47.7352817883]},"record_timestamp":"2016-05-09T15:17:00+02:00"},{"datasetid":"laposte_hexasmal","recordid":"acb537e7c5488cb7c8c93fefc7f38c36c6da20b1","fields":{"nom_de_la_commune":"AUTOREILLE","libell_d_acheminement":"AUTOREILLE","code_postal":"70700","coordonnees_gps":[47.370625269,5.82479172929],"code_commune_insee":"70039"},"geometry":{"type":"Point","coordinates":[5.82479172929,47.370625269]},"record_timestamp":"2016-05-09T15:17:00+02:00"},{"datasetid":"laposte_hexasmal","recordid":"ff21d551d7fbc30d5c5ba1a2e5337fcef0230860","fields":{"nom_de_la_commune":"LES AYNANS","libell_d_acheminement":"LES AYNANS","code_postal":"70200","coordonnees_gps":[47.6183175602,6.45040746751],"code_commune_insee":"70046"},"geometry":{"type":"Point","coordinates":[6.45040746751,47.6183175602]},"record_timestamp":"2016-05-09T15:17:00+02:00"},{"datasetid":"laposte_hexasmal","recordid":"2fadd66525336302018e01db173237462a288ef1","fields":{"nom_de_la_commune":"BARGES","libell_d_acheminement":"BARGES","code_postal":"70500","coordonnees_gps":[47.8703689759,5.84022865236],"code_commune_insee":"70049"},"geometry":{"type":"Point","coordinates":[5.84022865236,47.8703689759]},"record_timestamp":"2016-05-09T15:17:00+02:00"},{"datasetid":"laposte_hexasmal","recordid":"530bacdf771027f684ba20ec5402e9f648f05e79","fields":{"nom_de_la_commune":"LA BARRE","libell_d_acheminement":"LA BARRE","code_postal":"70190","coordonnees_gps":[47.4076616681,6.17035977753],"code_commune_insee":"70050"},"geometry":{"type":"Point","coordinates":[6.17035977753,47.4076616681]},"record_timestamp":"2016-05-09T15:17:00+02:00"},{"datasetid":"laposte_hexasmal","recordid":"f97ad6e58c1c4f29faf6dbe9dde6427e0a3c6a93","fields":{"nom_de_la_commune":"LES BATIES","libell_d_acheminement":"LES BATIES","code_postal":"70130","coordonnees_gps":[47.502432547,5.8956755541],"code_commune_insee":"70053"},"geometry":{"type":"Point","coordinates":[5.8956755541,47.502432547]},"record_timestamp":"2016-05-09T15:17:00+02:00"},{"datasetid":"laposte_hexasmal","recordid":"c9e3cb9472cff338d7b7ff1c577fa54f3bb4f2e7","fields":{"nom_de_la_commune":"BATTRANS","libell_d_acheminement":"BATTRANS","code_postal":"70100","coordonnees_gps":[47.427310451,5.64228705481],"code_commune_insee":"70054"},"geometry":{"type":"Point","coordinates":[5.64228705481,47.427310451]},"record_timestamp":"2016-05-09T15:17:00+02:00"},{"datasetid":"laposte_hexasmal","recordid":"b70cd23f797a1dec4f65f83bab2869618989b254","fields":{"nom_de_la_commune":"BELVERNE","libell_d_acheminement":"BELVERNE","code_postal":"70400","coordonnees_gps":[47.6271373135,6.6554261048],"code_commune_insee":"70064"},"geometry":{"type":"Point","coordinates":[6.6554261048,47.6271373135]},"record_timestamp":"2016-05-09T15:17:00+02:00"},{"datasetid":"laposte_hexasmal","recordid":"c6143e1b2e7ed391b3d2d0064c61f82b3f0b0502","fields":{"nom_de_la_commune":"BETONCOURT ST PANCRAS","libell_d_acheminement":"BETONCOURT ST PANCRAS","code_postal":"70210","coordonnees_gps":[47.9177842329,6.18204569408],"code_commune_insee":"70069"},"geometry":{"type":"Point","coordinates":[6.18204569408,47.9177842329]},"record_timestamp":"2016-05-09T15:17:00+02:00"},{"datasetid":"laposte_hexasmal","recordid":"3a3994671a85d3149753df5e280674a5efb08833","fields":{"nom_de_la_commune":"BOREY","libell_d_acheminement":"BOREY","code_postal":"70110","coordonnees_gps":[47.5806974157,6.35176301516],"code_commune_insee":"70077"},"geometry":{"type":"Point","coordinates":[6.35176301516,47.5806974157]},"record_timestamp":"2016-05-09T15:17:00+02:00"},{"datasetid":"laposte_hexasmal","recordid":"d0a693bfc75e38df46165998da99330000ebf935","fields":{"nom_de_la_commune":"BOULOT","libell_d_acheminement":"BOULOT","code_postal":"70190","coordonnees_gps":[47.3549256777,5.9599297677],"code_commune_insee":"70084"},"geometry":{"type":"Point","coordinates":[5.9599297677,47.3549256777]},"record_timestamp":"2016-05-09T15:17:00+02:00"},{"datasetid":"laposte_hexasmal","recordid":"97bc31e4f792bcf8b120d6ea1e617c24efca55d4","fields":{"nom_de_la_commune":"BRESILLEY","libell_d_acheminement":"BRESILLEY","code_postal":"70140","coordonnees_gps":[47.261991269,5.63291616251],"code_commune_insee":"70092"},"geometry":{"type":"Point","coordinates":[5.63291616251,47.261991269]},"record_timestamp":"2016-05-09T15:17:00+02:00"},{"datasetid":"laposte_hexasmal","recordid":"7fd6692f6d5a1391a5f82db9d4dfd3b571ab2c0d","fields":{"nom_de_la_commune":"BRUSSEY","libell_d_acheminement":"BRUSSEY","code_postal":"70150","coordonnees_gps":[47.3070872023,5.80873884228],"code_commune_insee":"70102"},"geometry":{"type":"Point","coordinates":[5.80873884228,47.3070872023]},"record_timestamp":"2016-05-09T15:17:00+02:00"},{"datasetid":"laposte_hexasmal","recordid":"b62c47219cad7eee9b9cd189d150620c0dc0d795","fields":{"nom_de_la_commune":"BUCEY LES GY","libell_d_acheminement":"BUCEY LES GY","code_postal":"70700","coordonnees_gps":[47.4054642999,5.86034681333],"code_commune_insee":"70104"},"geometry":{"type":"Point","coordinates":[5.86034681333,47.4054642999]},"record_timestamp":"2016-05-09T15:17:00+02:00"},{"datasetid":"laposte_hexasmal","recordid":"e7644e6cf2c00b5b6910c7a6786c1ce3932f782d","fields":{"nom_de_la_commune":"CHAGEY","libell_d_acheminement":"CHAGEY","code_postal":"70400","coordonnees_gps":[47.6209267815,6.7351701305],"code_commune_insee":"70116"},"geometry":{"type":"Point","coordinates":[6.7351701305,47.6209267815]},"record_timestamp":"2016-05-09T15:17:00+02:00"},{"datasetid":"laposte_hexasmal","recordid":"d1206be2f8fdfdcf4fc736920949dc0bd68824b0","fields":{"nom_de_la_commune":"CHAMBORNAY LES PIN","libell_d_acheminement":"CHAMBORNAY LES PIN","code_postal":"70150","coordonnees_gps":[47.3392690795,5.91122430181],"code_commune_insee":"70119"},"geometry":{"type":"Point","coordinates":[5.91122430181,47.3392690795]},"record_timestamp":"2016-05-09T15:17:00+02:00"},{"datasetid":"laposte_hexasmal","recordid":"3678c4624db86741f3cfedd2998b95d2d0ef15f9","fields":{"code_postal":"70600","code_commune_insee":"70122","libell_d_acheminement":"CHAMPLITTE","ligne_5":"LEFFOND","nom_de_la_commune":"CHAMPLITTE","coordonnees_gps":[47.6322292317,5.51329036822]},"geometry":{"type":"Point","coordinates":[5.51329036822,47.6322292317]},"record_timestamp":"2016-05-09T15:17:00+02:00"},{"datasetid":"laposte_hexasmal","recordid":"2d0f252ccb0fb2afe9528b0d3186702cb4efda62","fields":{"nom_de_la_commune":"CHAMPTONNAY","libell_d_acheminement":"CHAMPTONNAY","code_postal":"70100","coordonnees_gps":[47.3758996781,5.6613436663],"code_commune_insee":"70124"},"geometry":{"type":"Point","coordinates":[5.6613436663,47.3758996781]},"record_timestamp":"2016-05-09T15:17:00+02:00"},{"datasetid":"laposte_hexasmal","recordid":"e57b2a7ddcd04488b295c96ce3da273ff4e5046c","fields":{"nom_de_la_commune":"CHARCENNE","libell_d_acheminement":"CHARCENNE","code_postal":"70700","coordonnees_gps":[47.368580858,5.777516428],"code_commune_insee":"70130"},"geometry":{"type":"Point","coordinates":[5.777516428,47.368580858]},"record_timestamp":"2016-05-09T15:17:00+02:00"},{"datasetid":"laposte_hexasmal","recordid":"76d510f697091218caa4fdc6ae139b4b8ed1c319","fields":{"nom_de_la_commune":"CHARMOILLE","libell_d_acheminement":"CHARMOILLE","code_postal":"70000","coordonnees_gps":[47.6719755465,6.11198681007],"code_commune_insee":"70136"},"geometry":{"type":"Point","coordinates":[6.11198681007,47.6719755465]},"record_timestamp":"2016-05-09T15:17:00+02:00"},{"datasetid":"laposte_hexasmal","recordid":"444fb6c80b8a469baebba1f2997f026463517f7c","fields":{"nom_de_la_commune":"CHASSEY LES SCEY","libell_d_acheminement":"CHASSEY LES SCEY","code_postal":"70360","coordonnees_gps":[47.643695982,5.98609358914],"code_commune_insee":"70138"},"geometry":{"type":"Point","coordinates":[5.98609358914,47.643695982]},"record_timestamp":"2016-05-09T15:17:00+02:00"},{"datasetid":"laposte_hexasmal","recordid":"f6ffbe49021de360594b796ab89377501f6ff080","fields":{"nom_de_la_commune":"CHATENEY","libell_d_acheminement":"CHATENEY","code_postal":"70240","coordonnees_gps":[47.6974623495,6.31908566249],"code_commune_insee":"70140"},"geometry":{"type":"Point","coordinates":[6.31908566249,47.6974623495]},"record_timestamp":"2016-05-09T15:17:00+02:00"},{"datasetid":"laposte_hexasmal","recordid":"f0b70ad18f6bf921344b2df8bbc131276aef5e10","fields":{"nom_de_la_commune":"CHENEBIER","libell_d_acheminement":"CHENEBIER","code_postal":"70400","coordonnees_gps":[47.6435305659,6.70723411638],"code_commune_insee":"70149"},"geometry":{"type":"Point","coordinates":[6.70723411638,47.6435305659]},"record_timestamp":"2016-05-09T15:17:00+02:00"},{"datasetid":"laposte_hexasmal","recordid":"fadf7115204af15716644e98775c87c5e1202557","fields":{"nom_de_la_commune":"CHENEVREY ET MOROGNE","libell_d_acheminement":"CHENEVREY ET MOROGNE","code_postal":"70150","coordonnees_gps":[47.2806388545,5.73662541628],"code_commune_insee":"70150"},"geometry":{"type":"Point","coordinates":[5.73662541628,47.2806388545]},"record_timestamp":"2016-05-09T15:17:00+02:00"},{"datasetid":"laposte_hexasmal","recordid":"8246ffc616ad6f4e052705be63c2c65c6b65d0fe","fields":{"nom_de_la_commune":"CIREY","libell_d_acheminement":"CIREY","code_postal":"70190","coordonnees_gps":[47.4130463619,6.13282949108],"code_commune_insee":"70154"},"geometry":{"type":"Point","coordinates":[6.13282949108,47.4130463619]},"record_timestamp":"2016-05-09T15:17:00+02:00"},{"datasetid":"laposte_hexasmal","recordid":"27670ff4ab498c17cf021a74d4d37ccea166e912","fields":{"nom_de_la_commune":"CLAIREGOUTTE","libell_d_acheminement":"CLAIREGOUTTE","code_postal":"70200","coordonnees_gps":[47.6628053162,6.63860014681],"code_commune_insee":"70157"},"geometry":{"type":"Point","coordinates":[6.63860014681,47.6628053162]},"record_timestamp":"2016-05-09T15:17:00+02:00"},{"datasetid":"laposte_hexasmal","recordid":"380a9e03a94ae64eee2aeb5d04ad69ab246253c0","fields":{"nom_de_la_commune":"COGNIERES","libell_d_acheminement":"COGNIERES","code_postal":"70230","coordonnees_gps":[47.4990115094,6.28635310536],"code_commune_insee":"70159"},"geometry":{"type":"Point","coordinates":[6.28635310536,47.4990115094]},"record_timestamp":"2016-05-09T15:17:00+02:00"},{"datasetid":"laposte_hexasmal","recordid":"5c8fb2e14e6740051c4aa13c8cdd633c80616cfa","fields":{"nom_de_la_commune":"COLOMBIER","libell_d_acheminement":"COLOMBIER","code_postal":"70000","coordonnees_gps":[47.6697895456,6.21883495528],"code_commune_insee":"70163"},"geometry":{"type":"Point","coordinates":[6.21883495528,47.6697895456]},"record_timestamp":"2016-05-09T15:17:00+02:00"},{"datasetid":"laposte_hexasmal","recordid":"2cfa5e614d53c01bbfd637a548c3c2cfa8e29029","fields":{"nom_de_la_commune":"COMBEAUFONTAINE","libell_d_acheminement":"COMBEAUFONTAINE","code_postal":"70120","coordonnees_gps":[47.7097115215,5.89708044374],"code_commune_insee":"70165"},"geometry":{"type":"Point","coordinates":[5.89708044374,47.7097115215]},"record_timestamp":"2016-05-09T15:17:00+02:00"},{"datasetid":"laposte_hexasmal","recordid":"04b926014c45b7c1afb7698ea0f2e1e164259d6e","fields":{"nom_de_la_commune":"CORRE","libell_d_acheminement":"CORRE","code_postal":"70500","coordonnees_gps":[47.9178171926,5.99346216699],"code_commune_insee":"70177"},"geometry":{"type":"Point","coordinates":[5.99346216699,47.9178171926]},"record_timestamp":"2016-05-09T15:17:00+02:00"},{"datasetid":"laposte_hexasmal","recordid":"7c945832dd5c06d414bb058f3a5e9530334136c0","fields":{"nom_de_la_commune":"LA CREUSE","libell_d_acheminement":"LA CREUSE","code_postal":"70240","coordonnees_gps":[47.6824306767,6.3491717627],"code_commune_insee":"70186"},"geometry":{"type":"Point","coordinates":[6.3491717627,47.6824306767]},"record_timestamp":"2016-05-09T15:17:00+02:00"},{"datasetid":"laposte_hexasmal","recordid":"86c9490249499656395446ee9493994079d93f06","fields":{"nom_de_la_commune":"CREVANS ET LA CHAPELLE LES GRANGES","libell_d_acheminement":"CREVANS LA CHAPELLE LES GRANGES","code_postal":"70400","coordonnees_gps":[47.5491003203,6.593684558],"code_commune_insee":"70187"},"geometry":{"type":"Point","coordinates":[6.593684558,47.5491003203]},"record_timestamp":"2016-05-09T15:17:00+02:00"},{"datasetid":"laposte_hexasmal","recordid":"49e6a607efe22b6f4b3fdb0f15ad6041baeaab63","fields":{"nom_de_la_commune":"CULT","libell_d_acheminement":"CULT","code_postal":"70150","coordonnees_gps":[47.3144210178,5.74365387087],"code_commune_insee":"70193"},"geometry":{"type":"Point","coordinates":[5.74365387087,47.3144210178]},"record_timestamp":"2016-05-09T15:17:00+02:00"},{"datasetid":"laposte_hexasmal","recordid":"db117d79c4e2e18c1f3ef203b47f273be5ad5f4e","fields":{"nom_de_la_commune":"DAMPIERRE SUR LINOTTE","libell_d_acheminement":"DAMPIERRE SUR LINOTTE","code_postal":"70230","coordonnees_gps":[47.5328760062,6.24208585386],"code_commune_insee":"70197"},"geometry":{"type":"Point","coordinates":[6.24208585386,47.5328760062]},"record_timestamp":"2016-05-09T15:17:00+02:00"},{"datasetid":"laposte_hexasmal","recordid":"016a068f5b1045f9a9f1df593dd9ef654c951c01","fields":{"code_postal":"70230","code_commune_insee":"70197","libell_d_acheminement":"DAMPIERRE SUR LINOTTE","ligne_5":"TREVEY","nom_de_la_commune":"DAMPIERRE SUR LINOTTE","coordonnees_gps":[47.5328760062,6.24208585386]},"geometry":{"type":"Point","coordinates":[6.24208585386,47.5328760062]},"record_timestamp":"2016-05-09T15:17:00+02:00"},{"datasetid":"laposte_hexasmal","recordid":"09ea57f8613e303f0a8eb6eed88d7f9482889994","fields":{"nom_de_la_commune":"DAMPIERRE SUR SALON","libell_d_acheminement":"DAMPIERRE SUR SALON","code_postal":"70180","coordonnees_gps":[47.5720448624,5.67645740995],"code_commune_insee":"70198"},"geometry":{"type":"Point","coordinates":[5.67645740995,47.5720448624]},"record_timestamp":"2016-05-09T15:17:00+02:00"},{"datasetid":"laposte_hexasmal","recordid":"f32e7eb79188bb2e72a6da576f25f972ee8a680d","fields":{"nom_de_la_commune":"DENEVRE","libell_d_acheminement":"DENEVRE","code_postal":"70180","coordonnees_gps":[47.5557164652,5.64493853194],"code_commune_insee":"70204"},"geometry":{"type":"Point","coordinates":[5.64493853194,47.5557164652]},"record_timestamp":"2016-05-09T15:17:00+02:00"},{"datasetid":"laposte_hexasmal","recordid":"c82ebcb0416e33d343ef53294179ac0179dbc265","fields":{"nom_de_la_commune":"ERREVET","libell_d_acheminement":"ERREVET","code_postal":"70400","coordonnees_gps":[47.6872396262,6.77009884237],"code_commune_insee":"70215"},"geometry":{"type":"Point","coordinates":[6.77009884237,47.6872396262]},"record_timestamp":"2016-05-09T15:17:00+02:00"},{"datasetid":"laposte_hexasmal","recordid":"0e22293ecfc06b4e9001ad02f254a42f508555aa","fields":{"nom_de_la_commune":"ESSERTENNE ET CECEY","libell_d_acheminement":"ESSERTENNE ET CECEY","code_postal":"70100","coordonnees_gps":[47.4004565715,5.46661383685],"code_commune_insee":"70220"},"geometry":{"type":"Point","coordinates":[5.46661383685,47.4004565715]},"record_timestamp":"2016-05-09T15:17:00+02:00"},{"datasetid":"laposte_hexasmal","recordid":"db158dde23de18c5d9615c69d23719d4c809e634","fields":{"nom_de_la_commune":"FERRIERES LES RAY","libell_d_acheminement":"FERRIERES LES RAY","code_postal":"70130","coordonnees_gps":[47.5794056888,5.79410220252],"code_commune_insee":"70231"},"geometry":{"type":"Point","coordinates":[5.79410220252,47.5794056888]},"record_timestamp":"2016-05-09T15:17:00+02:00"},{"datasetid":"laposte_hexasmal","recordid":"c4966f45da15cfcc26661962bb31864428f08a4e","fields":{"nom_de_la_commune":"LES FESSEY","libell_d_acheminement":"LES FESSEY","code_postal":"70310","coordonnees_gps":[47.8108548307,6.51712506542],"code_commune_insee":"70233"},"geometry":{"type":"Point","coordinates":[6.51712506542,47.8108548307]},"record_timestamp":"2016-05-09T15:17:00+02:00"},{"datasetid":"laposte_hexasmal","recordid":"2197af6eba040440444e8befaef70a0389ab18db","fields":{"nom_de_la_commune":"FLEUREY LES FAVERNEY","libell_d_acheminement":"FLEUREY LES FAVERNEY","code_postal":"70160","coordonnees_gps":[47.7411367393,6.09066624014],"code_commune_insee":"70236"},"geometry":{"type":"Point","coordinates":[6.09066624014,47.7411367393]},"record_timestamp":"2016-05-09T15:17:00+02:00"},{"datasetid":"laposte_hexasmal","recordid":"235816f350504c91e02971c6fbc40a1ee1acd947","fields":{"nom_de_la_commune":"FLEUREY LES LAVONCOURT","libell_d_acheminement":"FLEUREY LES LAVONCOURT","code_postal":"70120","coordonnees_gps":[47.6622890389,5.78508054344],"code_commune_insee":"70237"},"geometry":{"type":"Point","coordinates":[5.78508054344,47.6622890389]},"record_timestamp":"2016-05-09T15:17:00+02:00"},{"datasetid":"laposte_hexasmal","recordid":"352797ce97dbd44bd96f66681a1698b7ab6ff1ca","fields":{"nom_de_la_commune":"FOUCHECOURT","libell_d_acheminement":"FOUCHECOURT","code_postal":"70160","coordonnees_gps":[47.7897792955,5.9864123843],"code_commune_insee":"70244"},"geometry":{"type":"Point","coordinates":[5.9864123843,47.7897792955]},"record_timestamp":"2016-05-09T15:17:00+02:00"},{"datasetid":"laposte_hexasmal","recordid":"f8a995f9296d511b6bae24aeb112873945d6d5ea","fields":{"nom_de_la_commune":"FRANCHEVELLE","libell_d_acheminement":"FRANCHEVELLE","code_postal":"70200","coordonnees_gps":[47.7429315817,6.46131870322],"code_commune_insee":"70250"},"geometry":{"type":"Point","coordinates":[6.46131870322,47.7429315817]},"record_timestamp":"2016-05-09T15:17:00+02:00"},{"datasetid":"laposte_hexasmal","recordid":"2735a88923710e3e33852cbdcb087309d20719fd","fields":{"nom_de_la_commune":"FRANCOURT","libell_d_acheminement":"FRANCOURT","code_postal":"70180","coordonnees_gps":[47.6545449376,5.73384333602],"code_commune_insee":"70251"},"geometry":{"type":"Point","coordinates":[5.73384333602,47.6545449376]},"record_timestamp":"2016-05-09T15:17:00+02:00"},{"datasetid":"laposte_hexasmal","recordid":"dc4724b35fbc672688cb97f203dc7c8d83cb91d9","fields":{"nom_de_la_commune":"FRESNE ST MAMES","libell_d_acheminement":"FRESNE ST MAMES","code_postal":"70130","coordonnees_gps":[47.5529496769,5.85669124269],"code_commune_insee":"70255"},"geometry":{"type":"Point","coordinates":[5.85669124269,47.5529496769]},"record_timestamp":"2016-05-09T15:17:00+02:00"},{"datasetid":"laposte_hexasmal","recordid":"179dadb2842f5d7628902a8ea03e2970c797e926","fields":{"nom_de_la_commune":"FRETIGNEY ET VELLOREILLE","libell_d_acheminement":"FRETIGNEY ET VELLOREILLE","code_postal":"70130","coordonnees_gps":[47.4895779062,5.93793813227],"code_commune_insee":"70257"},"geometry":{"type":"Point","coordinates":[5.93793813227,47.4895779062]},"record_timestamp":"2016-05-09T15:17:00+02:00"},{"datasetid":"laposte_hexasmal","recordid":"0ed2dc10a5cfd5ce6765520862f2b9252563d6a9","fields":{"nom_de_la_commune":"FROIDETERRE","libell_d_acheminement":"FROIDETERRE","code_postal":"70200","coordonnees_gps":[47.6999427158,6.52495307939],"code_commune_insee":"70259"},"geometry":{"type":"Point","coordinates":[6.52495307939,47.6999427158]},"record_timestamp":"2016-05-09T15:17:00+02:00"},{"datasetid":"laposte_hexasmal","recordid":"346d8aefe94231c7ac780af567d410fee63566a5","fields":{"nom_de_la_commune":"GOURGEON","libell_d_acheminement":"GOURGEON","code_postal":"70120","coordonnees_gps":[47.71794344,5.84745299803],"code_commune_insee":"70272"},"geometry":{"type":"Point","coordinates":[5.84745299803,47.71794344]},"record_timestamp":"2016-05-09T15:17:00+02:00"},{"datasetid":"laposte_hexasmal","recordid":"94e89b0b73fd9a5be4f5b0941b4984b396e97a9f","fields":{"nom_de_la_commune":"GRANGES LA VILLE","libell_d_acheminement":"GRANGES LA VILLE","code_postal":"70400","coordonnees_gps":[47.5673790557,6.56598899284],"code_commune_insee":"70276"},"geometry":{"type":"Point","coordinates":[6.56598899284,47.5673790557]},"record_timestamp":"2016-05-09T15:17:00+02:00"},{"datasetid":"laposte_hexasmal","recordid":"97ad0ed77717d595403ab20403c4aea7c2b94c06","fields":{"nom_de_la_commune":"GRANGES LE BOURG","libell_d_acheminement":"GRANGES LE BOURG","code_postal":"70400","coordonnees_gps":[47.5773603894,6.58761184048],"code_commune_insee":"70277"},"geometry":{"type":"Point","coordinates":[6.58761184048,47.5773603894]},"record_timestamp":"2016-05-09T15:17:00+02:00"},{"datasetid":"laposte_hexasmal","recordid":"e8b2d9a16c696c8da89b2523958ba61279bb7cc3","fields":{"nom_de_la_commune":"HAUT DU THEM CHATEAU LAMBERT","libell_d_acheminement":"HAUT DU THEM CHATEAU LAMBERT","code_postal":"70440","coordonnees_gps":[47.8372151662,6.74620306195],"code_commune_insee":"70283"},"geometry":{"type":"Point","coordinates":[6.74620306195,47.8372151662]},"record_timestamp":"2016-05-09T15:17:00+02:00"},{"datasetid":"laposte_hexasmal","recordid":"ed221a076b344d1dd047aa5d50d8ed820bad772a","fields":{"nom_de_la_commune":"LARRET","libell_d_acheminement":"LARRET","code_postal":"70600","coordonnees_gps":[47.6274401476,5.63279804414],"code_commune_insee":"70297"},"geometry":{"type":"Point","coordinates":[5.63279804414,47.6274401476]},"record_timestamp":"2016-05-09T15:17:00+02:00"},{"datasetid":"laposte_hexasmal","recordid":"a083d1d41120a548fadaddebdc402790c3156093","fields":{"nom_de_la_commune":"LINEXERT","libell_d_acheminement":"LINEXERT","code_postal":"70200","coordonnees_gps":[47.743058957,6.4853079749],"code_commune_insee":"70304"},"geometry":{"type":"Point","coordinates":[6.4853079749,47.743058957]},"record_timestamp":"2016-05-09T15:17:00+02:00"},{"datasetid":"laposte_hexasmal","recordid":"e438daf316b904e4954151766831b83fa2741948","fields":{"nom_de_la_commune":"LUZE","libell_d_acheminement":"LUZE","code_postal":"70400","coordonnees_gps":[47.606620843,6.7184633564],"code_commune_insee":"70312"},"geometry":{"type":"Point","coordinates":[6.7184633564,47.606620843]},"record_timestamp":"2016-05-09T15:17:00+02:00"},{"datasetid":"laposte_hexasmal","recordid":"c411176c2d3ee224229a90f11edcf772b20bd189","fields":{"nom_de_la_commune":"LES MAGNY","libell_d_acheminement":"LES MAGNY","code_postal":"70110","coordonnees_gps":[47.5280243494,6.4414267438],"code_commune_insee":"70317"},"geometry":{"type":"Point","coordinates":[6.4414267438,47.5280243494]},"record_timestamp":"2016-05-09T15:17:00+02:00"},{"datasetid":"laposte_hexasmal","recordid":"c74624e3734ab88871d56e3c256c6bbd15a2c16f","fields":{"nom_de_la_commune":"MAGNY JOBERT","libell_d_acheminement":"MAGNY JOBERT","code_postal":"70200","coordonnees_gps":[47.6470935306,6.61228516531],"code_commune_insee":"70319"},"geometry":{"type":"Point","coordinates":[6.61228516531,47.6470935306]},"record_timestamp":"2016-05-09T15:17:00+02:00"},{"datasetid":"laposte_hexasmal","recordid":"ba856691aaac857d3156f52401c244a187621c39","fields":{"nom_de_la_commune":"MAILLERONCOURT ST PANCRAS","libell_d_acheminement":"MAILLERONCOURT ST PANCRAS","code_postal":"70210","coordonnees_gps":[47.9284392755,6.13912860698],"code_commune_insee":"70323"},"geometry":{"type":"Point","coordinates":[6.13912860698,47.9284392755]},"record_timestamp":"2016-05-09T15:17:00+02:00"},{"datasetid":"laposte_hexasmal","recordid":"0611ce55551b357da88c7c7560653695dfcac055","fields":{"nom_de_la_commune":"MARAST","libell_d_acheminement":"MARAST","code_postal":"70110","coordonnees_gps":[47.5574914951,6.38057064129],"code_commune_insee":"70332"},"geometry":{"type":"Point","coordinates":[6.38057064129,47.5574914951]},"record_timestamp":"2016-05-09T15:17:00+02:00"},{"datasetid":"laposte_hexasmal","recordid":"c7dec1b77bdf847b679ba0a18a1b48dabd3b8060","fields":{"nom_de_la_commune":"MONTCEY","libell_d_acheminement":"MONTCEY","code_postal":"70000","coordonnees_gps":[47.6500350881,6.23995648406],"code_commune_insee":"70358"},"geometry":{"type":"Point","coordinates":[6.23995648406,47.6500350881]},"record_timestamp":"2016-05-09T15:17:00+02:00"},{"datasetid":"laposte_hexasmal","recordid":"4c719db278bd2a67c8e835101d0a76fdf52d9efa","fields":{"nom_de_la_commune":"MONTJUSTIN ET VELOTTE","libell_d_acheminement":"MONTJUSTIN ET VELOTTE","code_postal":"70110","coordonnees_gps":[47.6187013351,6.3745985909],"code_commune_insee":"70364"},"geometry":{"type":"Point","coordinates":[6.3745985909,47.6187013351]},"record_timestamp":"2016-05-09T15:17:00+02:00"},{"datasetid":"laposte_hexasmal","recordid":"b3c3e280d66232e8c36cc9419fe5f25681e82ed5","fields":{"nom_de_la_commune":"VILLERS CHEMIN ET MONT LES ETRELLES","libell_d_acheminement":"VILLERS CHEMIN MONT LES ETRELLES","code_postal":"70700","coordonnees_gps":[47.4429990999,5.87604712509],"code_commune_insee":"70366"},"geometry":{"type":"Point","coordinates":[5.87604712509,47.4429990999]},"record_timestamp":"2016-05-09T15:17:00+02:00"},{"datasetid":"laposte_hexasmal","recordid":"d2c98b346a46cc710833c36700d544f55fdc1cd9","fields":{"nom_de_la_commune":"MONTUREUX ET PRANTIGNY","libell_d_acheminement":"MONTUREUX ET PRANTIGNY","code_postal":"70100","coordonnees_gps":[47.5050359046,5.63005559923],"code_commune_insee":"70371"},"geometry":{"type":"Point","coordinates":[5.63005559923,47.5050359046]},"record_timestamp":"2016-05-09T15:17:00+02:00"},{"datasetid":"laposte_hexasmal","recordid":"d4070b90af671f2b3b8c2bed2f309046a3a8633a","fields":{"nom_de_la_commune":"MONTUREUX LES BAULAY","libell_d_acheminement":"MONTUREUX LES BAULAY","code_postal":"70500","coordonnees_gps":[47.8202221375,5.9796933701],"code_commune_insee":"70372"},"geometry":{"type":"Point","coordinates":[5.9796933701,47.8202221375]},"record_timestamp":"2016-05-09T15:17:00+02:00"},{"datasetid":"laposte_hexasmal","recordid":"584ad2f9669444ffd86293e8e59e915e195b45ca","fields":{"code_postal":"70120","code_commune_insee":"70373","libell_d_acheminement":"LA ROCHE MOREY","ligne_5":"BETONCOURT LES MENETRIERS","nom_de_la_commune":"LA ROCHE MOREY","coordonnees_gps":[47.6947168026,5.75337268526]},"geometry":{"type":"Point","coordinates":[5.75337268526,47.6947168026]},"record_timestamp":"2016-05-09T15:17:00+02:00"},{"datasetid":"laposte_hexasmal","recordid":"dc8966e2dca8d79ea334ed9ec89efb4e6d6b3fef","fields":{"nom_de_la_commune":"MOTEY BESUCHE","libell_d_acheminement":"MOTEY BESUCHE","code_postal":"70140","coordonnees_gps":[47.3053559676,5.66529862225],"code_commune_insee":"70374"},"geometry":{"type":"Point","coordinates":[5.66529862225,47.3053559676]},"record_timestamp":"2016-05-09T15:17:00+02:00"},{"datasetid":"laposte_hexasmal","recordid":"ad5d6ddfdd590c30b00dfa60f9676a15169af307","fields":{"nom_de_la_commune":"OISELAY ET GRACHAUX","libell_d_acheminement":"OISELAY ET GRACHAUX","code_postal":"70700","coordonnees_gps":[47.4265249519,5.92562496608],"code_commune_insee":"70393"},"geometry":{"type":"Point","coordinates":[5.92562496608,47.4265249519]},"record_timestamp":"2016-05-09T15:17:00+02:00"},{"datasetid":"laposte_hexasmal","recordid":"35ee7bc9b071a69145975c2331abf5448feb1ac2","fields":{"nom_de_la_commune":"ORMOY","libell_d_acheminement":"ORMOY","code_postal":"70500","coordonnees_gps":[47.8850612988,5.99402771513],"code_commune_insee":"70399"},"geometry":{"type":"Point","coordinates":[5.99402771513,47.8850612988]},"record_timestamp":"2016-05-09T15:17:00+02:00"},{"datasetid":"laposte_hexasmal","recordid":"36530c589189086489889c0db03cc1f40976e439","fields":{"nom_de_la_commune":"OVANCHES","libell_d_acheminement":"OVANCHES","code_postal":"70360","coordonnees_gps":[47.6291922295,5.95640814876],"code_commune_insee":"70401"},"geometry":{"type":"Point","coordinates":[5.95640814876,47.6291922295]},"record_timestamp":"2016-05-09T15:17:00+02:00"},{"datasetid":"laposte_hexasmal","recordid":"63aeab03430234fbe6ea228d60e54616954ef0ff","fields":{"nom_de_la_commune":"PASSAVANT LA ROCHERE","libell_d_acheminement":"PASSAVANT LA ROCHERE","code_postal":"70210","coordonnees_gps":[47.9842695238,6.05556415808],"code_commune_insee":"70404"},"geometry":{"type":"Point","coordinates":[6.05556415808,47.9842695238]},"record_timestamp":"2016-05-09T15:17:00+02:00"},{"datasetid":"laposte_hexasmal","recordid":"c7336f7e93bf355e56078f7a4b8073229d12a018","fields":{"nom_de_la_commune":"PERROUSE","libell_d_acheminement":"PERROUSE","code_postal":"70190","coordonnees_gps":[47.3669269306,6.04533540615],"code_commune_insee":"70407"},"geometry":{"type":"Point","coordinates":[6.04533540615,47.3669269306]},"record_timestamp":"2016-05-09T15:17:00+02:00"},{"datasetid":"laposte_hexasmal","recordid":"5ac20b59e6cbca7726c7fd8a9ef1a20771ca8ec5","fields":{"nom_de_la_commune":"PIERRECOURT","libell_d_acheminement":"PIERRECOURT","code_postal":"70600","coordonnees_gps":[47.6432505836,5.58620580677],"code_commune_insee":"70409"},"geometry":{"type":"Point","coordinates":[5.58620580677,47.6432505836]},"record_timestamp":"2016-05-09T15:17:00+02:00"},{"datasetid":"laposte_hexasmal","recordid":"75e540e45266c98498945825e6993b1eaa3bcf04","fields":{"nom_de_la_commune":"PIN","libell_d_acheminement":"PIN","code_postal":"70150","coordonnees_gps":[47.3392778996,5.85895219188],"code_commune_insee":"70410"},"geometry":{"type":"Point","coordinates":[5.85895219188,47.3392778996]},"record_timestamp":"2016-05-09T15:17:00+02:00"},{"datasetid":"laposte_hexasmal","recordid":"ceb7bd6cc73497a99c5f65428d747728d1217257","fields":{"nom_de_la_commune":"PLAINEMONT","libell_d_acheminement":"PLAINEMONT","code_postal":"70800","coordonnees_gps":[47.8476581979,6.21792069409],"code_commune_insee":"70412"},"geometry":{"type":"Point","coordinates":[6.21792069409,47.8476581979]},"record_timestamp":"2016-05-09T15:17:00+02:00"},{"datasetid":"laposte_hexasmal","recordid":"d22534174ef4cf643d164a2cf8f1a9101b3d1194","fields":{"code_postal":"70130","code_commune_insee":"70418","libell_d_acheminement":"LA ROMAINE","ligne_5":"GREUCOURT","nom_de_la_commune":"LA ROMAINE","coordonnees_gps":[47.5374721676,5.92263244824]},"geometry":{"type":"Point","coordinates":[5.92263244824,47.5374721676]},"record_timestamp":"2016-05-09T15:17:00+02:00"},{"datasetid":"laposte_hexasmal","recordid":"5659ec55c8b921906ff4a2a0506b5edd63b16c02","fields":{"nom_de_la_commune":"PUSEY","libell_d_acheminement":"PUSEY","code_postal":"70000","coordonnees_gps":[47.6516903952,6.12098049033],"code_commune_insee":"70428"},"geometry":{"type":"Point","coordinates":[6.12098049033,47.6516903952]},"record_timestamp":"2016-05-09T15:17:00+02:00"},{"datasetid":"laposte_hexasmal","recordid":"3e50a8ead5a1da2b64b503de027f83d30ff1dc4b","fields":{"nom_de_la_commune":"QUENOCHE","libell_d_acheminement":"QUENOCHE","code_postal":"70190","coordonnees_gps":[47.4644966479,6.10803014349],"code_commune_insee":"70431"},"geometry":{"type":"Point","coordinates":[6.10803014349,47.4644966479]},"record_timestamp":"2016-05-09T15:17:00+02:00"},{"datasetid":"laposte_hexasmal","recordid":"7c18ce80e0303fbb7a0defef0901843bf4ed6f20","fields":{"nom_de_la_commune":"RAY SUR SAONE","libell_d_acheminement":"RAY SUR SAONE","code_postal":"70130","coordonnees_gps":[47.5911466767,5.81525402096],"code_commune_insee":"70438"},"geometry":{"type":"Point","coordinates":[5.81525402096,47.5911466767]},"record_timestamp":"2016-05-09T15:17:00+02:00"},{"datasetid":"laposte_hexasmal","recordid":"97b61f181edd9d4d8ff2c0ae0b947bd6805082e4","fields":{"nom_de_la_commune":"LA GRANDE RESIE","libell_d_acheminement":"LA GRANDE RESIE","code_postal":"70140","coordonnees_gps":[47.3367024965,5.56326509023],"code_commune_insee":"70443"},"geometry":{"type":"Point","coordinates":[5.56326509023,47.3367024965]},"record_timestamp":"2016-05-09T15:17:00+02:00"},{"datasetid":"laposte_hexasmal","recordid":"74132ab124644e8e49648d0caee8464e21f2788d","fields":{"nom_de_la_commune":"RIGNOVELLE","libell_d_acheminement":"RIGNOVELLE","code_postal":"70200","coordonnees_gps":[47.7652483587,6.47533743202],"code_commune_insee":"70445"},"geometry":{"type":"Point","coordinates":[6.47533743202,47.7652483587]},"record_timestamp":"2016-05-09T15:17:00+02:00"},{"datasetid":"laposte_hexasmal","recordid":"7f51ffc7ba9f6dbd5b2d51c3336cf65788631476","fields":{"nom_de_la_commune":"RIGNY","libell_d_acheminement":"RIGNY","code_postal":"70100","coordonnees_gps":[47.477791361,5.63330799933],"code_commune_insee":"70446"},"geometry":{"type":"Point","coordinates":[5.63330799933,47.477791361]},"record_timestamp":"2016-05-09T15:17:00+02:00"},{"datasetid":"laposte_hexasmal","recordid":"aba16829c7246632563f393654b677e3f30fdcce","fields":{"nom_de_la_commune":"RIOZ","libell_d_acheminement":"RIOZ","code_postal":"70190","coordonnees_gps":[47.4373192173,6.07568807889],"code_commune_insee":"70447"},"geometry":{"type":"Point","coordinates":[6.07568807889,47.4373192173]},"record_timestamp":"2016-05-09T15:17:00+02:00"},{"datasetid":"laposte_hexasmal","recordid":"c2b1b060d0128282ef3a062f543b3bd3b0d9a4fa","fields":{"nom_de_la_commune":"ROCHE LINOTTE ET SORANS CORDIERS","libell_d_acheminement":"ROCHE LINOTTE ET SORANS CORDIERS","code_postal":"70230","coordonnees_gps":[47.4753768003,6.19694981804],"code_commune_insee":"70449"},"geometry":{"type":"Point","coordinates":[6.19694981804,47.4753768003]},"record_timestamp":"2016-05-09T15:17:00+02:00"},{"datasetid":"laposte_hexasmal","recordid":"0b7a51fffb787c2c631d0b9d6c2bca619725fde9","fields":{"nom_de_la_commune":"ST LOUP NANTOUARD","libell_d_acheminement":"ST LOUP NANTOUARD","code_postal":"70100","coordonnees_gps":[47.4305059621,5.72854485774],"code_commune_insee":"70466"},"geometry":{"type":"Point","coordinates":[5.72854485774,47.4305059621]},"record_timestamp":"2016-05-09T15:17:00+02:00"},{"datasetid":"laposte_hexasmal","recordid":"0f66bb368cd5ea0ad29b418e81f5c13c7388537b","fields":{"nom_de_la_commune":"ST SAUVEUR","libell_d_acheminement":"ST SAUVEUR","code_postal":"70300","coordonnees_gps":[47.7954572386,6.39510352305],"code_commune_insee":"70473"},"geometry":{"type":"Point","coordinates":[6.39510352305,47.7954572386]},"record_timestamp":"2016-05-09T15:17:00+02:00"},{"datasetid":"laposte_hexasmal","recordid":"9e6099fcac845e8e2a89b3a73c32c0187c39d8ee","fields":{"code_postal":"70400","code_commune_insee":"70477","libell_d_acheminement":"SAULNOT","ligne_5":"GONVILLARS","nom_de_la_commune":"SAULNOT","coordonnees_gps":[47.5703099756,6.62953525499]},"geometry":{"type":"Point","coordinates":[6.62953525499,47.5703099756]},"record_timestamp":"2016-05-09T15:17:00+02:00"},{"datasetid":"laposte_hexasmal","recordid":"f187bccc530b3ea311b6ac70f4268acc3c9e4c12","fields":{"nom_de_la_commune":"SAUVIGNEY LES PESMES","libell_d_acheminement":"SAUVIGNEY LES PESMES","code_postal":"70140","coordonnees_gps":[47.3068166664,5.56895996428],"code_commune_insee":"70480"},"geometry":{"type":"Point","coordinates":[5.56895996428,47.3068166664]},"record_timestamp":"2016-05-09T15:17:00+02:00"},{"datasetid":"laposte_hexasmal","recordid":"26c36527ee21601ab6d77a80a78fc892a0335ade","fields":{"nom_de_la_commune":"SEMMADON","libell_d_acheminement":"SEMMADON","code_postal":"70120","coordonnees_gps":[47.7396556417,5.8813057187],"code_commune_insee":"70486"},"geometry":{"type":"Point","coordinates":[5.8813057187,47.7396556417]},"record_timestamp":"2016-05-09T15:17:00+02:00"},{"datasetid":"laposte_hexasmal","recordid":"0deb7f96afb59da9735fae93f89e08ba836d2cb7","fields":{"nom_de_la_commune":"SERVANCE","libell_d_acheminement":"SERVANCE","code_postal":"70440","coordonnees_gps":[47.8257288068,6.68597884501],"code_commune_insee":"70489"},"geometry":{"type":"Point","coordinates":[6.68597884501,47.8257288068]},"record_timestamp":"2016-05-09T15:17:00+02:00"},{"datasetid":"laposte_hexasmal","recordid":"db71bc090d24e2b50d02014578c8d67711cc5b60","fields":{"nom_de_la_commune":"SERVIGNEY","libell_d_acheminement":"SERVIGNEY","code_postal":"70240","coordonnees_gps":[47.7303296374,6.29784435036],"code_commune_insee":"70490"},"geometry":{"type":"Point","coordinates":[6.29784435036,47.7303296374]},"record_timestamp":"2016-05-09T15:17:00+02:00"},{"datasetid":"laposte_hexasmal","recordid":"a9faca8453140207476f7c66d8a6d2b91f08b761","fields":{"code_postal":"70130","code_commune_insee":"70492","libell_d_acheminement":"SOING CUBRY CHARENTENAY","ligne_5":"CHARENTENAY","nom_de_la_commune":"SOING CUBRY CHARENTENAY","coordonnees_gps":[47.5851238509,5.88891675749]},"geometry":{"type":"Point","coordinates":[5.88891675749,47.5851238509]},"record_timestamp":"2016-05-09T15:17:00+02:00"},{"datasetid":"laposte_hexasmal","recordid":"e6eb23da82d16cb668ffb9c7dd2b24082db6820d","fields":{"nom_de_la_commune":"TRAVES","libell_d_acheminement":"TRAVES","code_postal":"70360","coordonnees_gps":[47.6060894924,5.96272642453],"code_commune_insee":"70504"},"geometry":{"type":"Point","coordinates":[5.96272642453,47.6060894924]},"record_timestamp":"2016-05-09T15:17:00+02:00"},{"datasetid":"laposte_hexasmal","recordid":"b80b201198ccba6ee30fb1d8903b3d18fff7c949","fields":{"nom_de_la_commune":"VALAY","libell_d_acheminement":"VALAY","code_postal":"70140","coordonnees_gps":[47.3357551317,5.63755798352],"code_commune_insee":"70514"},"geometry":{"type":"Point","coordinates":[5.63755798352,47.3357551317]},"record_timestamp":"2016-05-09T15:17:00+02:00"},{"datasetid":"laposte_hexasmal","recordid":"49319938a62656865c9f6e336761181560f8eb52","fields":{"nom_de_la_commune":"VAROGNE","libell_d_acheminement":"VAROGNE","code_postal":"70240","coordonnees_gps":[47.7190126678,6.20728397771],"code_commune_insee":"70522"},"geometry":{"type":"Point","coordinates":[6.20728397771,47.7190126678]},"record_timestamp":"2016-05-09T15:17:00+02:00"},{"datasetid":"laposte_hexasmal","recordid":"9a4a61144a37185c824b1c306acb8893870a1669","fields":{"nom_de_la_commune":"VARS","libell_d_acheminement":"VARS","code_postal":"70600","coordonnees_gps":[47.5377653039,5.52005449376],"code_commune_insee":"70523"},"geometry":{"type":"Point","coordinates":[5.52005449376,47.5377653039]},"record_timestamp":"2016-05-09T15:17:00+02:00"},{"datasetid":"laposte_hexasmal","recordid":"ee606fa7ca6989ec974603c112014eda75add99b","fields":{"nom_de_la_commune":"VAUCONCOURT NERVEZAIN","libell_d_acheminement":"VAUCONCOURT NERVEZAIN","code_postal":"70120","coordonnees_gps":[47.657168298,5.83264558833],"code_commune_insee":"70525"},"geometry":{"type":"Point","coordinates":[5.83264558833,47.657168298]},"record_timestamp":"2016-05-09T15:17:00+02:00"},{"datasetid":"laposte_hexasmal","recordid":"e715ceea852528d0901cfe8daff24fc3aa13c49f","fields":{"nom_de_la_commune":"VELLECLAIRE","libell_d_acheminement":"VELLECLAIRE","code_postal":"70700","coordonnees_gps":[47.4257773503,5.87383892919],"code_commune_insee":"70531"},"geometry":{"type":"Point","coordinates":[5.87383892919,47.4257773503]},"record_timestamp":"2016-05-09T15:17:00+02:00"},{"datasetid":"laposte_hexasmal","recordid":"a220cb5c9114d187b777014dbc82bcc1e1e3e7f1","fields":{"nom_de_la_commune":"VELLEMINFROY","libell_d_acheminement":"VELLEMINFROY","code_postal":"70240","coordonnees_gps":[47.6600380526,6.31768021672],"code_commune_insee":"70537"},"geometry":{"type":"Point","coordinates":[6.31768021672,47.6600380526]},"record_timestamp":"2016-05-09T15:17:00+02:00"},{"datasetid":"laposte_hexasmal","recordid":"e5ed246023e0f8461dbca7a608fd181d03260927","fields":{"nom_de_la_commune":"VELLEMOZ","libell_d_acheminement":"VELLEMOZ","code_postal":"70700","coordonnees_gps":[47.4766541807,5.79152233813],"code_commune_insee":"70538"},"geometry":{"type":"Point","coordinates":[5.79152233813,47.4766541807]},"record_timestamp":"2016-05-09T15:17:00+02:00"},{"datasetid":"laposte_hexasmal","recordid":"73732338f5aa5e25ad5d044316dff74122f6f281","fields":{"nom_de_la_commune":"VILLEPAROIS","libell_d_acheminement":"VILLEPAROIS","code_postal":"70000","coordonnees_gps":[47.6635986725,6.18151955342],"code_commune_insee":"70559"},"geometry":{"type":"Point","coordinates":[6.18151955342,47.6635986725]},"record_timestamp":"2016-05-09T15:17:00+02:00"},{"datasetid":"laposte_hexasmal","recordid":"387041a3e293da0005185702837ac7acb161113c","fields":{"nom_de_la_commune":"VILLERS SUR SAULNOT","libell_d_acheminement":"VILLERS SUR SAULNOT","code_postal":"70400","coordonnees_gps":[47.5481669716,6.64791604275],"code_commune_insee":"70567"},"geometry":{"type":"Point","coordinates":[6.64791604275,47.5481669716]},"record_timestamp":"2016-05-09T15:17:00+02:00"},{"datasetid":"laposte_hexasmal","recordid":"99cff0d9e1b7b672d1b9e1e238089ab1c7a2c5d7","fields":{"nom_de_la_commune":"VILLERS VAUDEY","libell_d_acheminement":"VILLERS VAUDEY","code_postal":"70120","coordonnees_gps":[47.6735158749,5.75631215452],"code_commune_insee":"70568"},"geometry":{"type":"Point","coordinates":[5.75631215452,47.6735158749]},"record_timestamp":"2016-05-09T15:17:00+02:00"},{"datasetid":"laposte_hexasmal","recordid":"c18b97943a86d4b7f2524444547143ba22533790","fields":{"nom_de_la_commune":"VISONCOURT","libell_d_acheminement":"VISONCOURT","code_postal":"70300","coordonnees_gps":[47.7522729682,6.29965399455],"code_commune_insee":"70571"},"geometry":{"type":"Point","coordinates":[6.29965399455,47.7522729682]},"record_timestamp":"2016-05-09T15:17:00+02:00"},{"datasetid":"laposte_hexasmal","recordid":"6dfa231cfc84504a0b10a10be2f8714eaeb354e1","fields":{"nom_de_la_commune":"VREGILLE","libell_d_acheminement":"VREGILLE","code_postal":"70150","coordonnees_gps":[47.3308670504,5.8868762035],"code_commune_insee":"70578"},"geometry":{"type":"Point","coordinates":[5.8868762035,47.3308670504]},"record_timestamp":"2016-05-09T15:17:00+02:00"},{"datasetid":"laposte_hexasmal","recordid":"f6e34ab32ad0238c93b10f7109f85335d606a796","fields":{"nom_de_la_commune":"VY LES LURE","libell_d_acheminement":"VY LES LURE","code_postal":"70200","coordonnees_gps":[47.650001251,6.44237601386],"code_commune_insee":"70581"},"geometry":{"type":"Point","coordinates":[6.44237601386,47.650001251]},"record_timestamp":"2016-05-09T15:17:00+02:00"},{"datasetid":"laposte_hexasmal","recordid":"f1b371a52913ee7ef69afc2185697999cf3dc3fa","fields":{"nom_de_la_commune":"AMANCE","libell_d_acheminement":"AMANCE","code_postal":"70160","coordonnees_gps":[47.7905088546,6.05331685795],"code_commune_insee":"70012"},"geometry":{"type":"Point","coordinates":[6.05331685795,47.7905088546]},"record_timestamp":"2016-05-09T15:17:00+02:00"},{"datasetid":"laposte_hexasmal","recordid":"fd55722275170e6f783f738ad05a3f521d72b0ac","fields":{"nom_de_la_commune":"ANGIREY","libell_d_acheminement":"ANGIREY","code_postal":"70700","coordonnees_gps":[47.4548843773,5.77329895236],"code_commune_insee":"70022"},"geometry":{"type":"Point","coordinates":[5.77329895236,47.4548843773]},"record_timestamp":"2016-05-09T15:17:00+02:00"},{"datasetid":"laposte_hexasmal","recordid":"9991b2d6bdf69a71ac800538220bcfbd6a4f43bc","fields":{"nom_de_la_commune":"APREMONT","libell_d_acheminement":"APREMONT","code_postal":"70100","coordonnees_gps":[47.3925481381,5.52972879286],"code_commune_insee":"70024"},"geometry":{"type":"Point","coordinates":[5.52972879286,47.3925481381]},"record_timestamp":"2016-05-09T15:17:00+02:00"},{"datasetid":"laposte_hexasmal","recordid":"02011ebb552c12af1988e30755e28719c722959c","fields":{"nom_de_la_commune":"AROZ","libell_d_acheminement":"AROZ","code_postal":"70360","coordonnees_gps":[47.6138842426,6.00554228377],"code_commune_insee":"70028"},"geometry":{"type":"Point","coordinates":[6.00554228377,47.6138842426]},"record_timestamp":"2016-05-09T15:17:00+02:00"},{"datasetid":"laposte_hexasmal","recordid":"acb54978b1343434806bc7abba7817a54c019486","fields":{"nom_de_la_commune":"ARPENANS","libell_d_acheminement":"ARPENANS","code_postal":"70200","coordonnees_gps":[47.6208422399,6.41263553144],"code_commune_insee":"70029"},"geometry":{"type":"Point","coordinates":[6.41263553144,47.6208422399]},"record_timestamp":"2016-05-09T15:17:00+02:00"},{"datasetid":"laposte_hexasmal","recordid":"0bc4c5454fc70afe6e86a2afceae7aad204b2982","fields":{"nom_de_la_commune":"ATHESANS ETROITEFONTAINE","libell_d_acheminement":"ATHESANS ETROITEFONTAINE","code_postal":"70110","coordonnees_gps":[47.5942889134,6.51510882516],"code_commune_insee":"70031"},"geometry":{"type":"Point","coordinates":[6.51510882516,47.5942889134]},"record_timestamp":"2016-05-09T15:17:00+02:00"},{"datasetid":"laposte_hexasmal","recordid":"cd28f8e6ade75876cdb50a66274f4ec9d8bacb4e","fields":{"code_postal":"70110","code_commune_insee":"70031","libell_d_acheminement":"ATHESANS ETROITEFONTAINE","ligne_5":"ETROITEFONTAINE","nom_de_la_commune":"ATHESANS ETROITEFONTAINE","coordonnees_gps":[47.5942889134,6.51510882516]},"geometry":{"type":"Point","coordinates":[6.51510882516,47.5942889134]},"record_timestamp":"2016-05-09T15:17:00+02:00"},{"datasetid":"laposte_hexasmal","recordid":"9cbadb6021f72a3d79bedcb2c7b754f166cd43f0","fields":{"nom_de_la_commune":"AUTET","libell_d_acheminement":"AUTET","code_postal":"70180","coordonnees_gps":[47.545285848,5.70067460474],"code_commune_insee":"70037"},"geometry":{"type":"Point","coordinates":[5.70067460474,47.545285848]},"record_timestamp":"2016-05-09T15:17:00+02:00"},{"datasetid":"laposte_hexasmal","recordid":"f2b0e790ff4d693636fba6459c84bc1b8e146f82","fields":{"nom_de_la_commune":"AUTREY LES CERRE","libell_d_acheminement":"AUTREY LES CERRE","code_postal":"70110","coordonnees_gps":[47.6127923276,6.34600936361],"code_commune_insee":"70040"},"geometry":{"type":"Point","coordinates":[6.34600936361,47.6127923276]},"record_timestamp":"2016-05-09T15:17:00+02:00"},{"datasetid":"laposte_hexasmal","recordid":"46d620b9dfd2cc904f222b35f4d2a2ea3162a1b6","fields":{"nom_de_la_commune":"AUTREY LE VAY","libell_d_acheminement":"AUTREY LE VAY","code_postal":"70110","coordonnees_gps":[47.5364102911,6.39638774962],"code_commune_insee":"70042"},"geometry":{"type":"Point","coordinates":[6.39638774962,47.5364102911]},"record_timestamp":"2016-05-09T15:17:00+02:00"},{"datasetid":"laposte_hexasmal","recordid":"e659721519a646c9a9e2597644ef0d4f704d5719","fields":{"code_postal":"70150","code_commune_insee":"70045","libell_d_acheminement":"AVRIGNEY VIREY","ligne_5":"VIREY","nom_de_la_commune":"AVRIGNEY VIREY","coordonnees_gps":[47.3393039112,5.77571250318]},"geometry":{"type":"Point","coordinates":[5.77571250318,47.3393039112]},"record_timestamp":"2016-05-09T15:17:00+02:00"},{"datasetid":"laposte_hexasmal","recordid":"d0aaa741ec9eeee7dbe34735390a9ecfc25702be","fields":{"nom_de_la_commune":"BEAUMOTTE AUBERTANS","libell_d_acheminement":"BEAUMOTTE AUBERTANS","code_postal":"70190","coordonnees_gps":[47.433936502,6.16129269067],"code_commune_insee":"70059"},"geometry":{"type":"Point","coordinates":[6.16129269067,47.433936502]},"record_timestamp":"2016-05-09T15:17:00+02:00"},{"datasetid":"laposte_hexasmal","recordid":"12d9640bd48917d5f74b3ccd48283a22e33fb7b0","fields":{"nom_de_la_commune":"BELFAHY","libell_d_acheminement":"BELFAHY","code_postal":"70290","coordonnees_gps":[47.7864934066,6.73204100977],"code_commune_insee":"70061"},"geometry":{"type":"Point","coordinates":[6.73204100977,47.7864934066]},"record_timestamp":"2016-05-09T15:17:00+02:00"},{"datasetid":"laposte_hexasmal","recordid":"577954859a0d638ddcd21c398d55e16249c93515","fields":{"nom_de_la_commune":"BETONCOURT SUR MANCE","libell_d_acheminement":"BETONCOURT SUR MANCE","code_postal":"70500","coordonnees_gps":[47.8378409607,5.75511684653],"code_commune_insee":"70070"},"geometry":{"type":"Point","coordinates":[5.75511684653,47.8378409607]},"record_timestamp":"2016-05-09T15:17:00+02:00"},{"datasetid":"laposte_hexasmal","recordid":"ecfa5ec906a6ba9ebad8ae8592dadf63631cc66e","fields":{"nom_de_la_commune":"BEULOTTE ST LAURENT","libell_d_acheminement":"BEULOTTE ST LAURENT","code_postal":"70310","coordonnees_gps":[47.8688160594,6.67305784472],"code_commune_insee":"70071"},"geometry":{"type":"Point","coordinates":[6.67305784472,47.8688160594]},"record_timestamp":"2016-05-09T15:17:00+02:00"},{"datasetid":"laposte_hexasmal","recordid":"8e1aa3737b7360f5af885eb6eaf4267b79ec72c9","fields":{"nom_de_la_commune":"BEVEUGE","libell_d_acheminement":"BEVEUGE","code_postal":"70110","coordonnees_gps":[47.5598685555,6.49132432795],"code_commune_insee":"70072"},"geometry":{"type":"Point","coordinates":[6.49132432795,47.5598685555]},"record_timestamp":"2016-05-09T15:17:00+02:00"},{"datasetid":"laposte_hexasmal","recordid":"71c06dab0e8464bc4e8eb15c06106c3b53a2877f","fields":{"nom_de_la_commune":"BOUGNON","libell_d_acheminement":"BOUGNON","code_postal":"70170","coordonnees_gps":[47.6948892117,6.10776977153],"code_commune_insee":"70079"},"geometry":{"type":"Point","coordinates":[6.10776977153,47.6948892117]},"record_timestamp":"2016-05-09T15:17:00+02:00"},{"datasetid":"laposte_hexasmal","recordid":"409ff07d119380a0e5b7eb4ea9976a3a59e82713","fields":{"nom_de_la_commune":"BOUHANS LES MONTBOZON","libell_d_acheminement":"BOUHANS LES MONTBOZON","code_postal":"70230","coordonnees_gps":[47.4858934785,6.28045727501],"code_commune_insee":"70082"},"geometry":{"type":"Point","coordinates":[6.28045727501,47.4858934785]},"record_timestamp":"2016-05-09T15:17:00+02:00"},{"datasetid":"laposte_hexasmal","recordid":"45d8d74dbc56f5de5a1eaafa8dacaf43d664adde","fields":{"nom_de_la_commune":"BOULT","libell_d_acheminement":"BOULT","code_postal":"70190","coordonnees_gps":[47.3845989346,6.00252108883],"code_commune_insee":"70085"},"geometry":{"type":"Point","coordinates":[6.00252108883,47.3845989346]},"record_timestamp":"2016-05-09T15:17:00+02:00"},{"datasetid":"laposte_hexasmal","recordid":"db99ef7af78911ada26bd5140176978a007acec7","fields":{"nom_de_la_commune":"BOURGUIGNON LES MOREY","libell_d_acheminement":"BOURGUIGNON LES MOREY","code_postal":"70120","coordonnees_gps":[47.7073928525,5.70735229173],"code_commune_insee":"70089"},"geometry":{"type":"Point","coordinates":[5.70735229173,47.7073928525]},"record_timestamp":"2016-05-09T15:17:00+02:00"},{"datasetid":"laposte_hexasmal","recordid":"4881ce628755530a4793edc89ebcb481c81bdd17","fields":{"nom_de_la_commune":"BROYE AUBIGNEY MONTSEUGNY","libell_d_acheminement":"BROYE AUBIGNEY MONTSEUGNY","code_postal":"70140","coordonnees_gps":[47.3305692734,5.5187191763],"code_commune_insee":"70101"},"geometry":{"type":"Point","coordinates":[5.5187191763,47.3305692734]},"record_timestamp":"2016-05-09T15:17:00+02:00"},{"datasetid":"laposte_hexasmal","recordid":"34c62789ee2e7c8859a0f845610ed3e11ab127d5","fields":{"nom_de_la_commune":"CENDRECOURT","libell_d_acheminement":"CENDRECOURT","code_postal":"70500","coordonnees_gps":[47.8396085675,5.93861883331],"code_commune_insee":"70114"},"geometry":{"type":"Point","coordinates":[5.93861883331,47.8396085675]},"record_timestamp":"2016-05-09T15:17:00+02:00"},{"datasetid":"laposte_hexasmal","recordid":"969988841a2ea49161b2864947006d9ae1da58a9","fields":{"nom_de_la_commune":"CHALONVILLARS","libell_d_acheminement":"CHALONVILLARS","code_postal":"70400","coordonnees_gps":[47.6376239575,6.77677655233],"code_commune_insee":"70117"},"geometry":{"type":"Point","coordinates":[6.77677655233,47.6376239575]},"record_timestamp":"2016-05-09T15:17:00+02:00"},{"datasetid":"laposte_hexasmal","recordid":"38bf2eddc8f7c3391de231851108ddcd558b69af","fields":{"nom_de_la_commune":"CHAMBORNAY LES BELLEVAUX","libell_d_acheminement":"CHAMBORNAY LES BELLEVAUX","code_postal":"70190","coordonnees_gps":[47.3958807638,6.10214510229],"code_commune_insee":"70118"},"geometry":{"type":"Point","coordinates":[6.10214510229,47.3958807638]},"record_timestamp":"2016-05-09T15:17:00+02:00"},{"datasetid":"laposte_hexasmal","recordid":"74b667289c2311ccaa2e2db8042828873319cb65","fields":{"nom_de_la_commune":"CHAMPAGNEY","libell_d_acheminement":"CHAMPAGNEY","code_postal":"70290","coordonnees_gps":[47.6950851655,6.68822303825],"code_commune_insee":"70120"},"geometry":{"type":"Point","coordinates":[6.68822303825,47.6950851655]},"record_timestamp":"2016-05-09T15:17:00+02:00"},{"datasetid":"laposte_hexasmal","recordid":"c40069e60888dd5c397f9f1c1528c0a022796174","fields":{"nom_de_la_commune":"CHAMPLITTE","libell_d_acheminement":"CHAMPLITTE","code_postal":"70600","coordonnees_gps":[47.6322292317,5.51329036822],"code_commune_insee":"70122"},"geometry":{"type":"Point","coordinates":[5.51329036822,47.6322292317]},"record_timestamp":"2016-05-09T15:17:00+02:00"},{"datasetid":"laposte_hexasmal","recordid":"c61f4ad2cd7dad8aedb10ee525563b850288dd26","fields":{"nom_de_la_commune":"CHARGEY LES GRAY","libell_d_acheminement":"CHARGEY LES GRAY","code_postal":"70100","coordonnees_gps":[47.4928980658,5.57884831818],"code_commune_insee":"70132"},"geometry":{"type":"Point","coordinates":[5.57884831818,47.4928980658]},"record_timestamp":"2016-05-09T15:17:00+02:00"},{"datasetid":"laposte_hexasmal","recordid":"a133f899ed1b0a0fd734d18fc4d003085bf177fd","fields":{"nom_de_la_commune":"CHASSEY LES MONTBOZON","libell_d_acheminement":"CHASSEY LES MONTBOZON","code_postal":"70230","coordonnees_gps":[47.5237818332,6.32649306031],"code_commune_insee":"70137"},"geometry":{"type":"Point","coordinates":[6.32649306031,47.5237818332]},"record_timestamp":"2016-05-09T15:17:00+02:00"},{"datasetid":"laposte_hexasmal","recordid":"f03423ed50650d5d99ac2f1a3e6cf3f47718877b","fields":{"nom_de_la_commune":"CHAUMERCENNE","libell_d_acheminement":"CHAUMERCENNE","code_postal":"70140","coordonnees_gps":[47.3018644976,5.6263734239],"code_commune_insee":"70142"},"geometry":{"type":"Point","coordinates":[5.6263734239,47.3018644976]},"record_timestamp":"2016-05-09T15:17:00+02:00"},{"datasetid":"laposte_hexasmal","recordid":"29ff0014273fa5b4454c7c5a51fcad7860924d45","fields":{"nom_de_la_commune":"CHAUX LA LOTIERE","libell_d_acheminement":"CHAUX LA LOTIERE","code_postal":"70190","coordonnees_gps":[47.3822996917,5.96780533315],"code_commune_insee":"70145"},"geometry":{"type":"Point","coordinates":[5.96780533315,47.3822996917]},"record_timestamp":"2016-05-09T15:17:00+02:00"},{"datasetid":"laposte_hexasmal","recordid":"2380f7e20528c53bd20d485f8ffb77a04b736900","fields":{"nom_de_la_commune":"CHAVANNE","libell_d_acheminement":"CHAVANNE","code_postal":"70400","coordonnees_gps":[47.5588510857,6.65836633701],"code_commune_insee":"70147"},"geometry":{"type":"Point","coordinates":[6.65836633701,47.5588510857]},"record_timestamp":"2016-05-09T15:17:00+02:00"},{"datasetid":"laposte_hexasmal","recordid":"5dd8c89099de7f13e143bebc558bf841cb3e0cbd","fields":{"nom_de_la_commune":"CINTREY","libell_d_acheminement":"CINTREY","code_postal":"70120","coordonnees_gps":[47.7535156501,5.75205214351],"code_commune_insee":"70153"},"geometry":{"type":"Point","coordinates":[5.75205214351,47.7535156501]},"record_timestamp":"2016-05-09T15:17:00+02:00"},{"datasetid":"laposte_hexasmal","recordid":"7c09ee1d88bf874827d2fefbd88b84a5f7208f1f","fields":{"nom_de_la_commune":"CONFRACOURT","libell_d_acheminement":"CONFRACOURT","code_postal":"70120","coordonnees_gps":[47.6738636873,5.88867029246],"code_commune_insee":"70169"},"geometry":{"type":"Point","coordinates":[5.88867029246,47.6738636873]},"record_timestamp":"2016-05-09T15:17:00+02:00"},{"datasetid":"laposte_hexasmal","recordid":"01ca676e6cad5eaea90410a7bb69e1fddd5aae04","fields":{"nom_de_la_commune":"CRESANCEY","libell_d_acheminement":"CRESANCEY","code_postal":"70100","coordonnees_gps":[47.3995870288,5.64879435364],"code_commune_insee":"70185"},"geometry":{"type":"Point","coordinates":[5.64879435364,47.3995870288]},"record_timestamp":"2016-05-09T15:17:00+02:00"},{"datasetid":"laposte_hexasmal","recordid":"7aa3c8a52ee57b1ce624bbcc93d94c7b8c168829","fields":{"nom_de_la_commune":"CUGNEY","libell_d_acheminement":"CUGNEY","code_postal":"70700","coordonnees_gps":[47.3643480364,5.71977368998],"code_commune_insee":"70192"},"geometry":{"type":"Point","coordinates":[5.71977368998,47.3643480364]},"record_timestamp":"2016-05-09T15:17:00+02:00"},{"datasetid":"laposte_hexasmal","recordid":"6b2d4c13f4d90e71428d152a5dd496ca6a16727b","fields":{"nom_de_la_commune":"DAMPIERRE LES CONFLANS","libell_d_acheminement":"DAMPIERRE LES CONFLANS","code_postal":"70800","coordonnees_gps":[47.8446617435,6.17930368282],"code_commune_insee":"70196"},"geometry":{"type":"Point","coordinates":[6.17930368282,47.8446617435]},"record_timestamp":"2016-05-09T15:17:00+02:00"},{"datasetid":"laposte_hexasmal","recordid":"a559a0ca13d9c263a65b02f8f9d9f455504811ab","fields":{"code_postal":"70230","code_commune_insee":"70197","libell_d_acheminement":"DAMPIERRE SUR LINOTTE","ligne_5":"PRESLE","nom_de_la_commune":"DAMPIERRE SUR LINOTTE","coordonnees_gps":[47.5328760062,6.24208585386]},"geometry":{"type":"Point","coordinates":[6.24208585386,47.5328760062]},"record_timestamp":"2016-05-09T15:17:00+02:00"},{"datasetid":"laposte_hexasmal","recordid":"53abe9b589851fc56a7a194d837bed2b98407eb6","fields":{"nom_de_la_commune":"ECROMAGNY","libell_d_acheminement":"ECROMAGNY","code_postal":"70270","coordonnees_gps":[47.7931932241,6.56449460002],"code_commune_insee":"70210"},"geometry":{"type":"Point","coordinates":[6.56449460002,47.7931932241]},"record_timestamp":"2016-05-09T15:17:00+02:00"},{"datasetid":"laposte_hexasmal","recordid":"de1abf7237dda8c60595308a5e0fcc50ddbacdc1","fields":{"nom_de_la_commune":"FAHY LES AUTREY","libell_d_acheminement":"FAHY LES AUTREY","code_postal":"70100","coordonnees_gps":[47.5121531962,5.47718136994],"code_commune_insee":"70225"},"geometry":{"type":"Point","coordinates":[5.47718136994,47.5121531962]},"record_timestamp":"2016-05-09T15:17:00+02:00"},{"datasetid":"laposte_hexasmal","recordid":"beb7f2b015587be9b76e463072463b9e78a083bc","fields":{"nom_de_la_commune":"FAUCOGNEY ET LA MER","libell_d_acheminement":"FAUCOGNEY ET LA MER","code_postal":"70310","coordonnees_gps":[47.8319641353,6.5834328372],"code_commune_insee":"70227"},"geometry":{"type":"Point","coordinates":[6.5834328372,47.8319641353]},"record_timestamp":"2016-05-09T15:17:00+02:00"},{"datasetid":"laposte_hexasmal","recordid":"4f0d4139edc22d305386b6e803de09dd76c161f9","fields":{"nom_de_la_commune":"FAVERNEY","libell_d_acheminement":"FAVERNEY","code_postal":"70160","coordonnees_gps":[47.7661040283,6.07998850446],"code_commune_insee":"70228"},"geometry":{"type":"Point","coordinates":[6.07998850446,47.7661040283]},"record_timestamp":"2016-05-09T15:17:00+02:00"},{"datasetid":"laposte_hexasmal","recordid":"7bb8030d565745194ac37612feee4c74d5bea700","fields":{"nom_de_la_commune":"FAYMONT","libell_d_acheminement":"FAYMONT","code_postal":"70200","coordonnees_gps":[47.6057038041,6.5983082828],"code_commune_insee":"70229"},"geometry":{"type":"Point","coordinates":[6.5983082828,47.6057038041]},"record_timestamp":"2016-05-09T15:17:00+02:00"},{"datasetid":"laposte_hexasmal","recordid":"b9634a69fc00ca5815751d1672ee9ebea5407edb","fields":{"nom_de_la_commune":"FEDRY","libell_d_acheminement":"FEDRY","code_postal":"70120","coordonnees_gps":[47.6150426161,5.87835228178],"code_commune_insee":"70230"},"geometry":{"type":"Point","coordinates":[5.87835228178,47.6150426161]},"record_timestamp":"2016-05-09T15:17:00+02:00"},{"datasetid":"laposte_hexasmal","recordid":"559c75801a27f938ea312b65cc71409cc931433d","fields":{"nom_de_la_commune":"FILAIN","libell_d_acheminement":"FILAIN","code_postal":"70230","coordonnees_gps":[47.5253906128,6.17761888679],"code_commune_insee":"70234"},"geometry":{"type":"Point","coordinates":[6.17761888679,47.5253906128]},"record_timestamp":"2016-05-09T15:17:00+02:00"},{"datasetid":"laposte_hexasmal","recordid":"8acfbb907191e729f7defdd07926db431287d538","fields":{"nom_de_la_commune":"FONDREMAND","libell_d_acheminement":"FONDREMAND","code_postal":"70190","coordonnees_gps":[47.4719327079,6.02806238503],"code_commune_insee":"70239"},"geometry":{"type":"Point","coordinates":[6.02806238503,47.4719327079]},"record_timestamp":"2016-05-09T15:17:00+02:00"},{"datasetid":"laposte_hexasmal","recordid":"c4331845fee4ba0326791fe177ce1a95cd9a6f31","fields":{"nom_de_la_commune":"FONTENOIS LA VILLE","libell_d_acheminement":"FONTENOIS LA VILLE","code_postal":"70210","coordonnees_gps":[47.9384558945,6.17553487571],"code_commune_insee":"70242"},"geometry":{"type":"Point","coordinates":[6.17553487571,47.9384558945]},"record_timestamp":"2016-05-09T15:17:00+02:00"},{"datasetid":"laposte_hexasmal","recordid":"b679ac9adaebc3c12d12910389a9b7d14651c418","fields":{"code_postal":"70600","code_commune_insee":"70247","libell_d_acheminement":"FOUVENT ST ANDOCHE","ligne_5":"FOUVENT LE BAS","nom_de_la_commune":"FOUVENT ST ANDOCHE","coordonnees_gps":[47.6505541505,5.6722095809]},"geometry":{"type":"Point","coordinates":[5.6722095809,47.6505541505]},"record_timestamp":"2016-05-09T15:17:00+02:00"},{"datasetid":"laposte_hexasmal","recordid":"8e61977b653c97c204644edde76d4363767b9bd2","fields":{"code_postal":"70600","code_commune_insee":"70247","libell_d_acheminement":"FOUVENT ST ANDOCHE","ligne_5":"ST ANDOCHE","nom_de_la_commune":"FOUVENT ST ANDOCHE","coordonnees_gps":[47.6505541505,5.6722095809]},"geometry":{"type":"Point","coordinates":[5.6722095809,47.6505541505]},"record_timestamp":"2016-05-09T15:17:00+02:00"},{"datasetid":"laposte_hexasmal","recordid":"1b642e8b8f7ca9131d4a9d21c41e58a1dbb4a75c","fields":{"nom_de_la_commune":"FRAMONT","libell_d_acheminement":"FRAMONT","code_postal":"70600","coordonnees_gps":[47.5716187406,5.5798394253],"code_commune_insee":"70252"},"geometry":{"type":"Point","coordinates":[5.5798394253,47.5716187406]},"record_timestamp":"2016-05-09T15:17:00+02:00"},{"datasetid":"laposte_hexasmal","recordid":"9b3f4301eaa52501f59610cc9b7937739f66ea01","fields":{"code_postal":"70600","code_commune_insee":"70252","libell_d_acheminement":"FRAMONT","ligne_5":"MONT LE FRANOIS","nom_de_la_commune":"FRAMONT","coordonnees_gps":[47.5716187406,5.5798394253]},"geometry":{"type":"Point","coordinates":[5.5798394253,47.5716187406]},"record_timestamp":"2016-05-09T15:17:00+02:00"},{"datasetid":"laposte_hexasmal","recordid":"0b27dc3d450a38fef10ae5eb139548293fcca682","fields":{"nom_de_la_commune":"FREDERIC FONTAINE","libell_d_acheminement":"FREDERIC FONTAINE","code_postal":"70200","coordonnees_gps":[47.6511337429,6.63272946066],"code_commune_insee":"70254"},"geometry":{"type":"Point","coordinates":[6.63272946066,47.6511337429]},"record_timestamp":"2016-05-09T15:17:00+02:00"},{"datasetid":"laposte_hexasmal","recordid":"66390a3d80c17109b50d9b3ab8bf3082e40968a5","fields":{"nom_de_la_commune":"FRESSE","libell_d_acheminement":"FRESSE","code_postal":"70270","coordonnees_gps":[47.76130687,6.6753666512],"code_commune_insee":"70256"},"geometry":{"type":"Point","coordinates":[6.6753666512,47.76130687]},"record_timestamp":"2016-05-09T15:17:00+02:00"},{"datasetid":"laposte_hexasmal","recordid":"0d82bf06f62991e5be9340ef4e47ea18110943ef","fields":{"nom_de_la_commune":"FROIDECONCHE","libell_d_acheminement":"FROIDECONCHE","code_postal":"70300","coordonnees_gps":[47.8340163849,6.41922862688],"code_commune_insee":"70258"},"geometry":{"type":"Point","coordinates":[6.41922862688,47.8340163849]},"record_timestamp":"2016-05-09T15:17:00+02:00"},{"datasetid":"laposte_hexasmal","recordid":"6b0ef4d139ac1b94362bf8682ef2818ba9cbcf11","fields":{"nom_de_la_commune":"FROTEY LES VESOUL","libell_d_acheminement":"FROTEY LES VESOUL","code_postal":"70000","coordonnees_gps":[47.6293186194,6.19415622549],"code_commune_insee":"70261"},"geometry":{"type":"Point","coordinates":[6.19415622549,47.6293186194]},"record_timestamp":"2016-05-09T15:17:00+02:00"},{"datasetid":"laposte_hexasmal","recordid":"78d4ef6b2cde1b5dc475e565637691717da631e5","fields":{"nom_de_la_commune":"GENEVREUILLE","libell_d_acheminement":"GENEVREUILLE","code_postal":"70240","coordonnees_gps":[47.6747365323,6.37822435602],"code_commune_insee":"70262"},"geometry":{"type":"Point","coordinates":[6.37822435602,47.6747365323]},"record_timestamp":"2016-05-09T15:17:00+02:00"},{"datasetid":"laposte_hexasmal","recordid":"d63961859892e60086c7bf8774d2f961e3abdaff","fields":{"nom_de_la_commune":"HERICOURT","libell_d_acheminement":"HERICOURT","code_postal":"70400","coordonnees_gps":[47.5698613671,6.76517349246],"code_commune_insee":"70285"},"geometry":{"type":"Point","coordinates":[6.76517349246,47.5698613671]},"record_timestamp":"2016-05-09T15:17:00+02:00"},{"datasetid":"laposte_hexasmal","recordid":"ef016494012c9e2672b278a82aa31c2300424d23","fields":{"code_postal":"70400","code_commune_insee":"70285","libell_d_acheminement":"HERICOURT","ligne_5":"BUSSUREL","nom_de_la_commune":"HERICOURT","coordonnees_gps":[47.5698613671,6.76517349246]},"geometry":{"type":"Point","coordinates":[6.76517349246,47.5698613671]},"record_timestamp":"2016-05-09T15:17:00+02:00"},{"datasetid":"laposte_hexasmal","recordid":"c8abcbf85e08d53ef57a522b4130a17636bd53c3","fields":{"nom_de_la_commune":"HYET","libell_d_acheminement":"HYET","code_postal":"70190","coordonnees_gps":[47.4764474836,6.07653448218],"code_commune_insee":"70288"},"geometry":{"type":"Point","coordinates":[6.07653448218,47.4764474836]},"record_timestamp":"2016-05-09T15:17:00+02:00"},{"datasetid":"laposte_hexasmal","recordid":"d41ee8b268ea2251c1e8b42e92f544a935f3982a","fields":{"nom_de_la_commune":"JONVELLE","libell_d_acheminement":"JONVELLE","code_postal":"70500","coordonnees_gps":[47.9286064746,5.91384412427],"code_commune_insee":"70291"},"geometry":{"type":"Point","coordinates":[5.91384412427,47.9286064746]},"record_timestamp":"2016-05-09T15:17:00+02:00"},{"datasetid":"laposte_hexasmal","recordid":"d4aa30d96789ac22b294ed91a46a19eca326c175","fields":{"nom_de_la_commune":"LAMBREY","libell_d_acheminement":"LAMBREY","code_postal":"70500","coordonnees_gps":[47.7643209211,5.92933904198],"code_commune_insee":"70293"},"geometry":{"type":"Point","coordinates":[5.92933904198,47.7643209211]},"record_timestamp":"2016-05-09T15:17:00+02:00"},{"datasetid":"laposte_hexasmal","recordid":"d3096099375f9b3b7bb1f516651369e9bd95993c","fields":{"nom_de_la_commune":"LANTENOT","libell_d_acheminement":"LANTENOT","code_postal":"70200","coordonnees_gps":[47.7550142375,6.50401420408],"code_commune_insee":"70294"},"geometry":{"type":"Point","coordinates":[6.50401420408,47.7550142375]},"record_timestamp":"2016-05-09T15:17:00+02:00"},{"datasetid":"laposte_hexasmal","recordid":"c7594b93a61a00ad788a0c59826e86b215693e89","fields":{"nom_de_la_commune":"LA LANTERNE ET LES ARMONTS","libell_d_acheminement":"LA LANTERNE ET LES ARMONTS","code_postal":"70270","coordonnees_gps":[47.7866393321,6.52929225583],"code_commune_insee":"70295"},"geometry":{"type":"Point","coordinates":[6.52929225583,47.7866393321]},"record_timestamp":"2016-05-09T15:17:00+02:00"},{"datasetid":"laposte_hexasmal","recordid":"26b0c34a690a8cd6573d7ed42090a0717c373ffa","fields":{"nom_de_la_commune":"LAVIGNEY","libell_d_acheminement":"LAVIGNEY","code_postal":"70120","coordonnees_gps":[47.7118854069,5.80400315712],"code_commune_insee":"70298"},"geometry":{"type":"Point","coordinates":[5.80400315712,47.7118854069]},"record_timestamp":"2016-05-09T15:17:00+02:00"},{"datasetid":"laposte_hexasmal","recordid":"e7f94a231b340e1960f9eacf94da305befeb4c01","fields":{"nom_de_la_commune":"LAVONCOURT","libell_d_acheminement":"LAVONCOURT","code_postal":"70120","coordonnees_gps":[47.6226588338,5.77603132497],"code_commune_insee":"70299"},"geometry":{"type":"Point","coordinates":[5.77603132497,47.6226588338]},"record_timestamp":"2016-05-09T15:17:00+02:00"},{"datasetid":"laposte_hexasmal","recordid":"1e75a14946dfb11b1b59c85e4159f0cc15cb5dd1","fields":{"nom_de_la_commune":"LIEUCOURT","libell_d_acheminement":"LIEUCOURT","code_postal":"70140","coordonnees_gps":[47.3596424116,5.61660904057],"code_commune_insee":"70302"},"geometry":{"type":"Point","coordinates":[5.61660904057,47.3596424116]},"record_timestamp":"2016-05-09T15:17:00+02:00"},{"datasetid":"laposte_hexasmal","recordid":"1e513ca49d4ba6042ec33d6218c3bd1b9a5015fc","fields":{"nom_de_la_commune":"LOMONT","libell_d_acheminement":"LOMONT","code_postal":"70200","coordonnees_gps":[47.6249613349,6.59883932235],"code_commune_insee":"70306"},"geometry":{"type":"Point","coordinates":[6.59883932235,47.6249613349]},"record_timestamp":"2016-05-09T15:17:00+02:00"},{"datasetid":"laposte_hexasmal","recordid":"c0c4c96f68b62def374a694bf2c13e913800dcfc","fields":{"nom_de_la_commune":"LA LONGINE","libell_d_acheminement":"LA LONGINE","code_postal":"70310","coordonnees_gps":[47.8992130151,6.57732666046],"code_commune_insee":"70308"},"geometry":{"type":"Point","coordinates":[6.57732666046,47.8992130151]},"record_timestamp":"2016-05-09T15:17:00+02:00"},{"datasetid":"laposte_hexasmal","recordid":"31421222d0c748f89e96953573e9d3f7d24b23d8","fields":{"nom_de_la_commune":"LOULANS VERCHAMP","libell_d_acheminement":"LOULANS VERCHAMP","code_postal":"70230","coordonnees_gps":[47.4450028639,6.20512225954],"code_commune_insee":"70309"},"geometry":{"type":"Point","coordinates":[6.20512225954,47.4450028639]},"record_timestamp":"2016-05-09T15:17:00+02:00"},{"datasetid":"laposte_hexasmal","recordid":"f21e29636386ebade494b4f70365438f1bab9ed8","fields":{"code_postal":"70230","code_commune_insee":"70309","libell_d_acheminement":"LOULANS VERCHAMP","ligne_5":"VERCHAMP","nom_de_la_commune":"LOULANS VERCHAMP","coordonnees_gps":[47.4450028639,6.20512225954]},"geometry":{"type":"Point","coordinates":[6.20512225954,47.4450028639]},"record_timestamp":"2016-05-09T15:17:00+02:00"},{"datasetid":"laposte_hexasmal","recordid":"3b3634f4ae3e1fa4481959d8ccacde928764e9f7","fields":{"nom_de_la_commune":"MAGNONCOURT","libell_d_acheminement":"MAGNONCOURT","code_postal":"70800","coordonnees_gps":[47.9040102383,6.29020789289],"code_commune_insee":"70315"},"geometry":{"type":"Point","coordinates":[6.29020789289,47.9040102383]},"record_timestamp":"2016-05-09T15:17:00+02:00"},{"datasetid":"laposte_hexasmal","recordid":"c355040b471f9ca02b14b114b97516d904f2e1bf","fields":{"nom_de_la_commune":"MAGNY DANIGON","libell_d_acheminement":"MAGNY DANIGON","code_postal":"70200","coordonnees_gps":[47.6813542817,6.61123865136],"code_commune_insee":"70318"},"geometry":{"type":"Point","coordinates":[6.61123865136,47.6813542817]},"record_timestamp":"2016-05-09T15:17:00+02:00"},{"datasetid":"laposte_hexasmal","recordid":"ccf03769653c16b58ff7890e8eb7519f6741f12e","fields":{"nom_de_la_commune":"MALVILLERS","libell_d_acheminement":"MALVILLERS","code_postal":"70120","coordonnees_gps":[47.7360575456,5.78893531092],"code_commune_insee":"70329"},"geometry":{"type":"Point","coordinates":[5.78893531092,47.7360575456]},"record_timestamp":"2016-05-09T15:17:00+02:00"},{"datasetid":"laposte_hexasmal","recordid":"da160f4b0b69897be30fc85dbd98a528e4e3a229","fields":{"nom_de_la_commune":"MANTOCHE","libell_d_acheminement":"MANTOCHE","code_postal":"70100","coordonnees_gps":[47.4262852629,5.52118852315],"code_commune_insee":"70331"},"geometry":{"type":"Point","coordinates":[5.52118852315,47.4262852629]},"record_timestamp":"2016-05-09T15:17:00+02:00"},{"datasetid":"laposte_hexasmal","recordid":"9f668077f4820dc7194ffd2588a7897e0accbee5","fields":{"nom_de_la_commune":"MELIN","libell_d_acheminement":"MELIN","code_postal":"70120","coordonnees_gps":[47.7422930527,5.82229333828],"code_commune_insee":"70337"},"geometry":{"type":"Point","coordinates":[5.82229333828,47.7422930527]},"record_timestamp":"2016-05-09T15:17:00+02:00"},{"datasetid":"laposte_hexasmal","recordid":"1ef0a17f3972d17b36984e9fe6a1053153a3a413","fields":{"nom_de_la_commune":"MEURCOURT","libell_d_acheminement":"MEURCOURT","code_postal":"70300","coordonnees_gps":[47.7660974032,6.23487689466],"code_commune_insee":"70344"},"geometry":{"type":"Point","coordinates":[6.23487689466,47.7660974032]},"record_timestamp":"2016-05-09T15:17:00+02:00"},{"datasetid":"laposte_hexasmal","recordid":"5bbbd61f7fe62f45889b430fb40b6165ed87d071","fields":{"nom_de_la_commune":"MOIMAY","libell_d_acheminement":"MOIMAY","code_postal":"70110","coordonnees_gps":[47.5597602693,6.39935154409],"code_commune_insee":"70349"},"geometry":{"type":"Point","coordinates":[6.39935154409,47.5597602693]},"record_timestamp":"2016-05-09T15:17:00+02:00"},{"datasetid":"laposte_hexasmal","recordid":"6eb247ec875926bd78b329b0e68b84a8466a0ccc","fields":{"nom_de_la_commune":"MONTESSAUX","libell_d_acheminement":"MONTESSAUX","code_postal":"70270","coordonnees_gps":[47.7375144324,6.5647568741],"code_commune_insee":"70361"},"geometry":{"type":"Point","coordinates":[6.5647568741,47.7375144324]},"record_timestamp":"2016-05-09T15:17:00+02:00"},{"datasetid":"laposte_hexasmal","recordid":"eb35a73f5330ed2cdd17ac7336eddc7a11bcae87","fields":{"nom_de_la_commune":"NAVENNE","libell_d_acheminement":"NAVENNE","code_postal":"70000","coordonnees_gps":[47.6030208472,6.1618556725],"code_commune_insee":"70378"},"geometry":{"type":"Point","coordinates":[6.1618556725,47.6030208472]},"record_timestamp":"2016-05-09T15:17:00+02:00"},{"datasetid":"laposte_hexasmal","recordid":"2c34c056e4ba8dff8292b017c0a443debf9d8fd7","fields":{"nom_de_la_commune":"NEUVELLE LES CROMARY","libell_d_acheminement":"NEUVELLE LES CROMARY","code_postal":"70190","coordonnees_gps":[47.4079331287,6.06801697703],"code_commune_insee":"70383"},"geometry":{"type":"Point","coordinates":[6.06801697703,47.4079331287]},"record_timestamp":"2016-05-09T15:17:00+02:00"},{"datasetid":"laposte_hexasmal","recordid":"404bae953b0c9d8a3eb1d8d9401b0954c4cc738c","fields":{"nom_de_la_commune":"LA NEUVELLE LES LURE","libell_d_acheminement":"LA NEUVELLE LES LURE","code_postal":"70200","coordonnees_gps":[47.7156316858,6.55341236985],"code_commune_insee":"70385"},"geometry":{"type":"Point","coordinates":[6.55341236985,47.7156316858]},"record_timestamp":"2016-05-09T15:17:00+02:00"},{"datasetid":"laposte_hexasmal","recordid":"4d38c6739e8b11fff72d356cc58c93566209a90f","fields":{"nom_de_la_commune":"LA NEUVELLE LES SCEY","libell_d_acheminement":"LA NEUVELLE LES SCEY","code_postal":"70360","coordonnees_gps":[47.7015222908,5.94028495484],"code_commune_insee":"70386"},"geometry":{"type":"Point","coordinates":[5.94028495484,47.7015222908]},"record_timestamp":"2016-05-09T15:17:00+02:00"},{"datasetid":"laposte_hexasmal","recordid":"3f5a128e5e0d99dc4c43a52f0d25c1655059e161","fields":{"nom_de_la_commune":"NOIDANS LE FERROUX","libell_d_acheminement":"NOIDANS LE FERROUX","code_postal":"70130","coordonnees_gps":[47.5676980089,5.94846873016],"code_commune_insee":"70387"},"geometry":{"type":"Point","coordinates":[5.94846873016,47.5676980089]},"record_timestamp":"2016-05-09T15:17:00+02:00"},{"datasetid":"laposte_hexasmal","recordid":"e3e6c2faf7209717688552a5711acc2f1d2253ce","fields":{"nom_de_la_commune":"NOIDANS LES VESOUL","libell_d_acheminement":"NOIDANS LES VESOUL","code_postal":"70000","coordonnees_gps":[47.6097514089,6.11842989879],"code_commune_insee":"70388"},"geometry":{"type":"Point","coordinates":[6.11842989879,47.6097514089]},"record_timestamp":"2016-05-09T15:17:00+02:00"},{"datasetid":"laposte_hexasmal","recordid":"5aacf45b5d782a07ccf60b4416a29d5a48a4010f","fields":{"nom_de_la_commune":"NOIRON","libell_d_acheminement":"NOIRON","code_postal":"70100","coordonnees_gps":[47.3828510502,5.62597938451],"code_commune_insee":"70389"},"geometry":{"type":"Point","coordinates":[5.62597938451,47.3828510502]},"record_timestamp":"2016-05-09T15:17:00+02:00"},{"datasetid":"laposte_hexasmal","recordid":"7eff3ea22ad4f3f673c665a20487913873337e8f","fields":{"nom_de_la_commune":"ORICOURT","libell_d_acheminement":"ORICOURT","code_postal":"70110","coordonnees_gps":[47.597173392,6.3945348037],"code_commune_insee":"70396"},"geometry":{"type":"Point","coordinates":[6.3945348037,47.597173392]},"record_timestamp":"2016-05-09T15:17:00+02:00"},{"datasetid":"laposte_hexasmal","recordid":"28bd7e39b55ff9f633c2da04c32a0569d5357b7d","fields":{"nom_de_la_commune":"OYRIERES","libell_d_acheminement":"OYRIERES","code_postal":"70600","coordonnees_gps":[47.5290658651,5.57358052333],"code_commune_insee":"70402"},"geometry":{"type":"Point","coordinates":[5.57358052333,47.5290658651]},"record_timestamp":"2016-05-09T15:17:00+02:00"},{"datasetid":"laposte_hexasmal","recordid":"aaf59eea3f9048035704316e657432a240b7a31f","fields":{"nom_de_la_commune":"PALANTE","libell_d_acheminement":"PALANTE","code_postal":"70200","coordonnees_gps":[47.6649408648,6.58267716976],"code_commune_insee":"70403"},"geometry":{"type":"Point","coordinates":[6.58267716976,47.6649408648]},"record_timestamp":"2016-05-09T15:17:00+02:00"},{"datasetid":"laposte_hexasmal","recordid":"a84330a238ba104fc6f9a1aaa384f5ea9cd4b9d0","fields":{"nom_de_la_commune":"PENNESIERES","libell_d_acheminement":"PENNESIERES","code_postal":"70190","coordonnees_gps":[47.4957736463,6.09574918717],"code_commune_insee":"70405"},"geometry":{"type":"Point","coordinates":[6.09574918717,47.4957736463]},"record_timestamp":"2016-05-09T15:17:00+02:00"},{"datasetid":"laposte_hexasmal","recordid":"866d47eb2043f16797d2b08cceddd76b15fec8e1","fields":{"nom_de_la_commune":"PLANCHER LES MINES","libell_d_acheminement":"PLANCHER LES MINES","code_postal":"70290","coordonnees_gps":[47.7857364865,6.77321577931],"code_commune_insee":"70414"},"geometry":{"type":"Point","coordinates":[6.77321577931,47.7857364865]},"record_timestamp":"2016-05-09T15:17:00+02:00"},{"datasetid":"laposte_hexasmal","recordid":"662c4ec6f8714d074a829475701450ae10d2c451","fields":{"nom_de_la_commune":"POLAINCOURT ET CLAIREFONTAINE","libell_d_acheminement":"POLAINCOURT ET CLAIREFONTAINE","code_postal":"70210","coordonnees_gps":[47.875259179,6.06625530496],"code_commune_insee":"70415"},"geometry":{"type":"Point","coordinates":[6.06625530496,47.875259179]},"record_timestamp":"2016-05-09T15:17:00+02:00"},{"datasetid":"laposte_hexasmal","recordid":"9050b5ac8f82b57e9a9178549a360287cc496598","fields":{"nom_de_la_commune":"PROVENCHERE","libell_d_acheminement":"PROVENCHERE","code_postal":"70170","coordonnees_gps":[47.7220120266,6.12391376689],"code_commune_insee":"70426"},"geometry":{"type":"Point","coordinates":[6.12391376689,47.7220120266]},"record_timestamp":"2016-05-09T15:17:00+02:00"},{"datasetid":"laposte_hexasmal","recordid":"5370c3f93f0deffe215c0f3d62beecfbf570abad","fields":{"nom_de_la_commune":"PUSY ET EPENOUX","libell_d_acheminement":"PUSY ET EPENOUX","code_postal":"70000","coordonnees_gps":[47.6675589968,6.15028596157],"code_commune_insee":"70429"},"geometry":{"type":"Point","coordinates":[6.15028596157,47.6675589968]},"record_timestamp":"2016-05-09T15:17:00+02:00"},{"datasetid":"laposte_hexasmal","recordid":"76a8d89a090a7488d9144ea754b0e4092f421439","fields":{"nom_de_la_commune":"QUERS","libell_d_acheminement":"QUERS","code_postal":"70200","coordonnees_gps":[47.7265725421,6.44190113641],"code_commune_insee":"70432"},"geometry":{"type":"Point","coordinates":[6.44190113641,47.7265725421]},"record_timestamp":"2016-05-09T15:17:00+02:00"},{"datasetid":"laposte_hexasmal","recordid":"9020763a3c66f167499490727705c6134606d0ed","fields":{"nom_de_la_commune":"RADDON ET CHAPENDU","libell_d_acheminement":"RADDON ET CHAPENDU","code_postal":"70280","coordonnees_gps":[47.8553521671,6.4533442174],"code_commune_insee":"70435"},"geometry":{"type":"Point","coordinates":[6.4533442174,47.8553521671]},"record_timestamp":"2016-05-09T15:17:00+02:00"},{"datasetid":"laposte_hexasmal","recordid":"4900fae1467af7d2b7247bfd4d7ba60f52db61eb","fields":{"nom_de_la_commune":"RAINCOURT","libell_d_acheminement":"RAINCOURT","code_postal":"70500","coordonnees_gps":[47.8597701949,5.88767726096],"code_commune_insee":"70436"},"geometry":{"type":"Point","coordinates":[5.88767726096,47.8597701949]},"record_timestamp":"2016-05-09T15:17:00+02:00"},{"datasetid":"laposte_hexasmal","recordid":"5a7652f2e421b0ba55eaf4be43574a21318856c9","fields":{"nom_de_la_commune":"RAZE","libell_d_acheminement":"RAZE","code_postal":"70000","coordonnees_gps":[47.5810464367,6.00410324695],"code_commune_insee":"70439"},"geometry":{"type":"Point","coordinates":[6.00410324695,47.5810464367]},"record_timestamp":"2016-05-09T15:17:00+02:00"},{"datasetid":"laposte_hexasmal","recordid":"bf0be99c06a8348eae08a08c4e643a216a105087","fields":{"nom_de_la_commune":"LA RESIE ST MARTIN","libell_d_acheminement":"LA RESIE ST MARTIN","code_postal":"70140","coordonnees_gps":[47.3107496034,5.60845314626],"code_commune_insee":"70444"},"geometry":{"type":"Point","coordinates":[5.60845314626,47.3107496034]},"record_timestamp":"2016-05-09T15:17:00+02:00"},{"datasetid":"laposte_hexasmal","recordid":"cf3cdf30f1c78e8e88eb74ca0fece1252ba48c73","fields":{"nom_de_la_commune":"RONCHAMP","libell_d_acheminement":"RONCHAMP","code_postal":"70250","coordonnees_gps":[47.7159736796,6.63465984032],"code_commune_insee":"70451"},"geometry":{"type":"Point","coordinates":[6.63465984032,47.7159736796]},"record_timestamp":"2016-05-09T15:17:00+02:00"},{"datasetid":"laposte_hexasmal","recordid":"56e3dc02be5b9826e9b18cb9ee83f80260ab5f2c","fields":{"nom_de_la_commune":"ROSIERES SUR MANCE","libell_d_acheminement":"ROSIERES SUR MANCE","code_postal":"70500","coordonnees_gps":[47.8376565053,5.80467738771],"code_commune_insee":"70454"},"geometry":{"type":"Point","coordinates":[5.80467738771,47.8376565053]},"record_timestamp":"2016-05-09T15:17:00+02:00"},{"datasetid":"laposte_hexasmal","recordid":"b43cac34fe5c8491834ad816567ca22060ee9068","fields":{"nom_de_la_commune":"ST GAND","libell_d_acheminement":"ST GAND","code_postal":"70130","coordonnees_gps":[47.508338203,5.83393822546],"code_commune_insee":"70463"},"geometry":{"type":"Point","coordinates":[5.83393822546,47.508338203]},"record_timestamp":"2016-05-09T15:17:00+02:00"},{"datasetid":"laposte_hexasmal","recordid":"d24d1fce3c784249aeb87a993fe29d037383c733","fields":{"nom_de_la_commune":"STE MARIE EN CHAUX","libell_d_acheminement":"STE MARIE EN CHAUX","code_postal":"70300","coordonnees_gps":[47.7964768334,6.29978833276],"code_commune_insee":"70470"},"geometry":{"type":"Point","coordinates":[6.29978833276,47.7964768334]},"record_timestamp":"2016-05-09T15:17:00+02:00"},{"datasetid":"laposte_hexasmal","recordid":"ab0cba6edb9a414e3c98bf82ce52102933e3c6b3","fields":{"nom_de_la_commune":"ST REMY","libell_d_acheminement":"ST REMY","code_postal":"70160","coordonnees_gps":[47.8375769959,6.10898257377],"code_commune_insee":"70472"},"geometry":{"type":"Point","coordinates":[6.10898257377,47.8375769959]},"record_timestamp":"2016-05-09T15:17:00+02:00"},{"datasetid":"laposte_hexasmal","recordid":"c4e5188e78aa06e9cc7668512ef1d171d966a594","fields":{"code_postal":"70400","code_commune_insee":"70477","libell_d_acheminement":"SAULNOT","ligne_5":"CORCELLES","nom_de_la_commune":"SAULNOT","coordonnees_gps":[47.5703099756,6.62953525499]},"geometry":{"type":"Point","coordinates":[6.62953525499,47.5703099756]},"record_timestamp":"2016-05-09T15:17:00+02:00"},{"datasetid":"laposte_hexasmal","recordid":"7897a1bbdc7bf86af9b700cf9d1d43b1a5d7dfea","fields":{"nom_de_la_commune":"SELLES","libell_d_acheminement":"SELLES","code_postal":"70210","coordonnees_gps":[47.9720841546,6.09157358569],"code_commune_insee":"70485"},"geometry":{"type":"Point","coordinates":[6.09157358569,47.9720841546]},"record_timestamp":"2016-05-09T15:17:00+02:00"},{"datasetid":"laposte_hexasmal","recordid":"69e38ea838881bf73ae27ca8722ffd38fef983fb","fields":{"nom_de_la_commune":"SENARGENT MIGNAFANS","libell_d_acheminement":"SENARGENT MIGNAFANS","code_postal":"70110","coordonnees_gps":[47.5662742905,6.52981736725],"code_commune_insee":"70487"},"geometry":{"type":"Point","coordinates":[6.52981736725,47.5662742905]},"record_timestamp":"2016-05-09T15:17:00+02:00"},{"datasetid":"laposte_hexasmal","recordid":"60ee4c302130c75b2ccc23b21a5add4086b2ebe1","fields":{"code_postal":"70130","code_commune_insee":"70492","libell_d_acheminement":"SOING CUBRY CHARENTENAY","ligne_5":"CUBRY LES SOING","nom_de_la_commune":"SOING CUBRY CHARENTENAY","coordonnees_gps":[47.5851238509,5.88891675749]},"geometry":{"type":"Point","coordinates":[5.88891675749,47.5851238509]},"record_timestamp":"2016-05-09T15:17:00+02:00"},{"datasetid":"laposte_hexasmal","recordid":"469b181a5eb7ce5c2f381b5900787a5dad281e91","fields":{"nom_de_la_commune":"TRAITIEFONTAINE","libell_d_acheminement":"TRAITIEFONTAINE","code_postal":"70190","coordonnees_gps":[47.4214104613,6.09590296552],"code_commune_insee":"70503"},"geometry":{"type":"Point","coordinates":[6.09590296552,47.4214104613]},"record_timestamp":"2016-05-09T15:17:00+02:00"},{"datasetid":"laposte_hexasmal","recordid":"b51c5e4dc4c31dae29896c87d75ac8ea12bdac74","fields":{"nom_de_la_commune":"LE TREMBLOIS","libell_d_acheminement":"LE TREMBLOIS","code_postal":"70100","coordonnees_gps":[47.3776500721,5.58714893059],"code_commune_insee":"70505"},"geometry":{"type":"Point","coordinates":[5.58714893059,47.3776500721]},"record_timestamp":"2016-05-09T15:17:00+02:00"},{"datasetid":"laposte_hexasmal","recordid":"298ed610a4f6b24e7519f68014af23609b78e489","fields":{"nom_de_la_commune":"TREMOINS","libell_d_acheminement":"TREMOINS","code_postal":"70400","coordonnees_gps":[47.5648137282,6.70462228201],"code_commune_insee":"70506"},"geometry":{"type":"Point","coordinates":[6.70462228201,47.5648137282]},"record_timestamp":"2016-05-09T15:17:00+02:00"},{"datasetid":"laposte_hexasmal","recordid":"582a38312a657560ec68d54931cf91ec3e59e6e2","fields":{"nom_de_la_commune":"VADANS","libell_d_acheminement":"VADANS","code_postal":"70140","coordonnees_gps":[47.3519943594,5.57942602132],"code_commune_insee":"70510"},"geometry":{"type":"Point","coordinates":[5.57942602132,47.3519943594]},"record_timestamp":"2016-05-09T15:17:00+02:00"},{"datasetid":"laposte_hexasmal","recordid":"5b01f3bc1727e810a19c76209898f3eab3e74816","fields":{"nom_de_la_commune":"VALLEROIS LORIOZ","libell_d_acheminement":"VALLEROIS LORIOZ","code_postal":"70000","coordonnees_gps":[47.565277669,6.15445387283],"code_commune_insee":"70517"},"geometry":{"type":"Point","coordinates":[6.15445387283,47.565277669]},"record_timestamp":"2016-05-09T15:17:00+02:00"},{"datasetid":"laposte_hexasmal","recordid":"81718d1906c99b431f51009049f2aef8bcb7fe01","fields":{"nom_de_la_commune":"VANTOUX ET LONGEVELLE","libell_d_acheminement":"VANTOUX ET LONGEVELLE","code_postal":"70700","coordonnees_gps":[47.4485121912,5.83803356504],"code_commune_insee":"70521"},"geometry":{"type":"Point","coordinates":[5.83803356504,47.4485121912]},"record_timestamp":"2016-05-09T15:17:00+02:00"},{"datasetid":"laposte_hexasmal","recordid":"7a8e47201c4e79382aeaf47cfbb64acaafaa0438","fields":{"nom_de_la_commune":"VAUVILLERS","libell_d_acheminement":"VAUVILLERS","code_postal":"70210","coordonnees_gps":[47.927696482,6.10999352598],"code_commune_insee":"70526"},"geometry":{"type":"Point","coordinates":[6.10999352598,47.927696482]},"record_timestamp":"2016-05-09T15:17:00+02:00"},{"datasetid":"laposte_hexasmal","recordid":"fa55ae6ba04cd6906b78adac9b483e949c8bb26f","fields":{"nom_de_la_commune":"VELLEFREY ET VELLEFRANGE","libell_d_acheminement":"VELLEFREY ET VELLEFRANGE","code_postal":"70700","coordonnees_gps":[47.4434504028,5.81383880863],"code_commune_insee":"70533"},"geometry":{"type":"Point","coordinates":[5.81383880863,47.4434504028]},"record_timestamp":"2016-05-09T15:17:00+02:00"},{"datasetid":"laposte_hexasmal","recordid":"b95e910cb1b9d11f850ab56f681dbec3567d4b1e","fields":{"nom_de_la_commune":"VELLEGUINDRY ET LEVRECEY","libell_d_acheminement":"VELLEGUINDRY ET LEVRECEY","code_postal":"70000","coordonnees_gps":[47.5563995344,6.08993283091],"code_commune_insee":"70535"},"geometry":{"type":"Point","coordinates":[6.08993283091,47.5563995344]},"record_timestamp":"2016-05-09T15:17:00+02:00"},{"datasetid":"laposte_hexasmal","recordid":"506e1e5ec54e435149aab77aab4a3eaf1909aab5","fields":{"nom_de_la_commune":"VELLEXON QUEUTREY ET VAUDEY","libell_d_acheminement":"VELLEXON QUEUTREY ET VAUDEY","code_postal":"70130","coordonnees_gps":[47.5502350367,5.80894856908],"code_commune_insee":"70539"},"geometry":{"type":"Point","coordinates":[5.80894856908,47.5502350367]},"record_timestamp":"2016-05-09T15:17:00+02:00"},{"datasetid":"laposte_hexasmal","recordid":"7d739a44dc3f16ecd058981abbdb0dfde43c4c1b","fields":{"nom_de_la_commune":"VELLOREILLE LES CHOYE","libell_d_acheminement":"VELLOREILLE LES CHOYE","code_postal":"70700","coordonnees_gps":[47.390189566,5.72389415506],"code_commune_insee":"70540"},"geometry":{"type":"Point","coordinates":[5.72389415506,47.390189566]},"record_timestamp":"2016-05-09T15:17:00+02:00"},{"datasetid":"laposte_hexasmal","recordid":"5a816b852578280f8176aef3023ac174f789f42d","fields":{"nom_de_la_commune":"VENISEY","libell_d_acheminement":"VENISEY","code_postal":"70500","coordonnees_gps":[47.8354222731,6.00091771151],"code_commune_insee":"70545"},"geometry":{"type":"Point","coordinates":[6.00091771151,47.8354222731]},"record_timestamp":"2016-05-09T15:17:00+02:00"},{"datasetid":"laposte_hexasmal","recordid":"f5fdf6632fff4a7fac1049c96b18c561b5feb2b6","fields":{"nom_de_la_commune":"VERLANS","libell_d_acheminement":"VERLANS","code_postal":"70400","coordonnees_gps":[47.5703887849,6.71887157746],"code_commune_insee":"70547"},"geometry":{"type":"Point","coordinates":[6.71887157746,47.5703887849]},"record_timestamp":"2016-05-09T15:17:00+02:00"},{"datasetid":"laposte_hexasmal","recordid":"7ca1c8ac799978e134550067654f7a6eecd4822f","fields":{"nom_de_la_commune":"VILLARGENT","libell_d_acheminement":"VILLARGENT","code_postal":"70110","coordonnees_gps":[47.5420470778,6.48586205018],"code_commune_insee":"70553"},"geometry":{"type":"Point","coordinates":[6.48586205018,47.5420470778]},"record_timestamp":"2016-05-09T15:17:00+02:00"},{"datasetid":"laposte_hexasmal","recordid":"ac310dd671c30953bd6e6e673a3b508ae7afabfa","fields":{"nom_de_la_commune":"LA VILLEDIEU EN FONTENETTE","libell_d_acheminement":"LA VILLEDIEU EN FONTENETTE","code_postal":"70160","coordonnees_gps":[47.7712074637,6.20381518294],"code_commune_insee":"70555"},"geometry":{"type":"Point","coordinates":[6.20381518294,47.7712074637]},"record_timestamp":"2016-05-09T15:17:00+02:00"},{"datasetid":"laposte_hexasmal","recordid":"6b37637e571dc9dcd2ed99b584fd0016e271c489","fields":{"nom_de_la_commune":"LA VILLENEUVE BELLENOYE LA MAIZE","libell_d_acheminement":"LA VILLENEUVE BELLENOYE LA MAIZE","code_postal":"70240","coordonnees_gps":[47.7099462261,6.24130408921],"code_commune_insee":"70558"},"geometry":{"type":"Point","coordinates":[6.24130408921,47.7099462261]},"record_timestamp":"2016-05-09T15:17:00+02:00"},{"datasetid":"laposte_hexasmal","recordid":"0f0cdfd3af66ebbb8228bb259801faddc897d83b","fields":{"nom_de_la_commune":"VILLERSEXEL","libell_d_acheminement":"VILLERSEXEL","code_postal":"70110","coordonnees_gps":[47.559065822,6.42909523129],"code_commune_insee":"70561"},"geometry":{"type":"Point","coordinates":[6.42909523129,47.559065822]},"record_timestamp":"2016-05-09T15:17:00+02:00"},{"datasetid":"laposte_hexasmal","recordid":"afc5b74348c20c6c362bea1531466689500518f8","fields":{"nom_de_la_commune":"VILLERS SUR PORT","libell_d_acheminement":"VILLERS SUR PORT","code_postal":"70170","coordonnees_gps":[47.713815334,6.08321182678],"code_commune_insee":"70566"},"geometry":{"type":"Point","coordinates":[6.08321182678,47.713815334]},"record_timestamp":"2016-05-09T15:17:00+02:00"},{"datasetid":"laposte_hexasmal","recordid":"4836f30fca57bcfb32fe8609d254f661b6e1f3ca","fields":{"nom_de_la_commune":"VILORY","libell_d_acheminement":"VILORY","code_postal":"70240","coordonnees_gps":[47.7301466997,6.22337661531],"code_commune_insee":"70569"},"geometry":{"type":"Point","coordinates":[6.22337661531,47.7301466997]},"record_timestamp":"2016-05-09T15:17:00+02:00"},{"datasetid":"laposte_hexasmal","recordid":"a819c4ceeaf8040814d62e3175046a205a199299","fields":{"nom_de_la_commune":"VY LES RUPT","libell_d_acheminement":"VY LES RUPT","code_postal":"70120","coordonnees_gps":[47.6393561962,5.89227575956],"code_commune_insee":"70582"},"geometry":{"type":"Point","coordinates":[5.89227575956,47.6393561962]},"record_timestamp":"2016-05-09T15:17:00+02:00"},{"datasetid":"laposte_hexasmal","recordid":"5f02cac948870d81cf2aad552268d3820d6b94db","fields":{"nom_de_la_commune":"ACHEY","libell_d_acheminement":"ACHEY","code_postal":"70180","coordonnees_gps":[47.5770070289,5.60745476371],"code_commune_insee":"70003"},"geometry":{"type":"Point","coordinates":[5.60745476371,47.5770070289]},"record_timestamp":"2016-05-09T15:17:00+02:00"},{"datasetid":"laposte_hexasmal","recordid":"b4345d685117606276ffc52105df7571458f248e","fields":{"nom_de_la_commune":"ANDORNAY","libell_d_acheminement":"ANDORNAY","code_postal":"70200","coordonnees_gps":[47.6586648001,6.59842406878],"code_commune_insee":"70021"},"geometry":{"type":"Point","coordinates":[6.59842406878,47.6586648001]},"record_timestamp":"2016-05-09T15:17:00+02:00"},{"datasetid":"laposte_hexasmal","recordid":"b33d47d426898f14270de8eaad03200e3c3f5b59","fields":{"nom_de_la_commune":"VELET","libell_d_acheminement":"VELET","code_postal":"70100","coordonnees_gps":[47.4258350219,5.56489492159],"code_commune_insee":"70529"},"geometry":{"type":"Point","coordinates":[5.56489492159,47.4258350219]},"record_timestamp":"2016-05-09T15:17:00+02:00"},{"datasetid":"laposte_hexasmal","recordid":"4c4b809baab837a48ca8682287d025c7c1bef010","fields":{"nom_de_la_commune":"VELLECHEVREUX ET COURBENANS","libell_d_acheminement":"VELLECHEVREUX ET COURBENANS","code_postal":"70110","coordonnees_gps":[47.5413124373,6.54443417858],"code_commune_insee":"70530"},"geometry":{"type":"Point","coordinates":[6.54443417858,47.5413124373]},"record_timestamp":"2016-05-09T15:17:00+02:00"},{"datasetid":"laposte_hexasmal","recordid":"5f60e3f954531b1cd7c4022f4bf1a1ce7fa2f835","fields":{"nom_de_la_commune":"VELLEFRIE","libell_d_acheminement":"VELLEFRIE","code_postal":"70240","coordonnees_gps":[47.7022975155,6.22137740616],"code_commune_insee":"70534"},"geometry":{"type":"Point","coordinates":[6.22137740616,47.7022975155]},"record_timestamp":"2016-05-09T15:17:00+02:00"},{"datasetid":"laposte_hexasmal","recordid":"32b5881abc141c47535cbff380c3cd104cc537dd","fields":{"nom_de_la_commune":"VELORCEY","libell_d_acheminement":"VELORCEY","code_postal":"70300","coordonnees_gps":[47.7857581021,6.25028247897],"code_commune_insee":"70541"},"geometry":{"type":"Point","coordinates":[6.25028247897,47.7857581021]},"record_timestamp":"2016-05-09T15:17:00+02:00"},{"datasetid":"laposte_hexasmal","recordid":"fa034ca71d856d159b11e06d54954000be684bb5","fields":{"nom_de_la_commune":"VENERE","libell_d_acheminement":"VENERE","code_postal":"70100","coordonnees_gps":[47.3587412355,5.6767085991],"code_commune_insee":"70542"},"geometry":{"type":"Point","coordinates":[5.6767085991,47.3587412355]},"record_timestamp":"2016-05-09T15:17:00+02:00"},{"datasetid":"laposte_hexasmal","recordid":"886e2c74a47c3c47ac48ab0a5f055d7bb63641f0","fields":{"nom_de_la_commune":"LA VERGENNE","libell_d_acheminement":"LA VERGENNE","code_postal":"70200","coordonnees_gps":[47.6149187489,6.52058432739],"code_commune_insee":"70544"},"geometry":{"type":"Point","coordinates":[6.52058432739,47.6149187489]},"record_timestamp":"2016-05-09T15:17:00+02:00"},{"datasetid":"laposte_hexasmal","recordid":"b52a0a392bb3cd178bf66cd101f54609f2290397","fields":{"nom_de_la_commune":"VILLAFANS","libell_d_acheminement":"VILLAFANS","code_postal":"70110","coordonnees_gps":[47.5819931692,6.47563792817],"code_commune_insee":"70552"},"geometry":{"type":"Point","coordinates":[6.47563792817,47.5819931692]},"record_timestamp":"2016-05-09T15:17:00+02:00"},{"datasetid":"laposte_hexasmal","recordid":"638cfa7e03d3d13c0c8b19ba70b4c104dbfd791d","fields":{"nom_de_la_commune":"VILLERS BOUTON","libell_d_acheminement":"VILLERS BOUTON","code_postal":"70190","coordonnees_gps":[47.4496113899,5.97526749135],"code_commune_insee":"70560"},"geometry":{"type":"Point","coordinates":[5.97526749135,47.4496113899]},"record_timestamp":"2016-05-09T15:17:00+02:00"},{"datasetid":"laposte_hexasmal","recordid":"46eefeca1338d215f1e64aff8c1336f7896c7102","fields":{"nom_de_la_commune":"VILLERS LA VILLE","libell_d_acheminement":"VILLERS LA VILLE","code_postal":"70110","coordonnees_gps":[47.5502733142,6.4666688568],"code_commune_insee":"70562"},"geometry":{"type":"Point","coordinates":[6.4666688568,47.5502733142]},"record_timestamp":"2016-05-09T15:17:00+02:00"},{"datasetid":"laposte_hexasmal","recordid":"a72c90533dc85c1ad424cb9a13ad1e2ef5221386","fields":{"nom_de_la_commune":"VOUGECOURT","libell_d_acheminement":"VOUGECOURT","code_postal":"70500","coordonnees_gps":[47.9447349937,5.9940682612],"code_commune_insee":"70576"},"geometry":{"type":"Point","coordinates":[5.9940682612,47.9447349937]},"record_timestamp":"2016-05-09T15:17:00+02:00"},{"datasetid":"laposte_hexasmal","recordid":"64ea95b5246e27121e179bf90145e426a7265d4c","fields":{"nom_de_la_commune":"VOUHENANS","libell_d_acheminement":"VOUHENANS","code_postal":"70200","coordonnees_gps":[47.6424367134,6.49403579676],"code_commune_insee":"70577"},"geometry":{"type":"Point","coordinates":[6.49403579676,47.6424367134]},"record_timestamp":"2016-05-09T15:17:00+02:00"},{"datasetid":"laposte_hexasmal","recordid":"1c514293869c8cff56c3642a67d25f7f15dcd60e","fields":{"nom_de_la_commune":"VY LE FERROUX","libell_d_acheminement":"VY LE FERROUX","code_postal":"70130","coordonnees_gps":[47.5876286452,5.96724404567],"code_commune_insee":"70580"},"geometry":{"type":"Point","coordinates":[5.96724404567,47.5876286452]},"record_timestamp":"2016-05-09T15:17:00+02:00"},{"datasetid":"laposte_hexasmal","recordid":"575ff6c9d1a1179c931577796a681529568c79a3","fields":{"nom_de_la_commune":"ANJEUX","libell_d_acheminement":"ANJEUX","code_postal":"70800","coordonnees_gps":[47.8815041686,6.20949435555],"code_commune_insee":"70023"},"geometry":{"type":"Point","coordinates":[6.20949435555,47.8815041686]},"record_timestamp":"2016-05-09T15:17:00+02:00"},{"datasetid":"laposte_hexasmal","recordid":"fc70b7bd6a425415e1498d3452911f94c092fae6","fields":{"nom_de_la_commune":"AUVET ET LA CHAPELOTTE","libell_d_acheminement":"AUVET ET LA CHAPELOTTE","code_postal":"70100","coordonnees_gps":[47.5070865924,5.52591428297],"code_commune_insee":"70043"},"geometry":{"type":"Point","coordinates":[5.52591428297,47.5070865924]},"record_timestamp":"2016-05-09T15:17:00+02:00"},{"datasetid":"laposte_hexasmal","recordid":"ceb40d1ec523ef7e006e555e52a5dd66c8c2f098","fields":{"nom_de_la_commune":"BARD LES PESMES","libell_d_acheminement":"BARD LES PESMES","code_postal":"70140","coordonnees_gps":[47.2781983751,5.62760056211],"code_commune_insee":"70048"},"geometry":{"type":"Point","coordinates":[5.62760056211,47.2781983751]},"record_timestamp":"2016-05-09T15:17:00+02:00"},{"datasetid":"laposte_hexasmal","recordid":"35793616ab55ceed3976a2fe4ef232fc30244f90","fields":{"nom_de_la_commune":"BASSIGNEY","libell_d_acheminement":"BASSIGNEY","code_postal":"70800","coordonnees_gps":[47.8246954089,6.18322387163],"code_commune_insee":"70052"},"geometry":{"type":"Point","coordinates":[6.18322387163,47.8246954089]},"record_timestamp":"2016-05-09T15:17:00+02:00"},{"datasetid":"laposte_hexasmal","recordid":"2ab85ac39f521517fc6ccf86e004261f71ad1aaa","fields":{"nom_de_la_commune":"BEAUJEU ET QUITTEUR","libell_d_acheminement":"BEAUJEU ET QUITTEUR","code_postal":"70100","coordonnees_gps":[47.4986137613,5.69348817129],"code_commune_insee":"70058"},"geometry":{"type":"Point","coordinates":[5.69348817129,47.4986137613]},"record_timestamp":"2016-05-09T15:17:00+02:00"},{"datasetid":"laposte_hexasmal","recordid":"d831aad265a4d8ab96a39a7cda6f9a3184d5f524","fields":{"nom_de_la_commune":"BONBOILLON","libell_d_acheminement":"BONBOILLON","code_postal":"70150","coordonnees_gps":[47.3414290252,5.69622608772],"code_commune_insee":"70075"},"geometry":{"type":"Point","coordinates":[5.69622608772,47.3414290252]},"record_timestamp":"2016-05-09T15:17:00+02:00"},{"datasetid":"laposte_hexasmal","recordid":"509aeeaa2001317f21f768c723986651dde14833","fields":{"nom_de_la_commune":"BONNEVENT VELLOREILLE","libell_d_acheminement":"BONNEVENT VELLOREILLE","code_postal":"70700","coordonnees_gps":[47.3937756161,5.9310298649],"code_commune_insee":"70076"},"geometry":{"type":"Point","coordinates":[5.9310298649,47.3937756161]},"record_timestamp":"2016-05-09T15:17:00+02:00"},{"datasetid":"laposte_hexasmal","recordid":"a2d156b87cc7b92ffd2ada4b54865d42fd0d37ed","fields":{"nom_de_la_commune":"BOULIGNEY","libell_d_acheminement":"BOULIGNEY","code_postal":"70800","coordonnees_gps":[47.911701027,6.2482203935],"code_commune_insee":"70083"},"geometry":{"type":"Point","coordinates":[6.2482203935,47.911701027]},"record_timestamp":"2016-05-09T15:17:00+02:00"},{"datasetid":"laposte_hexasmal","recordid":"d1cb9bad4128a4fd0e1d59a285cba817e743b53d","fields":{"nom_de_la_commune":"BOURGUIGNON LES CONFLANS","libell_d_acheminement":"BOURGUIGNON LES CONFLANS","code_postal":"70800","coordonnees_gps":[47.8155894506,6.15743320592],"code_commune_insee":"70087"},"geometry":{"type":"Point","coordinates":[6.15743320592,47.8155894506]},"record_timestamp":"2016-05-09T15:17:00+02:00"},