[{"datasetid":"laposte_hexasmal","recordid":"316ed8b7f38695e04a7561c9547821f2e23b7e89","fields":{"nom_de_la_commune":"GROISY","libell_d_acheminement":"GROISY","code_postal":"74570","coordonnees_gps":[46.0176333128,6.17496504174],"code_commune_insee":"74137"},"geometry":{"type":"Point","coordinates":[6.17496504174,46.0176333128]},"record_timestamp":"2016-05-09T15:17:00+02:00"},{"datasetid":"laposte_hexasmal","recordid":"e0b29c2406ce1983f22b1a11361f92da7691f368","fields":{"nom_de_la_commune":"GRUFFY","libell_d_acheminement":"GRUFFY","code_postal":"74540","coordonnees_gps":[45.7831959946,6.06312063481],"code_commune_insee":"74138"},"geometry":{"type":"Point","coordinates":[6.06312063481,45.7831959946]},"record_timestamp":"2016-05-09T15:17:00+02:00"},{"datasetid":"laposte_hexasmal","recordid":"5ca766d2c1c5950223cf8c20f459cee2db97a945","fields":{"nom_de_la_commune":"HABERE LULLIN","libell_d_acheminement":"HABERE LULLIN","code_postal":"74420","coordonnees_gps":[46.2330939582,6.462221779],"code_commune_insee":"74139"},"geometry":{"type":"Point","coordinates":[6.462221779,46.2330939582]},"record_timestamp":"2016-05-09T15:17:00+02:00"},{"datasetid":"laposte_hexasmal","recordid":"f39276adb3d14f2798cd457c7d620b8432827b2c","fields":{"nom_de_la_commune":"JUVIGNY","libell_d_acheminement":"JUVIGNY","code_postal":"74100","coordonnees_gps":[46.2159934836,6.2901767957],"code_commune_insee":"74145"},"geometry":{"type":"Point","coordinates":[6.2901767957,46.2159934836]},"record_timestamp":"2016-05-09T15:17:00+02:00"},{"datasetid":"laposte_hexasmal","recordid":"a07c39731c8f3489f1fe399242f53f1ab7d738f5","fields":{"nom_de_la_commune":"LESCHAUX","libell_d_acheminement":"LESCHAUX","code_postal":"74320","coordonnees_gps":[45.7750459129,6.11849070484],"code_commune_insee":"74148"},"geometry":{"type":"Point","coordinates":[6.11849070484,45.7750459129]},"record_timestamp":"2016-05-09T15:17:00+02:00"},{"datasetid":"laposte_hexasmal","recordid":"c2264a8a35cc220473a4c348edcb218020d601bd","fields":{"nom_de_la_commune":"LUGRIN","libell_d_acheminement":"LUGRIN","code_postal":"74500","coordonnees_gps":[46.3933090904,6.67397267401],"code_commune_insee":"74154"},"geometry":{"type":"Point","coordinates":[6.67397267401,46.3933090904]},"record_timestamp":"2016-05-09T15:17:00+02:00"},{"datasetid":"laposte_hexasmal","recordid":"89ef65059ca84d40a5514746698900bdfaa0cecc","fields":{"nom_de_la_commune":"MACHILLY","libell_d_acheminement":"MACHILLY","code_postal":"74140","coordonnees_gps":[46.2555120151,6.32281411543],"code_commune_insee":"74158"},"geometry":{"type":"Point","coordinates":[6.32281411543,46.2555120151]},"record_timestamp":"2016-05-09T15:17:00+02:00"},{"datasetid":"laposte_hexasmal","recordid":"9772b0b2c4a4844a5309ea619f482604740d9b1e","fields":{"nom_de_la_commune":"MARIGNY ST MARCEL","libell_d_acheminement":"MARIGNY ST MARCEL","code_postal":"74150","coordonnees_gps":[45.8298777839,5.98423746783],"code_commune_insee":"74165"},"geometry":{"type":"Point","coordinates":[5.98423746783,45.8298777839]},"record_timestamp":"2016-05-09T15:17:00+02:00"},{"datasetid":"laposte_hexasmal","recordid":"4812f49f8237e6d23787b77f9001099446c945d3","fields":{"code_postal":"74210","code_commune_insee":"74167","libell_d_acheminement":"VAL DE CHAISE","ligne_5":"CONS STE COLOMBE","nom_de_la_commune":"VAL DE CHAISE","coordonnees_gps":[45.7653898846,6.35142628779]},"geometry":{"type":"Point","coordinates":[6.35142628779,45.7653898846]},"record_timestamp":"2016-05-09T15:17:00+02:00"},{"datasetid":"laposte_hexasmal","recordid":"d3d5309ea8c1d5cd0cfeea71b8d729537018e37b","fields":{"code_postal":"74210","code_commune_insee":"74167","libell_d_acheminement":"VAL DE CHAISE","ligne_5":"MARLENS","nom_de_la_commune":"VAL DE CHAISE","coordonnees_gps":[45.7653898846,6.35142628779]},"geometry":{"type":"Point","coordinates":[6.35142628779,45.7653898846]},"record_timestamp":"2016-05-09T15:17:00+02:00"},{"datasetid":"laposte_hexasmal","recordid":"1f580b73c44a3dcd42a0f0484ca8169203a000de","fields":{"nom_de_la_commune":"MASSINGY","libell_d_acheminement":"MASSINGY","code_postal":"74150","coordonnees_gps":[45.8267941245,5.91585359049],"code_commune_insee":"74170"},"geometry":{"type":"Point","coordinates":[5.91585359049,45.8267941245]},"record_timestamp":"2016-05-09T15:17:00+02:00"},{"datasetid":"laposte_hexasmal","recordid":"a6afa92556170467a2c675ebc65d83ffad935405","fields":{"nom_de_la_commune":"MASSONGY","libell_d_acheminement":"MASSONGY","code_postal":"74140","coordonnees_gps":[46.3230559823,6.32549950668],"code_commune_insee":"74171"},"geometry":{"type":"Point","coordinates":[6.32549950668,46.3230559823]},"record_timestamp":"2016-05-09T15:17:00+02:00"},{"datasetid":"laposte_hexasmal","recordid":"eb5703a1aa4f6fd47dbfddd6f055e749d3591f93","fields":{"nom_de_la_commune":"MAXILLY SUR LEMAN","libell_d_acheminement":"MAXILLY SUR LEMAN","code_postal":"74500","coordonnees_gps":[46.393993609,6.6339170176],"code_commune_insee":"74172"},"geometry":{"type":"Point","coordinates":[6.6339170176,46.393993609]},"record_timestamp":"2016-05-09T15:17:00+02:00"},{"datasetid":"laposte_hexasmal","recordid":"eb48862efa75b5378fb43fb01b9735b1561340af","fields":{"nom_de_la_commune":"MENTHON ST BERNARD","libell_d_acheminement":"MENTHON ST BERNARD","code_postal":"74290","coordonnees_gps":[45.8653434236,6.19371720419],"code_commune_insee":"74176"},"geometry":{"type":"Point","coordinates":[6.19371720419,45.8653434236]},"record_timestamp":"2016-05-09T15:17:00+02:00"},{"datasetid":"laposte_hexasmal","recordid":"40863e99eb8e52bfc99996edc2ada687c70ac884","fields":{"nom_de_la_commune":"MENTHONNEX EN BORNES","libell_d_acheminement":"MENTHONNEX EN BORNES","code_postal":"74350","coordonnees_gps":[46.0594628782,6.17994135372],"code_commune_insee":"74177"},"geometry":{"type":"Point","coordinates":[6.17994135372,46.0594628782]},"record_timestamp":"2016-05-09T15:17:00+02:00"},{"datasetid":"laposte_hexasmal","recordid":"9d9bea93fcf105b1934a3668993cbd7221cd73ec","fields":{"code_postal":"74480","code_commune_insee":"74208","libell_d_acheminement":"PASSY","ligne_5":"GUEBRIANT","nom_de_la_commune":"PASSY","coordonnees_gps":[45.9545838758,6.74056895873]},"geometry":{"type":"Point","coordinates":[6.74056895873,45.9545838758]},"record_timestamp":"2016-05-09T15:17:00+02:00"},{"datasetid":"laposte_hexasmal","recordid":"4bdd183c08d343269cc8708c664b74abe00fbb31","fields":{"code_postal":"74480","code_commune_insee":"74208","libell_d_acheminement":"PASSY","ligne_5":"MONT BLANC D ASSY","nom_de_la_commune":"PASSY","coordonnees_gps":[45.9545838758,6.74056895873]},"geometry":{"type":"Point","coordinates":[6.74056895873,45.9545838758]},"record_timestamp":"2016-05-09T15:17:00+02:00"},{"datasetid":"laposte_hexasmal","recordid":"963677782d1f1750c3a638ec05cda6a2dff7c8e1","fields":{"code_postal":"74480","code_commune_insee":"74208","libell_d_acheminement":"PASSY","ligne_5":"SANCELLEMOZ","nom_de_la_commune":"PASSY","coordonnees_gps":[45.9545838758,6.74056895873]},"geometry":{"type":"Point","coordinates":[6.74056895873,45.9545838758]},"record_timestamp":"2016-05-09T15:17:00+02:00"},{"datasetid":"laposte_hexasmal","recordid":"3e8398b4920afc5b88fd7a0e8f3932dcd418da8a","fields":{"nom_de_la_commune":"ST CERGUES","libell_d_acheminement":"ST CERGUES","code_postal":"74140","coordonnees_gps":[46.2308494715,6.32552147286],"code_commune_insee":"74229"},"geometry":{"type":"Point","coordinates":[6.32552147286,46.2308494715]},"record_timestamp":"2016-05-09T15:17:00+02:00"},{"datasetid":"laposte_hexasmal","recordid":"ad637b27a438a767d8c0b270547c4fc3fdbe2703","fields":{"nom_de_la_commune":"ST GERVAIS LES BAINS","libell_d_acheminement":"ST GERVAIS LES BAINS","code_postal":"74170","coordonnees_gps":[45.8571864862,6.74016257718],"code_commune_insee":"74236"},"geometry":{"type":"Point","coordinates":[6.74016257718,45.8571864862]},"record_timestamp":"2016-05-09T15:17:00+02:00"},{"datasetid":"laposte_hexasmal","recordid":"00fbd5fda8c1d6948c30aca937088bfb4a0bcc7e","fields":{"code_postal":"74170","code_commune_insee":"74236","libell_d_acheminement":"ST GERVAIS LES BAINS","ligne_5":"LE FAYET","nom_de_la_commune":"ST GERVAIS LES BAINS","coordonnees_gps":[45.8571864862,6.74016257718]},"geometry":{"type":"Point","coordinates":[6.74016257718,45.8571864862]},"record_timestamp":"2016-05-09T15:17:00+02:00"},{"datasetid":"laposte_hexasmal","recordid":"51bb2b21591ec68d7e5096188fa67c9dce192267","fields":{"nom_de_la_commune":"ST SIGISMOND","libell_d_acheminement":"ST SIGISMOND","code_postal":"74300","coordonnees_gps":[46.0753265855,6.61651398785],"code_commune_insee":"74252"},"geometry":{"type":"Point","coordinates":[6.61651398785,46.0753265855]},"record_timestamp":"2016-05-09T15:17:00+02:00"},{"datasetid":"laposte_hexasmal","recordid":"ab6c14956b2135eff202a5047f673ba3f03af0b8","fields":{"nom_de_la_commune":"ST SIXT","libell_d_acheminement":"ST SIXT","code_postal":"74800","coordonnees_gps":[46.0419013961,6.32297351763],"code_commune_insee":"74253"},"geometry":{"type":"Point","coordinates":[6.32297351763,46.0419013961]},"record_timestamp":"2016-05-09T15:17:00+02:00"},{"datasetid":"laposte_hexasmal","recordid":"ec6839339456da8a320e87896c94c2d4ac9bff87","fields":{"nom_de_la_commune":"SERRAVAL","libell_d_acheminement":"SERRAVAL","code_postal":"74230","coordonnees_gps":[45.8118131571,6.33496579827],"code_commune_insee":"74265"},"geometry":{"type":"Point","coordinates":[6.33496579827,45.8118131571]},"record_timestamp":"2016-05-09T15:17:00+02:00"},{"datasetid":"laposte_hexasmal","recordid":"b48c7a258cc79a87689bd67f05d98822b03f0504","fields":{"code_postal":"74150","code_commune_insee":"74274","libell_d_acheminement":"VAL DE FIER","ligne_5":"ST ANDRE VAL DE FIER","nom_de_la_commune":"VAL DE FIER","coordonnees_gps":[45.9279912564,5.89294651172]},"geometry":{"type":"Point","coordinates":[5.89294651172,45.9279912564]},"record_timestamp":"2016-05-09T15:17:00+02:00"},{"datasetid":"laposte_hexasmal","recordid":"d2c0683a07bc18505e9b067f1523ec3bbc89b522","fields":{"nom_de_la_commune":"THYEZ","libell_d_acheminement":"THYEZ","code_postal":"74300","coordonnees_gps":[46.0881937629,6.53665081936],"code_commune_insee":"74278"},"geometry":{"type":"Point","coordinates":[6.53665081936,46.0881937629]},"record_timestamp":"2016-05-09T15:17:00+02:00"},{"datasetid":"laposte_hexasmal","recordid":"864934dec9607c7890bb754eee7c5db927520805","fields":{"nom_de_la_commune":"THOLLON LES MEMISES","libell_d_acheminement":"THOLLON LES MEMISES","code_postal":"74500","coordonnees_gps":[46.3828568354,6.7291180359],"code_commune_insee":"74279"},"geometry":{"type":"Point","coordinates":[6.7291180359,46.3828568354]},"record_timestamp":"2016-05-09T15:17:00+02:00"},{"datasetid":"laposte_hexasmal","recordid":"21c1db692c52826d678a5eeb39ed0f4560b19b01","fields":{"nom_de_la_commune":"THONON LES BAINS","libell_d_acheminement":"THONON LES BAINS","code_postal":"74200","coordonnees_gps":[46.3704258049,6.48194336071],"code_commune_insee":"74281"},"geometry":{"type":"Point","coordinates":[6.48194336071,46.3704258049]},"record_timestamp":"2016-05-09T15:17:00+02:00"},{"datasetid":"laposte_hexasmal","recordid":"466ad67cbc22a2441ce26b5b32d1d13a48e38064","fields":{"nom_de_la_commune":"THUSY","libell_d_acheminement":"THUSY","code_postal":"74150","coordonnees_gps":[45.949872762,5.96377064209],"code_commune_insee":"74283"},"geometry":{"type":"Point","coordinates":[5.96377064209,45.949872762]},"record_timestamp":"2016-05-09T15:17:00+02:00"},{"datasetid":"laposte_hexasmal","recordid":"620f5eadb5108eaf4ae797a28bf5ac674191a775","fields":{"nom_de_la_commune":"VILLE LA GRAND","libell_d_acheminement":"VILLE LA GRAND","code_postal":"74100","coordonnees_gps":[46.2044481273,6.26056985125],"code_commune_insee":"74305"},"geometry":{"type":"Point","coordinates":[6.26056985125,46.2044481273]},"record_timestamp":"2016-05-09T15:17:00+02:00"},{"datasetid":"laposte_hexasmal","recordid":"b52e4f10101b502630a117d75902a605aa377f9a","fields":{"nom_de_la_commune":"VILLY LE BOUVERET","libell_d_acheminement":"VILLY LE BOUVERET","code_postal":"74350","coordonnees_gps":[46.0442515744,6.15921118422],"code_commune_insee":"74306"},"geometry":{"type":"Point","coordinates":[6.15921118422,46.0442515744]},"record_timestamp":"2016-05-09T15:17:00+02:00"},{"datasetid":"laposte_hexasmal","recordid":"36ac4351da74b21b4c87d8cdf554b244456239a4","fields":{"nom_de_la_commune":"VOUGY","libell_d_acheminement":"VOUGY","code_postal":"74130","coordonnees_gps":[46.066690083,6.48527967486],"code_commune_insee":"74312"},"geometry":{"type":"Point","coordinates":[6.48527967486,46.066690083]},"record_timestamp":"2016-05-09T15:17:00+02:00"},{"datasetid":"laposte_hexasmal","recordid":"131e83b68722785c6140ce4ca7187d6ba04a28f7","fields":{"nom_de_la_commune":"ALBY SUR CHERAN","libell_d_acheminement":"ALBY SUR CHERAN","code_postal":"74540","coordonnees_gps":[45.8156435779,6.01581486858],"code_commune_insee":"74002"},"geometry":{"type":"Point","coordinates":[6.01581486858,45.8156435779]},"record_timestamp":"2016-05-09T15:17:00+02:00"},{"datasetid":"laposte_hexasmal","recordid":"e0dde37f67894f5ccc257d9cc65762796a021097","fields":{"nom_de_la_commune":"AMANCY","libell_d_acheminement":"AMANCY","code_postal":"74800","coordonnees_gps":[46.0728257803,6.33057376854],"code_commune_insee":"74007"},"geometry":{"type":"Point","coordinates":[6.33057376854,46.0728257803]},"record_timestamp":"2016-05-09T15:17:00+02:00"},{"datasetid":"laposte_hexasmal","recordid":"e2642b8eaff06df38089eaf2c4bb8d27bd19337b","fields":{"code_postal":"74300","code_commune_insee":"74014","libell_d_acheminement":"ARACHES LA FRASSE","ligne_5":"LES CARROZ D ARACHES","nom_de_la_commune":"ARACHES LA FRASSE","coordonnees_gps":[46.0302694516,6.66062068121]},"geometry":{"type":"Point","coordinates":[6.66062068121,46.0302694516]},"record_timestamp":"2016-05-09T15:17:00+02:00"},{"datasetid":"laposte_hexasmal","recordid":"114c723567b42119d733917950fed9932231bc79","fields":{"nom_de_la_commune":"BALLAISON","libell_d_acheminement":"BALLAISON","code_postal":"74140","coordonnees_gps":[46.2932587435,6.34400093687],"code_commune_insee":"74025"},"geometry":{"type":"Point","coordinates":[6.34400093687,46.2932587435]},"record_timestamp":"2016-05-09T15:17:00+02:00"},{"datasetid":"laposte_hexasmal","recordid":"248466492cf123255231e05ce45ea2a7ab8a15d1","fields":{"nom_de_la_commune":"LA BALME DE SILLINGY","libell_d_acheminement":"LA BALME DE SILLINGY","code_postal":"74330","coordonnees_gps":[45.9698450968,6.04498278395],"code_commune_insee":"74026"},"geometry":{"type":"Point","coordinates":[6.04498278395,45.9698450968]},"record_timestamp":"2016-05-09T15:17:00+02:00"},{"datasetid":"laposte_hexasmal","recordid":"3a0b37a75f7a49aa51feede8c9a0da279e634e2e","fields":{"nom_de_la_commune":"LA BALME DE THUY","libell_d_acheminement":"LA BALME DE THUY","code_postal":"74230","coordonnees_gps":[45.910029772,6.28546229311],"code_commune_insee":"74027"},"geometry":{"type":"Point","coordinates":[6.28546229311,45.910029772]},"record_timestamp":"2016-05-09T15:17:00+02:00"},{"datasetid":"laposte_hexasmal","recordid":"62b407e93b80a6411437bef5740b12e08217c47d","fields":{"nom_de_la_commune":"BLOYE","libell_d_acheminement":"BLOYE","code_postal":"74150","coordonnees_gps":[45.8204275493,5.94977872948],"code_commune_insee":"74035"},"geometry":{"type":"Point","coordinates":[5.94977872948,45.8204275493]},"record_timestamp":"2016-05-09T15:17:00+02:00"},{"datasetid":"laposte_hexasmal","recordid":"d2272ede97b9ddd96caf99851653ed93a1e920e1","fields":{"nom_de_la_commune":"BLUFFY","libell_d_acheminement":"BLUFFY","code_postal":"74290","coordonnees_gps":[45.8655021029,6.22227398882],"code_commune_insee":"74036"},"geometry":{"type":"Point","coordinates":[6.22227398882,45.8655021029]},"record_timestamp":"2016-05-09T15:17:00+02:00"},{"datasetid":"laposte_hexasmal","recordid":"c216915a4a01b9b7b3008ec44c9334850a121aea","fields":{"nom_de_la_commune":"BONS EN CHABLAIS","libell_d_acheminement":"BONS EN CHABLAIS","code_postal":"74890","coordonnees_gps":[46.2631816283,6.36089776128],"code_commune_insee":"74043"},"geometry":{"type":"Point","coordinates":[6.36089776128,46.2631816283]},"record_timestamp":"2016-05-09T15:17:00+02:00"},{"datasetid":"laposte_hexasmal","recordid":"c97969cd3fe1b38d4c926e1b26f27a935cc60b9c","fields":{"nom_de_la_commune":"LE BOUCHET","libell_d_acheminement":"LE BOUCHET MONT CHARVIN","code_postal":"74230","coordonnees_gps":[45.8045733703,6.38410878026],"code_commune_insee":"74045"},"geometry":{"type":"Point","coordinates":[6.38410878026,45.8045733703]},"record_timestamp":"2016-05-09T15:17:00+02:00"},{"datasetid":"laposte_hexasmal","recordid":"35f67b77439e3f6f00f5455a35fef850a188ac6e","fields":{"nom_de_la_commune":"LA CHAPELLE ST MAURICE","libell_d_acheminement":"LA CHAPELLE ST MAURICE","code_postal":"74410","coordonnees_gps":[45.7714927901,6.15405726067],"code_commune_insee":"74060"},"geometry":{"type":"Point","coordinates":[6.15405726067,45.7714927901]},"record_timestamp":"2016-05-09T15:17:00+02:00"},{"datasetid":"laposte_hexasmal","recordid":"bc91e8cd09eded6aa14f8513849566dd2b59d2fe","fields":{"nom_de_la_commune":"CHAVANOD","libell_d_acheminement":"CHAVANOD","code_postal":"74650","coordonnees_gps":[45.8844744691,6.05040184575],"code_commune_insee":"74067"},"geometry":{"type":"Point","coordinates":[6.05040184575,45.8844744691]},"record_timestamp":"2016-05-09T15:17:00+02:00"},{"datasetid":"laposte_hexasmal","recordid":"c69ba3ae9ed553f3a044c1c2abf51f4df82c8802","fields":{"nom_de_la_commune":"CHENS SUR LEMAN","libell_d_acheminement":"CHENS SUR LEMAN","code_postal":"74140","coordonnees_gps":[46.3104075076,6.26773142669],"code_commune_insee":"74070"},"geometry":{"type":"Point","coordinates":[6.26773142669,46.3104075076]},"record_timestamp":"2016-05-09T15:17:00+02:00"},{"datasetid":"laposte_hexasmal","recordid":"9b19f363911d861df87de5410817690ae8b109ac","fields":{"nom_de_la_commune":"LA CLUSAZ","libell_d_acheminement":"LA CLUSAZ","code_postal":"74220","coordonnees_gps":[45.9001389505,6.46031714364],"code_commune_insee":"74080"},"geometry":{"type":"Point","coordinates":[6.46031714364,45.9001389505]},"record_timestamp":"2016-05-09T15:17:00+02:00"},{"datasetid":"laposte_hexasmal","recordid":"a581eb83d1423e7868d571ef8fb51b579f218eb4","fields":{"nom_de_la_commune":"CLUSES","libell_d_acheminement":"CLUSES","code_postal":"74300","coordonnees_gps":[46.0631088613,6.57892080059],"code_commune_insee":"74081"},"geometry":{"type":"Point","coordinates":[6.57892080059,46.0631088613]},"record_timestamp":"2016-05-09T15:17:00+02:00"},{"datasetid":"laposte_hexasmal","recordid":"0a90ec2df9bace972ef5da06d3d2b55e7f63f720","fields":{"nom_de_la_commune":"COMBLOUX","libell_d_acheminement":"COMBLOUX","code_postal":"74920","coordonnees_gps":[45.8910313929,6.63687678944],"code_commune_insee":"74083"},"geometry":{"type":"Point","coordinates":[6.63687678944,45.8910313929]},"record_timestamp":"2016-05-09T15:17:00+02:00"},{"datasetid":"laposte_hexasmal","recordid":"6333f287aea2fb0da98ad6886efe660bc466214e","fields":{"nom_de_la_commune":"CORNIER","libell_d_acheminement":"CORNIER","code_postal":"74800","coordonnees_gps":[46.0897408945,6.29193924963],"code_commune_insee":"74090"},"geometry":{"type":"Point","coordinates":[6.29193924963,46.0897408945]},"record_timestamp":"2016-05-09T15:17:00+02:00"},{"datasetid":"laposte_hexasmal","recordid":"6d6ec5a0a703bd7bc1df33d54334a971c2d6ddf9","fields":{"nom_de_la_commune":"LA COTE D ARBROZ","libell_d_acheminement":"LA COTE D ARBROZ","code_postal":"74110","coordonnees_gps":[46.1811051133,6.63111937923],"code_commune_insee":"74091"},"geometry":{"type":"Point","coordinates":[6.63111937923,46.1811051133]},"record_timestamp":"2016-05-09T15:17:00+02:00"},{"datasetid":"laposte_hexasmal","recordid":"686375c0dbdd38ea327d7c290e382cb33aa38131","fields":{"nom_de_la_commune":"DESINGY","libell_d_acheminement":"DESINGY","code_postal":"74270","coordonnees_gps":[45.9994978895,5.88777092004],"code_commune_insee":"74100"},"geometry":{"type":"Point","coordinates":[5.88777092004,45.9994978895]},"record_timestamp":"2016-05-09T15:17:00+02:00"},{"datasetid":"laposte_hexasmal","recordid":"12d2c176aae03e6dfdd55788f34f146aaa448c94","fields":{"nom_de_la_commune":"DOMANCY","libell_d_acheminement":"DOMANCY","code_postal":"74700","coordonnees_gps":[45.9071921608,6.66391720268],"code_commune_insee":"74103"},"geometry":{"type":"Point","coordinates":[6.66391720268,45.9071921608]},"record_timestamp":"2016-05-09T15:17:00+02:00"},{"datasetid":"laposte_hexasmal","recordid":"9007dea118840d36c3ed085f9c66ac4a9b072b52","fields":{"nom_de_la_commune":"ETERCY","libell_d_acheminement":"ETERCY","code_postal":"74150","coordonnees_gps":[45.8924317262,6.0079458329],"code_commune_insee":"74117"},"geometry":{"type":"Point","coordinates":[6.0079458329,45.8924317262]},"record_timestamp":"2016-05-09T15:17:00+02:00"},{"datasetid":"laposte_hexasmal","recordid":"c9ddf9e5583bfb03098df6f56eebfceadc07bda1","fields":{"code_postal":"74100","code_commune_insee":"74118","libell_d_acheminement":"ETREMBIERES","ligne_5":"PAS DE L ECHELLE","nom_de_la_commune":"ETREMBIERES","coordonnees_gps":[46.1698202877,6.20839249952]},"geometry":{"type":"Point","coordinates":[6.20839249952,46.1698202877]},"record_timestamp":"2016-05-09T15:17:00+02:00"},{"datasetid":"laposte_hexasmal","recordid":"a065d36c8b531c7aceacc2e676c2426ed66261be","fields":{"nom_de_la_commune":"EVIAN LES BAINS","libell_d_acheminement":"EVIAN LES BAINS","code_postal":"74500","coordonnees_gps":[46.3924102379,6.58612507528],"code_commune_insee":"74119"},"geometry":{"type":"Point","coordinates":[6.58612507528,46.3924102379]},"record_timestamp":"2016-05-09T15:17:00+02:00"},{"datasetid":"laposte_hexasmal","recordid":"7316d8536846af48bb30d9ac169a61e4fdf072ea","fields":{"code_postal":"74210","code_commune_insee":"74123","libell_d_acheminement":"FAVERGES SEYTHENEX","ligne_5":"SEYTHENEX","nom_de_la_commune":"FAVERGES SEYTHENEX","coordonnees_gps":[45.749197611,6.2852126691]},"geometry":{"type":"Point","coordinates":[6.2852126691,45.749197611]},"record_timestamp":"2016-05-09T15:17:00+02:00"},{"datasetid":"laposte_hexasmal","recordid":"1d8765554bbae642e4c6611f50462758b905b10b","fields":{"nom_de_la_commune":"GIEZ","libell_d_acheminement":"GIEZ","code_postal":"74210","coordonnees_gps":[45.7384038811,6.24575065655],"code_commune_insee":"74135"},"geometry":{"type":"Point","coordinates":[6.24575065655,45.7384038811]},"record_timestamp":"2016-05-09T15:17:00+02:00"},{"datasetid":"laposte_hexasmal","recordid":"90f64c46302f450b8f866a6e032c4d83363cc7d9","fields":{"nom_de_la_commune":"HABERE POCHE","libell_d_acheminement":"HABERE POCHE","code_postal":"74420","coordonnees_gps":[46.2555235551,6.47324374853],"code_commune_insee":"74140"},"geometry":{"type":"Point","coordinates":[6.47324374853,46.2555235551]},"record_timestamp":"2016-05-09T15:17:00+02:00"},{"datasetid":"laposte_hexasmal","recordid":"8676b9c8d5acbce47afb32b3b998db3dc961d8ef","fields":{"nom_de_la_commune":"HAUTEVILLE SUR FIER","libell_d_acheminement":"HAUTEVILLE SUR FIER","code_postal":"74150","coordonnees_gps":[45.9053969154,5.97847450903],"code_commune_insee":"74141"},"geometry":{"type":"Point","coordinates":[5.97847450903,45.9053969154]},"record_timestamp":"2016-05-09T15:17:00+02:00"},{"datasetid":"laposte_hexasmal","recordid":"12800d601cb01551b1e894bb700ef2e8b5f4a85e","fields":{"nom_de_la_commune":"LES HOUCHES","libell_d_acheminement":"LES HOUCHES","code_postal":"74310","coordonnees_gps":[45.8968732063,6.8000932715],"code_commune_insee":"74143"},"geometry":{"type":"Point","coordinates":[6.8000932715,45.8968732063]},"record_timestamp":"2016-05-09T15:17:00+02:00"},{"datasetid":"laposte_hexasmal","recordid":"c4b611cf44fab393e8e9d8453b4f1da4826f3403","fields":{"nom_de_la_commune":"LARRINGES","libell_d_acheminement":"LARRINGES","code_postal":"74500","coordonnees_gps":[46.369808059,6.58783064485],"code_commune_insee":"74146"},"geometry":{"type":"Point","coordinates":[6.58783064485,46.369808059]},"record_timestamp":"2016-05-09T15:17:00+02:00"},{"datasetid":"laposte_hexasmal","recordid":"e248825408e7763ac6ca21e2c1a4525532ef927b","fields":{"nom_de_la_commune":"LATHUILE","libell_d_acheminement":"LATHUILE","code_postal":"74210","coordonnees_gps":[45.7732607321,6.19555768621],"code_commune_insee":"74147"},"geometry":{"type":"Point","coordinates":[6.19555768621,45.7732607321]},"record_timestamp":"2016-05-09T15:17:00+02:00"},{"datasetid":"laposte_hexasmal","recordid":"0177f30d9eecd3308eaa18ac327fa3e862c1649a","fields":{"nom_de_la_commune":"LOISIN","libell_d_acheminement":"LOISIN","code_postal":"74140","coordonnees_gps":[46.2802184824,6.30399000794],"code_commune_insee":"74150"},"geometry":{"type":"Point","coordinates":[6.30399000794,46.2802184824]},"record_timestamp":"2016-05-09T15:17:00+02:00"},{"datasetid":"laposte_hexasmal","recordid":"f4f385fc9d9e3296719fe87d3794075ccbde1ec7","fields":{"nom_de_la_commune":"LORNAY","libell_d_acheminement":"LORNAY","code_postal":"74150","coordonnees_gps":[45.9107999793,5.88954497297],"code_commune_insee":"74151"},"geometry":{"type":"Point","coordinates":[5.88954497297,45.9107999793]},"record_timestamp":"2016-05-09T15:17:00+02:00"},{"datasetid":"laposte_hexasmal","recordid":"24837c2494334a16a1f9cbe5b01efad22e746c26","fields":{"nom_de_la_commune":"LOVAGNY","libell_d_acheminement":"LOVAGNY","code_postal":"74330","coordonnees_gps":[45.9038439081,6.03434039234],"code_commune_insee":"74152"},"geometry":{"type":"Point","coordinates":[6.03434039234,45.9038439081]},"record_timestamp":"2016-05-09T15:17:00+02:00"},{"datasetid":"laposte_hexasmal","recordid":"be9748eb16aea472e8f0e877b1f4f7cf9a97317c","fields":{"nom_de_la_commune":"LULLIN","libell_d_acheminement":"LULLIN","code_postal":"74470","coordonnees_gps":[46.2792006557,6.51041633979],"code_commune_insee":"74155"},"geometry":{"type":"Point","coordinates":[6.51041633979,46.2792006557]},"record_timestamp":"2016-05-09T15:17:00+02:00"},{"datasetid":"laposte_hexasmal","recordid":"4ee3bc0f2e58b122854b7d2609acc578183fd939","fields":{"code_postal":"74300","code_commune_insee":"74159","libell_d_acheminement":"MAGLAND","ligne_5":"FLAINE","nom_de_la_commune":"MAGLAND","coordonnees_gps":[46.0010482843,6.63346275001]},"geometry":{"type":"Point","coordinates":[6.63346275001,46.0010482843]},"record_timestamp":"2016-05-09T15:17:00+02:00"},{"datasetid":"laposte_hexasmal","recordid":"d2db0daeec9dad63d8ded37eca716f68618f5919","fields":{"nom_de_la_commune":"MARGENCEL","libell_d_acheminement":"MARGENCEL","code_postal":"74200","coordonnees_gps":[46.3315818048,6.42253424763],"code_commune_insee":"74163"},"geometry":{"type":"Point","coordinates":[6.42253424763,46.3315818048]},"record_timestamp":"2016-05-09T15:17:00+02:00"},{"datasetid":"laposte_hexasmal","recordid":"1f0fbaead978580ef8717e5c2a9b79915b1d3586","fields":{"nom_de_la_commune":"MARIN","libell_d_acheminement":"MARIN","code_postal":"74200","coordonnees_gps":[46.374432028,6.52367394025],"code_commune_insee":"74166"},"geometry":{"type":"Point","coordinates":[6.52367394025,46.374432028]},"record_timestamp":"2016-05-09T15:17:00+02:00"},{"datasetid":"laposte_hexasmal","recordid":"4ec23852dad4068f801b0e15949f6fa873174ec4","fields":{"nom_de_la_commune":"MEGEVE","libell_d_acheminement":"MEGEVE","code_postal":"74120","coordonnees_gps":[45.8401573581,6.62348394015],"code_commune_insee":"74173"},"geometry":{"type":"Point","coordinates":[6.62348394015,45.8401573581]},"record_timestamp":"2016-05-09T15:17:00+02:00"},{"datasetid":"laposte_hexasmal","recordid":"22505d367cdb6048a77b8c083b73dd81a003655e","fields":{"code_postal":"74440","code_commune_insee":"74183","libell_d_acheminement":"MIEUSSY","ligne_5":"SOMMAND","nom_de_la_commune":"MIEUSSY","coordonnees_gps":[46.1453438048,6.53345961052]},"geometry":{"type":"Point","coordinates":[6.53345961052,46.1453438048]},"record_timestamp":"2016-05-09T15:17:00+02:00"},{"datasetid":"laposte_hexasmal","recordid":"a0b5a31f9dc2bcfb08e3daa3677a357948f5b756","fields":{"nom_de_la_commune":"MINZIER","libell_d_acheminement":"MINZIER","code_postal":"74270","coordonnees_gps":[46.0551645606,5.99089024403],"code_commune_insee":"74184"},"geometry":{"type":"Point","coordinates":[5.99089024403,46.0551645606]},"record_timestamp":"2016-05-09T15:17:00+02:00"},{"datasetid":"laposte_hexasmal","recordid":"28198e143cb146555f5f08405cd4199cf5b89201","fields":{"nom_de_la_commune":"MONTAGNY LES LANCHES","libell_d_acheminement":"MONTAGNY LES LANCHES","code_postal":"74600","coordonnees_gps":[45.8589669749,6.04681935916],"code_commune_insee":"74186"},"geometry":{"type":"Point","coordinates":[6.04681935916,45.8589669749]},"record_timestamp":"2016-05-09T15:17:00+02:00"},{"datasetid":"laposte_hexasmal","recordid":"d930b35c819ec22d31d3406f63262e78bb98ac3b","fields":{"code_postal":"74110","code_commune_insee":"74191","libell_d_acheminement":"MORZINE","ligne_5":"AVORIAZ","nom_de_la_commune":"MORZINE","coordonnees_gps":[46.1732135057,6.74252144427]},"geometry":{"type":"Point","coordinates":[6.74252144427,46.1732135057]},"record_timestamp":"2016-05-09T15:17:00+02:00"},{"datasetid":"laposte_hexasmal","recordid":"e48e68ff39dcee50c616d4ea7f952326b924a748","fields":{"nom_de_la_commune":"LA MURAZ","libell_d_acheminement":"LA MURAZ","code_postal":"74560","coordonnees_gps":[46.1193345153,6.19613166236],"code_commune_insee":"74193"},"geometry":{"type":"Point","coordinates":[6.19613166236,46.1193345153]},"record_timestamp":"2016-05-09T15:17:00+02:00"},{"datasetid":"laposte_hexasmal","recordid":"bb04bb52a200cbef489be684197ba85d0f852d17","fields":{"nom_de_la_commune":"NEYDENS","libell_d_acheminement":"NEYDENS","code_postal":"74160","coordonnees_gps":[46.118085274,6.10360630627],"code_commune_insee":"74201"},"geometry":{"type":"Point","coordinates":[6.10360630627,46.118085274]},"record_timestamp":"2016-05-09T15:17:00+02:00"},{"datasetid":"laposte_hexasmal","recordid":"aa12c7b381f23b6c9d7e983dd3bf776cce004fc1","fields":{"nom_de_la_commune":"NONGLARD","libell_d_acheminement":"NONGLARD","code_postal":"74330","coordonnees_gps":[45.9228803405,6.02730833828],"code_commune_insee":"74202"},"geometry":{"type":"Point","coordinates":[6.02730833828,45.9228803405]},"record_timestamp":"2016-05-09T15:17:00+02:00"},{"datasetid":"laposte_hexasmal","recordid":"ad1a35493830d5961d0b30dc8a96edf72313aa51","fields":{"nom_de_la_commune":"ONNION","libell_d_acheminement":"ONNION","code_postal":"74490","coordonnees_gps":[46.1816924284,6.49869806571],"code_commune_insee":"74205"},"geometry":{"type":"Point","coordinates":[6.49869806571,46.1816924284]},"record_timestamp":"2016-05-09T15:17:00+02:00"},{"datasetid":"laposte_hexasmal","recordid":"d00f0ace3445c5500e30bb1aa207d81d535a59c8","fields":{"nom_de_la_commune":"PASSY","libell_d_acheminement":"PASSY","code_postal":"74190","coordonnees_gps":[45.9545838758,6.74056895873],"code_commune_insee":"74208"},"geometry":{"type":"Point","coordinates":[6.74056895873,45.9545838758]},"record_timestamp":"2016-05-09T15:17:00+02:00"},{"datasetid":"laposte_hexasmal","recordid":"63c34d1504f09488b596fad4d5aa1e186a11c426","fields":{"nom_de_la_commune":"PASSY","libell_d_acheminement":"PASSY","code_postal":"74480","coordonnees_gps":[45.9545838758,6.74056895873],"code_commune_insee":"74208"},"geometry":{"type":"Point","coordinates":[6.74056895873,45.9545838758]},"record_timestamp":"2016-05-09T15:17:00+02:00"},{"datasetid":"laposte_hexasmal","recordid":"8cd6f4373355b3d89ab401aa9457d3cbaed227cd","fields":{"code_postal":"74480","code_commune_insee":"74208","libell_d_acheminement":"PASSY","ligne_5":"PRAZ COUTANT","nom_de_la_commune":"PASSY","coordonnees_gps":[45.9545838758,6.74056895873]},"geometry":{"type":"Point","coordinates":[6.74056895873,45.9545838758]},"record_timestamp":"2016-05-09T15:17:00+02:00"},{"datasetid":"laposte_hexasmal","recordid":"c47205fce2535eccf36d587a274cbac1d77cc2fe","fields":{"nom_de_la_commune":"LE PETIT BORNAND LES GLIERES","libell_d_acheminement":"LE PETIT BORNAND LES GLIERES","code_postal":"74130","coordonnees_gps":[45.9971884762,6.3914422283],"code_commune_insee":"74212"},"geometry":{"type":"Point","coordinates":[6.3914422283,45.9971884762]},"record_timestamp":"2016-05-09T15:17:00+02:00"},{"datasetid":"laposte_hexasmal","recordid":"0fed4f0c1614eb43a259ab11655720cabfbda593","fields":{"nom_de_la_commune":"POISY","libell_d_acheminement":"POISY","code_postal":"74330","coordonnees_gps":[45.9189291023,6.06312526002],"code_commune_insee":"74213"},"geometry":{"type":"Point","coordinates":[6.06312526002,45.9189291023]},"record_timestamp":"2016-05-09T15:17:00+02:00"},{"datasetid":"laposte_hexasmal","recordid":"1a5b5270710a455d129e5006958b308d0590f17d","fields":{"nom_de_la_commune":"PRAZ SUR ARLY","libell_d_acheminement":"PRAZ SUR ARLY","code_postal":"74120","coordonnees_gps":[45.8273830963,6.58013212731],"code_commune_insee":"74215"},"geometry":{"type":"Point","coordinates":[6.58013212731,45.8273830963]},"record_timestamp":"2016-05-09T15:17:00+02:00"},{"datasetid":"laposte_hexasmal","recordid":"bd8aa67c6e4e8cc814d778129e1e6a02c31ab1e5","fields":{"code_postal":"74500","code_commune_insee":"74218","libell_d_acheminement":"PUBLIER","ligne_5":"AMPHION LES BAINS","nom_de_la_commune":"PUBLIER","coordonnees_gps":[46.3896985259,6.54164965422]},"geometry":{"type":"Point","coordinates":[6.54164965422,46.3896985259]},"record_timestamp":"2016-05-09T15:17:00+02:00"},{"datasetid":"laposte_hexasmal","recordid":"8e2bebb92bb7437625f54212c4271304d577c964","fields":{"nom_de_la_commune":"ST EUSEBE","libell_d_acheminement":"ST EUSEBE","code_postal":"74150","coordonnees_gps":[45.9294639513,5.96296409626],"code_commune_insee":"74231"},"geometry":{"type":"Point","coordinates":[5.96296409626,45.9294639513]},"record_timestamp":"2016-05-09T15:17:00+02:00"},{"datasetid":"laposte_hexasmal","recordid":"7b2120d8a98fe24d4544b4a790b3ec7d0d7830c8","fields":{"nom_de_la_commune":"ST FERREOL","libell_d_acheminement":"ST FERREOL","code_postal":"74210","coordonnees_gps":[45.7833203062,6.30718276137],"code_commune_insee":"74234"},"geometry":{"type":"Point","coordinates":[6.30718276137,45.7833203062]},"record_timestamp":"2016-05-09T15:17:00+02:00"},{"datasetid":"laposte_hexasmal","recordid":"202bbfd2930bd4e5acc3d3856972b631011bad08","fields":{"nom_de_la_commune":"ST JEAN D AULPS","libell_d_acheminement":"ST JEAN D AULPS","code_postal":"74430","coordonnees_gps":[46.2278739142,6.66076731793],"code_commune_insee":"74238"},"geometry":{"type":"Point","coordinates":[6.66076731793,46.2278739142]},"record_timestamp":"2016-05-09T15:17:00+02:00"},{"datasetid":"laposte_hexasmal","recordid":"d3300e9fab9a1c6e4b7c5dd6abed8781d4439703","fields":{"nom_de_la_commune":"ST JEAN DE SIXT","libell_d_acheminement":"ST JEAN DE SIXT","code_postal":"74450","coordonnees_gps":[45.9242802891,6.40961538858],"code_commune_insee":"74239"},"geometry":{"type":"Point","coordinates":[6.40961538858,45.9242802891]},"record_timestamp":"2016-05-09T15:17:00+02:00"},{"datasetid":"laposte_hexasmal","recordid":"852f7ecddc624c7e532ba3010da6b48b8fbfff8e","fields":{"nom_de_la_commune":"ST JEAN DE THOLOME","libell_d_acheminement":"ST JEAN DE THOLOME","code_postal":"74250","coordonnees_gps":[46.1107199959,6.41494686229],"code_commune_insee":"74240"},"geometry":{"type":"Point","coordinates":[6.41494686229,46.1107199959]},"record_timestamp":"2016-05-09T15:17:00+02:00"},{"datasetid":"laposte_hexasmal","recordid":"c05c0b6fcbbf55fbca527e2f73d047b350ce23f0","fields":{"nom_de_la_commune":"ST JULIEN EN GENEVOIS","libell_d_acheminement":"ST JULIEN EN GENEVOIS","code_postal":"74160","coordonnees_gps":[46.139365545,6.07881171095],"code_commune_insee":"74243"},"geometry":{"type":"Point","coordinates":[6.07881171095,46.139365545]},"record_timestamp":"2016-05-09T15:17:00+02:00"},{"datasetid":"laposte_hexasmal","recordid":"b33d6519510ad0e55806d5027e89ca49557899de","fields":{"nom_de_la_commune":"ST LAURENT","libell_d_acheminement":"ST LAURENT","code_postal":"74800","coordonnees_gps":[46.0373461357,6.35335860666],"code_commune_insee":"74244"},"geometry":{"type":"Point","coordinates":[6.35335860666,46.0373461357]},"record_timestamp":"2016-05-09T15:17:00+02:00"},{"datasetid":"laposte_hexasmal","recordid":"a16709a9872ce2f0d9e9d3827bae9ed68118940e","fields":{"nom_de_la_commune":"SALLANCHES","libell_d_acheminement":"SALLANCHES","code_postal":"74700","coordonnees_gps":[45.9468155788,6.60711053078],"code_commune_insee":"74256"},"geometry":{"type":"Point","coordinates":[6.60711053078,45.9468155788]},"record_timestamp":"2016-05-09T15:17:00+02:00"},{"datasetid":"laposte_hexasmal","recordid":"33b7907ec96ccfd31bf33e617a4b8c8eb147d210","fields":{"code_postal":"74700","code_commune_insee":"74256","libell_d_acheminement":"SALLANCHES","ligne_5":"ST MARTIN SUR ARVE","nom_de_la_commune":"SALLANCHES","coordonnees_gps":[45.9468155788,6.60711053078]},"geometry":{"type":"Point","coordinates":[6.60711053078,45.9468155788]},"record_timestamp":"2016-05-09T15:17:00+02:00"},{"datasetid":"laposte_hexasmal","recordid":"e9689de826a4beb245925b60a72f1f21634f7039","fields":{"nom_de_la_commune":"SAXEL","libell_d_acheminement":"SAXEL","code_postal":"74420","coordonnees_gps":[46.2447795601,6.40325461428],"code_commune_insee":"74261"},"geometry":{"type":"Point","coordinates":[6.40325461428,46.2447795601]},"record_timestamp":"2016-05-09T15:17:00+02:00"},{"datasetid":"laposte_hexasmal","recordid":"383efdc0815a2b22dbf8f38402ea164f525fedab","fields":{"nom_de_la_commune":"SCIEZ","libell_d_acheminement":"SCIEZ","code_postal":"74140","coordonnees_gps":[46.3247332955,6.38071834154],"code_commune_insee":"74263"},"geometry":{"type":"Point","coordinates":[6.38071834154,46.3247332955]},"record_timestamp":"2016-05-09T15:17:00+02:00"},{"datasetid":"laposte_hexasmal","recordid":"50313bf09b9a71f02d6b5515fd98936e4c6f990f","fields":{"nom_de_la_commune":"VAL DE FIER","libell_d_acheminement":"VAL DE FIER","code_postal":"74150","coordonnees_gps":[45.9279912564,5.89294651172],"code_commune_insee":"74274"},"geometry":{"type":"Point","coordinates":[5.89294651172,45.9279912564]},"record_timestamp":"2016-05-09T15:17:00+02:00"},{"datasetid":"laposte_hexasmal","recordid":"2266adc9f2488be59d3a6622b699d3cc4d8d1907","fields":{"nom_de_la_commune":"VACHERESSE","libell_d_acheminement":"VACHERESSE","code_postal":"74360","coordonnees_gps":[46.3228440674,6.7065933809],"code_commune_insee":"74286"},"geometry":{"type":"Point","coordinates":[6.7065933809,46.3228440674]},"record_timestamp":"2016-05-09T15:17:00+02:00"},{"datasetid":"laposte_hexasmal","recordid":"253c2b41def554bd787296aa1d6d387afd32c44b","fields":{"nom_de_la_commune":"VALLIERES","libell_d_acheminement":"VALLIERES","code_postal":"74150","coordonnees_gps":[45.9052695634,5.94190689609],"code_commune_insee":"74289"},"geometry":{"type":"Point","coordinates":[5.94190689609,45.9052695634]},"record_timestamp":"2016-05-09T15:17:00+02:00"},{"datasetid":"laposte_hexasmal","recordid":"99ea0792a233ea98357ba8643321d7495993b9f1","fields":{"nom_de_la_commune":"VAULX","libell_d_acheminement":"VAULX","code_postal":"74150","coordonnees_gps":[45.9255788911,5.99894217943],"code_commune_insee":"74292"},"geometry":{"type":"Point","coordinates":[5.99894217943,45.9255788911]},"record_timestamp":"2016-05-09T15:17:00+02:00"},{"datasetid":"laposte_hexasmal","recordid":"0ff23990e8506e4bee51dc2b32cb96a0e07b3ad8","fields":{"nom_de_la_commune":"ABONDANCE","libell_d_acheminement":"ABONDANCE","code_postal":"74360","coordonnees_gps":[46.2661080816,6.7321620538],"code_commune_insee":"74001"},"geometry":{"type":"Point","coordinates":[6.7321620538,46.2661080816]},"record_timestamp":"2016-05-09T15:17:00+02:00"},{"datasetid":"laposte_hexasmal","recordid":"a9439e515049baa1e2c3720f979e00b35b2928bd","fields":{"nom_de_la_commune":"ALLONZIER LA CAILLE","libell_d_acheminement":"ALLONZIER LA CAILLE","code_postal":"74350","coordonnees_gps":[46.000527699,6.10482048689],"code_commune_insee":"74006"},"geometry":{"type":"Point","coordinates":[6.10482048689,46.000527699]},"record_timestamp":"2016-05-09T15:17:00+02:00"},{"datasetid":"laposte_hexasmal","recordid":"5a8313a5f706e82d338e21ba8feba3c6e57e01d4","fields":{"nom_de_la_commune":"ARGONAY","libell_d_acheminement":"ARGONAY","code_postal":"74370","coordonnees_gps":[45.9472669174,6.14837081563],"code_commune_insee":"74019"},"geometry":{"type":"Point","coordinates":[6.14837081563,45.9472669174]},"record_timestamp":"2016-05-09T15:17:00+02:00"},{"datasetid":"laposte_hexasmal","recordid":"b6b31c05dcfd7151335142b150b093986b8fe11d","fields":{"nom_de_la_commune":"AYSE","libell_d_acheminement":"AYSE","code_postal":"74130","coordonnees_gps":[46.0869924496,6.44601645014],"code_commune_insee":"74024"},"geometry":{"type":"Point","coordinates":[6.44601645014,46.0869924496]},"record_timestamp":"2016-05-09T15:17:00+02:00"},{"datasetid":"laposte_hexasmal","recordid":"f93268035682249408e090fca12946ba77b64ada","fields":{"nom_de_la_commune":"LE BIOT","libell_d_acheminement":"LE BIOT","code_postal":"74430","coordonnees_gps":[46.2728593658,6.64024071432],"code_commune_insee":"74034"},"geometry":{"type":"Point","coordinates":[6.64024071432,46.2728593658]},"record_timestamp":"2016-05-09T15:17:00+02:00"},{"datasetid":"laposte_hexasmal","recordid":"9ce6abe1a0b8a55e3f840cff4f9077e6f958e3aa","fields":{"nom_de_la_commune":"BONNE","libell_d_acheminement":"BONNE","code_postal":"74380","coordonnees_gps":[46.1718364348,6.31931310923],"code_commune_insee":"74040"},"geometry":{"type":"Point","coordinates":[6.31931310923,46.1718364348]},"record_timestamp":"2016-05-09T15:17:00+02:00"},{"datasetid":"laposte_hexasmal","recordid":"1cf191ab0d642b695c33066922eeb6fde91ca43a","fields":{"code_postal":"74380","code_commune_insee":"74040","libell_d_acheminement":"BONNE","ligne_5":"LOEX","nom_de_la_commune":"BONNE","coordonnees_gps":[46.1718364348,6.31931310923]},"geometry":{"type":"Point","coordinates":[6.31931310923,46.1718364348]},"record_timestamp":"2016-05-09T15:17:00+02:00"},{"datasetid":"laposte_hexasmal","recordid":"7ea94c163bffd5085f76198c8e6d6726808e087e","fields":{"nom_de_la_commune":"BRENTHONNE","libell_d_acheminement":"BRENTHONNE","code_postal":"74890","coordonnees_gps":[46.2692786912,6.39437723207],"code_commune_insee":"74048"},"geometry":{"type":"Point","coordinates":[6.39437723207,46.2692786912]},"record_timestamp":"2016-05-09T15:17:00+02:00"},{"datasetid":"laposte_hexasmal","recordid":"971ddf20a05d4ce205c118a49927eeb3a8f9e8eb","fields":{"code_postal":"74400","code_commune_insee":"74056","libell_d_acheminement":"CHAMONIX MONT BLANC","ligne_5":"ARGENTIERE","nom_de_la_commune":"CHAMONIX MONT BLANC","coordonnees_gps":[45.9309819111,6.92360096711]},"geometry":{"type":"Point","coordinates":[6.92360096711,45.9309819111]},"record_timestamp":"2016-05-09T15:17:00+02:00"},{"datasetid":"laposte_hexasmal","recordid":"8cb3a2253f5b53157dfa26247bce91affb09b5c4","fields":{"code_postal":"74400","code_commune_insee":"74056","libell_d_acheminement":"CHAMONIX MONT BLANC","ligne_5":"LES PRAZ DE CHAMONIX","nom_de_la_commune":"CHAMONIX MONT BLANC","coordonnees_gps":[45.9309819111,6.92360096711]},"geometry":{"type":"Point","coordinates":[6.92360096711,45.9309819111]},"record_timestamp":"2016-05-09T15:17:00+02:00"},{"datasetid":"laposte_hexasmal","recordid":"2a2a855e919fc284b87c5daea15f7a424aafa440","fields":{"nom_de_la_commune":"CHARVONNEX","libell_d_acheminement":"CHARVONNEX","code_postal":"74370","coordonnees_gps":[45.9825276436,6.15767160259],"code_commune_insee":"74062"},"geometry":{"type":"Point","coordinates":[6.15767160259,45.9825276436]},"record_timestamp":"2016-05-09T15:17:00+02:00"},{"datasetid":"laposte_hexasmal","recordid":"d3ecdb6d6bded603fe9fd2378be81ffe02b3e261","fields":{"nom_de_la_commune":"CHAUMONT","libell_d_acheminement":"CHAUMONT","code_postal":"74270","coordonnees_gps":[46.044949243,5.94515955142],"code_commune_insee":"74065"},"geometry":{"type":"Point","coordinates":[5.94515955142,46.044949243]},"record_timestamp":"2016-05-09T15:17:00+02:00"},{"datasetid":"laposte_hexasmal","recordid":"6d6b91998fb6b746742cbaad323b46b86f8e5155","fields":{"nom_de_la_commune":"CHESSENAZ","libell_d_acheminement":"CHESSENAZ","code_postal":"74270","coordonnees_gps":[46.0407218951,5.90635701971],"code_commune_insee":"74071"},"geometry":{"type":"Point","coordinates":[5.90635701971,46.0407218951]},"record_timestamp":"2016-05-09T15:17:00+02:00"},{"datasetid":"laposte_hexasmal","recordid":"771292021784851c7f2464b419c3709d981695b7","fields":{"nom_de_la_commune":"CHEVENOZ","libell_d_acheminement":"CHEVENOZ","code_postal":"74500","coordonnees_gps":[46.3330385867,6.64071625327],"code_commune_insee":"74073"},"geometry":{"type":"Point","coordinates":[6.64071625327,46.3330385867]},"record_timestamp":"2016-05-09T15:17:00+02:00"},{"datasetid":"laposte_hexasmal","recordid":"63f7468d966142af5ddf0ee4add2d75ddd847df3","fields":{"nom_de_la_commune":"CLARAFOND ARCINE","libell_d_acheminement":"CLARAFOND ARCINE","code_postal":"74270","coordonnees_gps":[46.074723886,5.89580535006],"code_commune_insee":"74077"},"geometry":{"type":"Point","coordinates":[5.89580535006,46.074723886]},"record_timestamp":"2016-05-09T15:17:00+02:00"},{"datasetid":"laposte_hexasmal","recordid":"c529a2e7d7221b48e5a878f9b3981c2f9414c08b","fields":{"nom_de_la_commune":"LES CLEFS","libell_d_acheminement":"LES CLEFS","code_postal":"74230","coordonnees_gps":[45.8448702892,6.32686437969],"code_commune_insee":"74079"},"geometry":{"type":"Point","coordinates":[6.32686437969,45.8448702892]},"record_timestamp":"2016-05-09T15:17:00+02:00"},{"datasetid":"laposte_hexasmal","recordid":"ac12edd45f4763c3487263497b1661d69207983d","fields":{"nom_de_la_commune":"CONTAMINE SUR ARVE","libell_d_acheminement":"CONTAMINE SUR ARVE","code_postal":"74130","coordonnees_gps":[46.1334593706,6.33869457098],"code_commune_insee":"74087"},"geometry":{"type":"Point","coordinates":[6.33869457098,46.1334593706]},"record_timestamp":"2016-05-09T15:17:00+02:00"},{"datasetid":"laposte_hexasmal","recordid":"13eb1b08a267ec78ba908f8db3cbfa30906c2ba6","fields":{"nom_de_la_commune":"CORDON","libell_d_acheminement":"CORDON","code_postal":"74700","coordonnees_gps":[45.909121538,6.56940992155],"code_commune_insee":"74089"},"geometry":{"type":"Point","coordinates":[6.56940992155,45.909121538]},"record_timestamp":"2016-05-09T15:17:00+02:00"},{"datasetid":"laposte_hexasmal","recordid":"90b57c3739fd147a850d1076b717ef15a7841450","fields":{"nom_de_la_commune":"CRAN GEVRIER","libell_d_acheminement":"CRAN GEVRIER","code_postal":"74960","coordonnees_gps":[45.9017933456,6.09977672068],"code_commune_insee":"74093"},"geometry":{"type":"Point","coordinates":[6.09977672068,45.9017933456]},"record_timestamp":"2016-05-09T15:17:00+02:00"},{"datasetid":"laposte_hexasmal","recordid":"f2911916a507796c51a1eaa871152044a6dec41a","fields":{"code_postal":"74150","code_commune_insee":"74095","libell_d_acheminement":"CREMPIGNY BONNEGUETE","ligne_5":"BONNEGUETE","nom_de_la_commune":"CREMPIGNY BONNEGUETE","coordonnees_gps":[45.9467841367,5.90312519314]},"geometry":{"type":"Point","coordinates":[5.90312519314,45.9467841367]},"record_timestamp":"2016-05-09T15:17:00+02:00"},{"datasetid":"laposte_hexasmal","recordid":"f637eb8de32712ea66ccaf906f9c98d982936cd3","fields":{"nom_de_la_commune":"CRUSEILLES","libell_d_acheminement":"CRUSEILLES","code_postal":"74350","coordonnees_gps":[46.0362105004,6.11527700259],"code_commune_insee":"74096"},"geometry":{"type":"Point","coordinates":[6.11527700259,46.0362105004]},"record_timestamp":"2016-05-09T15:17:00+02:00"},{"datasetid":"laposte_hexasmal","recordid":"b99948f52e15343f470c7c8a4260113d16c8f4d2","fields":{"nom_de_la_commune":"CUSY","libell_d_acheminement":"CUSY","code_postal":"74540","coordonnees_gps":[45.7584929074,6.0333103006],"code_commune_insee":"74097"},"geometry":{"type":"Point","coordinates":[6.0333103006,45.7584929074]},"record_timestamp":"2016-05-09T15:17:00+02:00"},{"datasetid":"laposte_hexasmal","recordid":"be87fb2b1e9b0b37b3f03af6029204d7a07a9bb1","fields":{"nom_de_la_commune":"DOUSSARD","libell_d_acheminement":"DOUSSARD","code_postal":"74210","coordonnees_gps":[45.7709274033,6.22183215069],"code_commune_insee":"74104"},"geometry":{"type":"Point","coordinates":[6.22183215069,45.7709274033]},"record_timestamp":"2016-05-09T15:17:00+02:00"},{"datasetid":"laposte_hexasmal","recordid":"5062b5543bc08d6bbd70b3d269ec46b435aac0bd","fields":{"nom_de_la_commune":"DUINGT","libell_d_acheminement":"DUINGT","code_postal":"74410","coordonnees_gps":[45.8204516691,6.19524357933],"code_commune_insee":"74108"},"geometry":{"type":"Point","coordinates":[6.19524357933,45.8204516691]},"record_timestamp":"2016-05-09T15:17:00+02:00"},{"datasetid":"laposte_hexasmal","recordid":"b6f74c2790258dc37be8c9c314d714bec973ef1b","fields":{"nom_de_la_commune":"ENTREMONT","libell_d_acheminement":"ENTREMONT","code_postal":"74130","coordonnees_gps":[45.9504525133,6.3755250744],"code_commune_insee":"74110"},"geometry":{"type":"Point","coordinates":[6.3755250744,45.9504525133]},"record_timestamp":"2016-05-09T15:17:00+02:00"},{"datasetid":"laposte_hexasmal","recordid":"d92532b78ce77496ab965ed45c8c14aea40e15b8","fields":{"nom_de_la_commune":"EPAGNY METZ TESSY","libell_d_acheminement":"EPAGNY METZ TESSY","code_postal":"74330","coordonnees_gps":[45.9440370403,6.08226977374],"code_commune_insee":"74112"},"geometry":{"type":"Point","coordinates":[6.08226977374,45.9440370403]},"record_timestamp":"2016-05-09T15:17:00+02:00"},{"datasetid":"laposte_hexasmal","recordid":"bb71dfeba5b6083f3576fdc7af35e24f9fccefb2","fields":{"code_postal":"74370","code_commune_insee":"74112","libell_d_acheminement":"EPAGNY METZ TESSY","ligne_5":"METZ TESSY","nom_de_la_commune":"EPAGNY METZ TESSY","coordonnees_gps":[45.9440370403,6.08226977374]},"geometry":{"type":"Point","coordinates":[6.08226977374,45.9440370403]},"record_timestamp":"2016-05-09T15:17:00+02:00"},{"datasetid":"laposte_hexasmal","recordid":"f40ec5fe9b59cdf18faac6265803fee4229b539a","fields":{"nom_de_la_commune":"EVIRES","libell_d_acheminement":"EVIRES","code_postal":"74570","coordonnees_gps":[46.0421036287,6.22183912174],"code_commune_insee":"74120"},"geometry":{"type":"Point","coordinates":[6.22183912174,46.0421036287]},"record_timestamp":"2016-05-09T15:17:00+02:00"},{"datasetid":"laposte_hexasmal","recordid":"ef94efca19b8c56919fedce7e73b1e02f37e9b1f","fields":{"nom_de_la_commune":"EXCENEVEX","libell_d_acheminement":"EXCENEVEX","code_postal":"74140","coordonnees_gps":[46.3467214365,6.34122172541],"code_commune_insee":"74121"},"geometry":{"type":"Point","coordinates":[6.34122172541,46.3467214365]},"record_timestamp":"2016-05-09T15:17:00+02:00"},{"datasetid":"laposte_hexasmal","recordid":"c836727e89518e4bc96121ccef5dabb49a5efc32","fields":{"nom_de_la_commune":"FETERNES","libell_d_acheminement":"FETERNES","code_postal":"74500","coordonnees_gps":[46.3490789194,6.5652955969],"code_commune_insee":"74127"},"geometry":{"type":"Point","coordinates":[6.5652955969,46.3490789194]},"record_timestamp":"2016-05-09T15:17:00+02:00"},{"datasetid":"laposte_hexasmal","recordid":"8ade0c5ac8c14928527a77d3edcb1081e11da877","fields":{"nom_de_la_commune":"HERY SUR ALBY","libell_d_acheminement":"HERY SUR ALBY","code_postal":"74540","coordonnees_gps":[45.791943752,6.01056501234],"code_commune_insee":"74142"},"geometry":{"type":"Point","coordinates":[6.01056501234,45.791943752]},"record_timestamp":"2016-05-09T15:17:00+02:00"},{"datasetid":"laposte_hexasmal","recordid":"c9d93b8af6829f2c99a43b52c59163d1e28aabcc","fields":{"nom_de_la_commune":"LYAUD","libell_d_acheminement":"LYAUD","code_postal":"74200","coordonnees_gps":[46.3337086128,6.52037884691],"code_commune_insee":"74157"},"geometry":{"type":"Point","coordinates":[6.52037884691,46.3337086128]},"record_timestamp":"2016-05-09T15:17:00+02:00"},{"datasetid":"laposte_hexasmal","recordid":"b129500c0d340f66003e3c4340c69d22cd3f3870","fields":{"nom_de_la_commune":"MAGLAND","libell_d_acheminement":"MAGLAND","code_postal":"74300","coordonnees_gps":[46.0010482843,6.63346275001],"code_commune_insee":"74159"},"geometry":{"type":"Point","coordinates":[6.63346275001,46.0010482843]},"record_timestamp":"2016-05-09T15:17:00+02:00"},{"datasetid":"laposte_hexasmal","recordid":"9d04c849bf621689665a51541495c1dc01387153","fields":{"nom_de_la_commune":"MARCELLAZ","libell_d_acheminement":"MARCELLAZ","code_postal":"74250","coordonnees_gps":[46.1452555386,6.35771780068],"code_commune_insee":"74162"},"geometry":{"type":"Point","coordinates":[6.35771780068,46.1452555386]},"record_timestamp":"2016-05-09T15:17:00+02:00"},{"datasetid":"laposte_hexasmal","recordid":"70c47a4821a47df995263fecfccaf2b4a0ba0713","fields":{"nom_de_la_commune":"MARIGNIER","libell_d_acheminement":"MARIGNIER","code_postal":"74970","coordonnees_gps":[46.0950289167,6.4944693169],"code_commune_insee":"74164"},"geometry":{"type":"Point","coordinates":[6.4944693169,46.0950289167]},"record_timestamp":"2016-05-09T15:17:00+02:00"},{"datasetid":"laposte_hexasmal","recordid":"665bf9250a7d5ee50dfad4f8b4b7c84380d7b151","fields":{"nom_de_la_commune":"MARLIOZ","libell_d_acheminement":"MARLIOZ","code_postal":"74270","coordonnees_gps":[46.0270380688,6.00829884912],"code_commune_insee":"74168"},"geometry":{"type":"Point","coordinates":[6.00829884912,46.0270380688]},"record_timestamp":"2016-05-09T15:17:00+02:00"},{"datasetid":"laposte_hexasmal","recordid":"6bcb29c50a45477a0a9cb44ff6a9ef1e3957f4df","fields":{"nom_de_la_commune":"MEILLERIE","libell_d_acheminement":"MEILLERIE","code_postal":"74500","coordonnees_gps":[46.4006869695,6.73172142623],"code_commune_insee":"74175"},"geometry":{"type":"Point","coordinates":[6.73172142623,46.4006869695]},"record_timestamp":"2016-05-09T15:17:00+02:00"},{"datasetid":"laposte_hexasmal","recordid":"d43383cf902dbb08b78ff16dad38c585ce148688","fields":{"nom_de_la_commune":"MESSERY","libell_d_acheminement":"MESSERY","code_postal":"74140","coordonnees_gps":[46.3456509574,6.29932822194],"code_commune_insee":"74180"},"geometry":{"type":"Point","coordinates":[6.29932822194,46.3456509574]},"record_timestamp":"2016-05-09T15:17:00+02:00"},{"datasetid":"laposte_hexasmal","recordid":"861287f7957bf7afd8faa00c340c05101a943720","fields":{"nom_de_la_commune":"MONNETIER MORNEX","libell_d_acheminement":"MONNETIER MORNEX","code_postal":"74560","coordonnees_gps":[46.1525800446,6.21241233878],"code_commune_insee":"74185"},"geometry":{"type":"Point","coordinates":[6.21241233878,46.1525800446]},"record_timestamp":"2016-05-09T15:17:00+02:00"},{"datasetid":"laposte_hexasmal","recordid":"ec48bf79bdadf7c984168b216aa0e6562ee80a99","fields":{"nom_de_la_commune":"MONTRIOND","libell_d_acheminement":"MONTRIOND","code_postal":"74110","coordonnees_gps":[46.2066444762,6.74359316824],"code_commune_insee":"74188"},"geometry":{"type":"Point","coordinates":[6.74359316824,46.2066444762]},"record_timestamp":"2016-05-09T15:17:00+02:00"},{"datasetid":"laposte_hexasmal","recordid":"5714915619f2076ad0813f874a626bad7ecfaf3f","fields":{"nom_de_la_commune":"MORZINE","libell_d_acheminement":"MORZINE","code_postal":"74110","coordonnees_gps":[46.1732135057,6.74252144427],"code_commune_insee":"74191"},"geometry":{"type":"Point","coordinates":[6.74252144427,46.1732135057]},"record_timestamp":"2016-05-09T15:17:00+02:00"},{"datasetid":"laposte_hexasmal","recordid":"0e69879da5f5bc3919636c0e3930a6f51d018ac3","fields":{"nom_de_la_commune":"NANGY","libell_d_acheminement":"NANGY","code_postal":"74380","coordonnees_gps":[46.1500146903,6.30645788987],"code_commune_insee":"74197"},"geometry":{"type":"Point","coordinates":[6.30645788987,46.1500146903]},"record_timestamp":"2016-05-09T15:17:00+02:00"},{"datasetid":"laposte_hexasmal","recordid":"d7a79d15800cab2c052ec169ad726e95c47e31ee","fields":{"nom_de_la_commune":"NAVES PARMELAN","libell_d_acheminement":"NAVES PARMELAN","code_postal":"74370","coordonnees_gps":[45.9320249832,6.19716046431],"code_commune_insee":"74198"},"geometry":{"type":"Point","coordinates":[6.19716046431,45.9320249832]},"record_timestamp":"2016-05-09T15:17:00+02:00"},{"datasetid":"laposte_hexasmal","recordid":"fd6569196cd1393c476d0807b732510f36a27dc3","fields":{"nom_de_la_commune":"NOVEL","libell_d_acheminement":"NOVEL","code_postal":"74500","coordonnees_gps":[46.3613258341,6.76382065877],"code_commune_insee":"74203"},"geometry":{"type":"Point","coordinates":[6.76382065877,46.3613258341]},"record_timestamp":"2016-05-09T15:17:00+02:00"},{"datasetid":"laposte_hexasmal","recordid":"42a4352246634704ba0751702174fc5c58a25a1f","fields":{"nom_de_la_commune":"ORCIER","libell_d_acheminement":"ORCIER","code_postal":"74550","coordonnees_gps":[46.3132216712,6.50123814187],"code_commune_insee":"74206"},"geometry":{"type":"Point","coordinates":[6.50123814187,46.3132216712]},"record_timestamp":"2016-05-09T15:17:00+02:00"},{"datasetid":"laposte_hexasmal","recordid":"68b2fb023e3c78e7ee68690ce1d02ce1b241d9ab","fields":{"code_postal":"74480","code_commune_insee":"74208","libell_d_acheminement":"PASSY","ligne_5":"MARTEL DE JANVILLE","nom_de_la_commune":"PASSY","coordonnees_gps":[45.9545838758,6.74056895873]},"geometry":{"type":"Point","coordinates":[6.74056895873,45.9545838758]},"record_timestamp":"2016-05-09T15:17:00+02:00"},{"datasetid":"laposte_hexasmal","recordid":"f6824e52084d1763fd3416836984ba4426ef9602","fields":{"code_postal":"74480","code_commune_insee":"74208","libell_d_acheminement":"PASSY","ligne_5":"PLATEAU D ASSY","nom_de_la_commune":"PASSY","coordonnees_gps":[45.9545838758,6.74056895873]},"geometry":{"type":"Point","coordinates":[6.74056895873,45.9545838758]},"record_timestamp":"2016-05-09T15:17:00+02:00"},{"datasetid":"laposte_hexasmal","recordid":"506c34cec390213234706f39058c1ed926321e5d","fields":{"nom_de_la_commune":"PEILLONNEX","libell_d_acheminement":"PEILLONNEX","code_postal":"74250","coordonnees_gps":[46.1323903269,6.38235648259],"code_commune_insee":"74209"},"geometry":{"type":"Point","coordinates":[6.38235648259,46.1323903269]},"record_timestamp":"2016-05-09T15:17:00+02:00"},{"datasetid":"laposte_hexasmal","recordid":"bd0175f1e6c6e02327e913a78702b89424d2f894","fields":{"nom_de_la_commune":"PERRIGNIER","libell_d_acheminement":"PERRIGNIER","code_postal":"74550","coordonnees_gps":[46.3062097696,6.43566112571],"code_commune_insee":"74210"},"geometry":{"type":"Point","coordinates":[6.43566112571,46.3062097696]},"record_timestamp":"2016-05-09T15:17:00+02:00"},{"datasetid":"laposte_hexasmal","recordid":"fc92e1166daaf4093f30e685e5df0614d8483947","fields":{"nom_de_la_commune":"PRINGY","libell_d_acheminement":"PRINGY","code_postal":"74370","coordonnees_gps":[45.9566469348,6.10912303815],"code_commune_insee":"74217"},"geometry":{"type":"Point","coordinates":[6.10912303815,45.9566469348]},"record_timestamp":"2016-05-09T15:17:00+02:00"},{"datasetid":"laposte_hexasmal","recordid":"c6b7450f6311bcce0e4d69a4362aeffbec455d72","fields":{"nom_de_la_commune":"REIGNIER ESERY","libell_d_acheminement":"REIGNIER ESERY","code_postal":"74930","coordonnees_gps":[46.1353479879,6.26126122824],"code_commune_insee":"74220"},"geometry":{"type":"Point","coordinates":[6.26126122824,46.1353479879]},"record_timestamp":"2016-05-09T15:17:00+02:00"},{"datasetid":"laposte_hexasmal","recordid":"b442c4fe30cdeedecad8a935fa11e23c5fd5d614","fields":{"code_postal":"74930","code_commune_insee":"74220","libell_d_acheminement":"REIGNIER ESERY","ligne_5":"ESERY","nom_de_la_commune":"REIGNIER ESERY","coordonnees_gps":[46.1353479879,6.26126122824]},"geometry":{"type":"Point","coordinates":[6.26126122824,46.1353479879]},"record_timestamp":"2016-05-09T15:17:00+02:00"},{"datasetid":"laposte_hexasmal","recordid":"24fc9f0807014d4286d7b4a352fa35068e390221","fields":{"nom_de_la_commune":"LE REPOSOIR","libell_d_acheminement":"LE REPOSOIR","code_postal":"74950","coordonnees_gps":[45.9970981338,6.52628371874],"code_commune_insee":"74221"},"geometry":{"type":"Point","coordinates":[6.52628371874,45.9970981338]},"record_timestamp":"2016-05-09T15:17:00+02:00"},{"datasetid":"laposte_hexasmal","recordid":"c401e5a470700f4ee30d48a365837af5c8255342","fields":{"nom_de_la_commune":"LA RIVIERE ENVERSE","libell_d_acheminement":"LA RIVIERE ENVERSE","code_postal":"74440","coordonnees_gps":[46.0896743627,6.63334619957],"code_commune_insee":"74223"},"geometry":{"type":"Point","coordinates":[6.63334619957,46.0896743627]},"record_timestamp":"2016-05-09T15:17:00+02:00"},{"datasetid":"laposte_hexasmal","recordid":"6bb4244cf143d3e3ef373c47cb97dd6394451a1f","fields":{"nom_de_la_commune":"RUMILLY","libell_d_acheminement":"RUMILLY","code_postal":"74150","coordonnees_gps":[45.8555126651,5.94075287432],"code_commune_insee":"74225"},"geometry":{"type":"Point","coordinates":[5.94075287432,45.8555126651]},"record_timestamp":"2016-05-09T15:17:00+02:00"},{"datasetid":"laposte_hexasmal","recordid":"0906151d8424541b17c71317e8d1fffdd10b5ce2","fields":{"nom_de_la_commune":"ST ANDRE DE BOEGE","libell_d_acheminement":"ST ANDRE DE BOEGE","code_postal":"74420","coordonnees_gps":[46.1932380604,6.3815476772],"code_commune_insee":"74226"},"geometry":{"type":"Point","coordinates":[6.3815476772,46.1932380604]},"record_timestamp":"2016-05-09T15:17:00+02:00"},{"datasetid":"laposte_hexasmal","recordid":"c8b6e40a9f84b825245b558262fce515948e59fa","fields":{"nom_de_la_commune":"ST EUSTACHE","libell_d_acheminement":"ST EUSTACHE","code_postal":"74410","coordonnees_gps":[45.7953730789,6.15214933541],"code_commune_insee":"74232"},"geometry":{"type":"Point","coordinates":[6.15214933541,45.7953730789]},"record_timestamp":"2016-05-09T15:17:00+02:00"},{"datasetid":"laposte_hexasmal","recordid":"030304fc0e096e848b24a1e8ffb52ee1c84f65b5","fields":{"nom_de_la_commune":"ST GERMAIN SUR RHONE","libell_d_acheminement":"ST GERMAIN SUR RHONE","code_postal":"74910","coordonnees_gps":[46.0700297768,5.82592326437],"code_commune_insee":"74235"},"geometry":{"type":"Point","coordinates":[5.82592326437,46.0700297768]},"record_timestamp":"2016-05-09T15:17:00+02:00"},{"datasetid":"laposte_hexasmal","recordid":"6417f2e144e43e2d87c0e26bc7677365bf213b05","fields":{"nom_de_la_commune":"ST GINGOLPH","libell_d_acheminement":"ST GINGOLPH","code_postal":"74500","coordonnees_gps":[46.3882088835,6.77810230849],"code_commune_insee":"74237"},"geometry":{"type":"Point","coordinates":[6.77810230849,46.3882088835]},"record_timestamp":"2016-05-09T15:17:00+02:00"},{"datasetid":"laposte_hexasmal","recordid":"841daa4921de8c1e70f246ecefdbb2916272d485","fields":{"nom_de_la_commune":"ST MARTIN BELLEVUE","libell_d_acheminement":"ST MARTIN BELLEVUE","code_postal":"74370","coordonnees_gps":[45.9714139291,6.13897086918],"code_commune_insee":"74245"},"geometry":{"type":"Point","coordinates":[6.13897086918,45.9714139291]},"record_timestamp":"2016-05-09T15:17:00+02:00"},{"datasetid":"laposte_hexasmal","recordid":"02657cb5418d7f7bea3a4f9bb9fe512d109668aa","fields":{"nom_de_la_commune":"ST PAUL EN CHABLAIS","libell_d_acheminement":"ST PAUL EN CHABLAIS","code_postal":"74500","coordonnees_gps":[46.3693047939,6.63664025494],"code_commune_insee":"74249"},"geometry":{"type":"Point","coordinates":[6.63664025494,46.3693047939]},"record_timestamp":"2016-05-09T15:17:00+02:00"},{"datasetid":"laposte_hexasmal","recordid":"724f2ef95a7763a6cc9f3bf69cc972f2812dc5cd","fields":{"nom_de_la_commune":"ST SYLVESTRE","libell_d_acheminement":"ST SYLVESTRE","code_postal":"74540","coordonnees_gps":[45.8403822562,6.01327128168],"code_commune_insee":"74254"},"geometry":{"type":"Point","coordinates":[6.01327128168,45.8403822562]},"record_timestamp":"2016-05-09T15:17:00+02:00"},{"datasetid":"laposte_hexasmal","recordid":"b1d4873b1e2fe3eae352e2c404a728b760682eca","fields":{"nom_de_la_commune":"SAMOENS","libell_d_acheminement":"SAMOENS","code_postal":"74340","coordonnees_gps":[46.0878467821,6.74329361493],"code_commune_insee":"74258"},"geometry":{"type":"Point","coordinates":[6.74329361493,46.0878467821]},"record_timestamp":"2016-05-09T15:17:00+02:00"},{"datasetid":"laposte_hexasmal","recordid":"960676b7469d3b4bcb74af5fabf407cd70a5d638","fields":{"nom_de_la_commune":"SCIENTRIER","libell_d_acheminement":"SCIENTRIER","code_postal":"74930","coordonnees_gps":[46.1202601258,6.31761155339],"code_commune_insee":"74262"},"geometry":{"type":"Point","coordinates":[6.31761155339,46.1202601258]},"record_timestamp":"2016-05-09T15:17:00+02:00"},{"datasetid":"laposte_hexasmal","recordid":"583443e9619ba568c0da4c603691545c07a7fa8c","fields":{"nom_de_la_commune":"SCIONZIER","libell_d_acheminement":"SCIONZIER","code_postal":"74950","coordonnees_gps":[46.0486254419,6.54669166581],"code_commune_insee":"74264"},"geometry":{"type":"Point","coordinates":[6.54669166581,46.0486254419]},"record_timestamp":"2016-05-09T15:17:00+02:00"},{"datasetid":"laposte_hexasmal","recordid":"aeaa95257b2a29334737671929385e16a8b65446","fields":{"code_postal":"74600","code_commune_insee":"74268","libell_d_acheminement":"SEYNOD","ligne_5":"BALMONT","nom_de_la_commune":"SEYNOD","coordonnees_gps":[45.8651082916,6.08376465474]},"geometry":{"type":"Point","coordinates":[6.08376465474,45.8651082916]},"record_timestamp":"2016-05-09T15:17:00+02:00"},{"datasetid":"laposte_hexasmal","recordid":"8b797c9ac679e54963af2231fd928d3cf2f7f88e","fields":{"code_postal":"74600","code_commune_insee":"74268","libell_d_acheminement":"SEYNOD","ligne_5":"VIEUGY","nom_de_la_commune":"SEYNOD","coordonnees_gps":[45.8651082916,6.08376465474]},"geometry":{"type":"Point","coordinates":[6.08376465474,45.8651082916]},"record_timestamp":"2016-05-09T15:17:00+02:00"},{"datasetid":"laposte_hexasmal","recordid":"6a0d0f59263d091f124d9420c4d51c1af52de743","fields":{"nom_de_la_commune":"TANINGES","libell_d_acheminement":"TANINGES","code_postal":"74440","coordonnees_gps":[46.1265071577,6.60770716363],"code_commune_insee":"74276"},"geometry":{"type":"Point","coordinates":[6.60770716363,46.1265071577]},"record_timestamp":"2016-05-09T15:17:00+02:00"},{"datasetid":"laposte_hexasmal","recordid":"67dd04f47ca979ac6587727ecfcea854eac4db8d","fields":{"nom_de_la_commune":"THONES","libell_d_acheminement":"THONES","code_postal":"74230","coordonnees_gps":[45.8852613668,6.31953220709],"code_commune_insee":"74280"},"geometry":{"type":"Point","coordinates":[6.31953220709,45.8852613668]},"record_timestamp":"2016-05-09T15:17:00+02:00"},{"datasetid":"laposte_hexasmal","recordid":"2829fddf4c0da25532243bfad91360a4c6ab0327","fields":{"nom_de_la_commune":"VALLEIRY","libell_d_acheminement":"VALLEIRY","code_postal":"74520","coordonnees_gps":[46.1152145208,5.97022697234],"code_commune_insee":"74288"},"geometry":{"type":"Point","coordinates":[5.97022697234,46.1152145208]},"record_timestamp":"2016-05-09T15:17:00+02:00"},{"datasetid":"laposte_hexasmal","recordid":"c6bcfcd50ce3aeae6503f6e955ed9b05d2767b15","fields":{"nom_de_la_commune":"VANZY","libell_d_acheminement":"VANZY","code_postal":"74270","coordonnees_gps":[46.0345033012,5.87850321489],"code_commune_insee":"74291"},"geometry":{"type":"Point","coordinates":[5.87850321489,46.0345033012]},"record_timestamp":"2016-05-09T15:17:00+02:00"},{"datasetid":"laposte_hexasmal","recordid":"15badca186dcecae51b965d3c9ddbe7f16f45872","fields":{"nom_de_la_commune":"VEIGY FONCENEX","libell_d_acheminement":"VEIGY FONCENEX","code_postal":"74140","coordonnees_gps":[46.2703256602,6.26781250084],"code_commune_insee":"74293"},"geometry":{"type":"Point","coordinates":[6.26781250084,46.2703256602]},"record_timestamp":"2016-05-09T15:17:00+02:00"},{"datasetid":"laposte_hexasmal","recordid":"82585f855367d350e61bda306fdce7b460961be3","fields":{"nom_de_la_commune":"LA VERNAZ","libell_d_acheminement":"LA VERNAZ","code_postal":"74200","coordonnees_gps":[46.3073602687,6.59539098914],"code_commune_insee":"74295"},"geometry":{"type":"Point","coordinates":[6.59539098914,46.3073602687]},"record_timestamp":"2016-05-09T15:17:00+02:00"},{"datasetid":"laposte_hexasmal","recordid":"2d581e4d8a614829e7262fb0dde504560fb12c96","fields":{"nom_de_la_commune":"VETRAZ MONTHOUX","libell_d_acheminement":"VETRAZ MONTHOUX","code_postal":"74100","coordonnees_gps":[46.1810228514,6.26266311995],"code_commune_insee":"74298"},"geometry":{"type":"Point","coordinates":[6.26266311995,46.1810228514]},"record_timestamp":"2016-05-09T15:17:00+02:00"},{"datasetid":"laposte_hexasmal","recordid":"807e24f2039ce2dbcd243e5e95ab4c90c7ceba9e","fields":{"nom_de_la_commune":"VILLARD","libell_d_acheminement":"VILLARD","code_postal":"74420","coordonnees_gps":[46.2123462222,6.450248937],"code_commune_insee":"74301"},"geometry":{"type":"Point","coordinates":[6.450248937,46.2123462222]},"record_timestamp":"2016-05-09T15:17:00+02:00"},{"datasetid":"laposte_hexasmal","recordid":"6d68ae2ddc9228df47775188bcad8ad3b1f15640","fields":{"nom_de_la_commune":"VILLAZ","libell_d_acheminement":"VILLAZ","code_postal":"74370","coordonnees_gps":[45.9532681771,6.20133049908],"code_commune_insee":"74303"},"geometry":{"type":"Point","coordinates":[6.20133049908,45.9532681771]},"record_timestamp":"2016-05-09T15:17:00+02:00"},{"datasetid":"laposte_hexasmal","recordid":"ccc36239457c720b3b002bfc221f78d4bd413ee4","fields":{"nom_de_la_commune":"VINZIER","libell_d_acheminement":"VINZIER","code_postal":"74500","coordonnees_gps":[46.3449767077,6.61043449085],"code_commune_insee":"74308"},"geometry":{"type":"Point","coordinates":[6.61043449085,46.3449767077]},"record_timestamp":"2016-05-09T15:17:00+02:00"},{"datasetid":"laposte_hexasmal","recordid":"6cbc36a46bae3cc2aa6c5addba5a930faa25c34d","fields":{"nom_de_la_commune":"VIRY","libell_d_acheminement":"VIRY","code_postal":"74580","coordonnees_gps":[46.1193528783,6.02496587452],"code_commune_insee":"74309"},"geometry":{"type":"Point","coordinates":[6.02496587452,46.1193528783]},"record_timestamp":"2016-05-09T15:17:00+02:00"},{"datasetid":"laposte_hexasmal","recordid":"52221de659cc917aaeb6a5e8bd4cde15171d0b0f","fields":{"nom_de_la_commune":"VOVRAY EN BORNES","libell_d_acheminement":"VOVRAY EN BORNES","code_postal":"74350","coordonnees_gps":[46.0630306503,6.14060275314],"code_commune_insee":"74313"},"geometry":{"type":"Point","coordinates":[6.14060275314,46.0630306503]},"record_timestamp":"2016-05-09T15:17:00+02:00"},{"datasetid":"laposte_hexasmal","recordid":"ef87ebd0e3ef94836cf6ffdd6dc45ae3c2abf0c8","fields":{"nom_de_la_commune":"ALEX","libell_d_acheminement":"ALEX","code_postal":"74290","coordonnees_gps":[45.8806920223,6.23633769093],"code_commune_insee":"74003"},"geometry":{"type":"Point","coordinates":[6.23633769093,45.8806920223]},"record_timestamp":"2016-05-09T15:17:00+02:00"},{"datasetid":"laposte_hexasmal","recordid":"08609b12706c021b0e0ff9c0c3b56e7593b120f5","fields":{"nom_de_la_commune":"AMBILLY","libell_d_acheminement":"AMBILLY","code_postal":"74100","coordonnees_gps":[46.1961567042,6.22429975401],"code_commune_insee":"74008"},"geometry":{"type":"Point","coordinates":[6.22429975401,46.1961567042]},"record_timestamp":"2016-05-09T15:17:00+02:00"},{"datasetid":"laposte_hexasmal","recordid":"93fef34b79e57990f89b40a3d366dfb15d705c20","fields":{"nom_de_la_commune":"ANNECY","libell_d_acheminement":"ANNECY","code_postal":"74000","coordonnees_gps":[45.8906432566,6.12551773598],"code_commune_insee":"74010"},"geometry":{"type":"Point","coordinates":[6.12551773598,45.8906432566]},"record_timestamp":"2016-05-09T15:17:00+02:00"},{"datasetid":"laposte_hexasmal","recordid":"3923bac783b9544d101191be482cb71603baad4d","fields":{"nom_de_la_commune":"ANNECY LE VIEUX","libell_d_acheminement":"ANNECY LE VIEUX","code_postal":"74940","coordonnees_gps":[45.9193395896,6.16076240491],"code_commune_insee":"74011"},"geometry":{"type":"Point","coordinates":[6.16076240491,45.9193395896]},"record_timestamp":"2016-05-09T15:17:00+02:00"},{"datasetid":"laposte_hexasmal","recordid":"3782a5d80a577187821519176fe66dffeaf08b47","fields":{"nom_de_la_commune":"ANNEMASSE","libell_d_acheminement":"ANNEMASSE","code_postal":"74100","coordonnees_gps":[46.1909730986,6.24250704322],"code_commune_insee":"74012"},"geometry":{"type":"Point","coordinates":[6.24250704322,46.1909730986]},"record_timestamp":"2016-05-09T15:17:00+02:00"},{"datasetid":"laposte_hexasmal","recordid":"5c71a1905767e905b448638be2ec8254d3ce17d0","fields":{"nom_de_la_commune":"ARBUSIGNY","libell_d_acheminement":"ARBUSIGNY","code_postal":"74930","coordonnees_gps":[46.086240469,6.20734603818],"code_commune_insee":"74015"},"geometry":{"type":"Point","coordinates":[6.20734603818,46.086240469]},"record_timestamp":"2016-05-09T15:17:00+02:00"},{"datasetid":"laposte_hexasmal","recordid":"c4dc19a379f074781696b9611fc148d434aea00e","fields":{"nom_de_la_commune":"ARCHAMPS","libell_d_acheminement":"ARCHAMPS","code_postal":"74160","coordonnees_gps":[46.1222282115,6.13971386615],"code_commune_insee":"74016"},"geometry":{"type":"Point","coordinates":[6.13971386615,46.1222282115]},"record_timestamp":"2016-05-09T15:17:00+02:00"},{"datasetid":"laposte_hexasmal","recordid":"11f0c89dedc2e2b3c6406e2f771a872b956f8ce9","fields":{"nom_de_la_commune":"ARTHAZ PONT NOTRE DAME","libell_d_acheminement":"ARTHAZ PONT NOTRE DAME","code_postal":"74380","coordonnees_gps":[46.1606681382,6.26878505458],"code_commune_insee":"74021"},"geometry":{"type":"Point","coordinates":[6.26878505458,46.1606681382]},"record_timestamp":"2016-05-09T15:17:00+02:00"},{"datasetid":"laposte_hexasmal","recordid":"4ab9368b79d4c37256444c8c6edeee2157a8ad5c","fields":{"nom_de_la_commune":"BASSY","libell_d_acheminement":"BASSY","code_postal":"74910","coordonnees_gps":[45.9914416036,5.82815626577],"code_commune_insee":"74029"},"geometry":{"type":"Point","coordinates":[5.82815626577,45.9914416036]},"record_timestamp":"2016-05-09T15:17:00+02:00"},{"datasetid":"laposte_hexasmal","recordid":"65a384c93635596eb9f70c54982e340ef5bf16a4","fields":{"nom_de_la_commune":"BELLEVAUX","libell_d_acheminement":"BELLEVAUX","code_postal":"74470","coordonnees_gps":[46.2276019394,6.55285416418],"code_commune_insee":"74032"},"geometry":{"type":"Point","coordinates":[6.55285416418,46.2276019394]},"record_timestamp":"2016-05-09T15:17:00+02:00"},{"datasetid":"laposte_hexasmal","recordid":"8d64d9e5e5c84d86fb24522083a516d899389a5d","fields":{"nom_de_la_commune":"BERNEX","libell_d_acheminement":"BERNEX","code_postal":"74500","coordonnees_gps":[46.3566554818,6.69898825662],"code_commune_insee":"74033"},"geometry":{"type":"Point","coordinates":[6.69898825662,46.3566554818]},"record_timestamp":"2016-05-09T15:17:00+02:00"},{"datasetid":"laposte_hexasmal","recordid":"1306de850fd42b12dcd945e885f9913bbabce681","fields":{"nom_de_la_commune":"BOGEVE","libell_d_acheminement":"BOGEVE","code_postal":"74250","coordonnees_gps":[46.194241107,6.43929186038],"code_commune_insee":"74038"},"geometry":{"type":"Point","coordinates":[6.43929186038,46.194241107]},"record_timestamp":"2016-05-09T15:17:00+02:00"},{"datasetid":"laposte_hexasmal","recordid":"1718c2eda0291b9e6213b2050d520919e89aff71","fields":{"nom_de_la_commune":"BRIZON","libell_d_acheminement":"BRIZON","code_postal":"74130","coordonnees_gps":[46.0352614624,6.43415213],"code_commune_insee":"74049"},"geometry":{"type":"Point","coordinates":[6.43415213,46.0352614624]},"record_timestamp":"2016-05-09T15:17:00+02:00"},{"datasetid":"laposte_hexasmal","recordid":"68489249c55bd28bd30ebc646bd814adeaaf7eb3","fields":{"nom_de_la_commune":"BURDIGNIN","libell_d_acheminement":"BURDIGNIN","code_postal":"74420","coordonnees_gps":[46.2324473826,6.42604409853],"code_commune_insee":"74050"},"geometry":{"type":"Point","coordinates":[6.42604409853,46.2324473826]},"record_timestamp":"2016-05-09T15:17:00+02:00"},{"datasetid":"laposte_hexasmal","recordid":"860e21dd849ea238c10a10872a68024cbbee184a","fields":{"nom_de_la_commune":"CHALLONGES","libell_d_acheminement":"CHALLONGES","code_postal":"74910","coordonnees_gps":[46.0223204278,5.82687440424],"code_commune_insee":"74055"},"geometry":{"type":"Point","coordinates":[5.82687440424,46.0223204278]},"record_timestamp":"2016-05-09T15:17:00+02:00"},{"datasetid":"laposte_hexasmal","recordid":"471bb80b2782ad72089250ebe7932087575f92bc","fields":{"nom_de_la_commune":"LA CHAPELLE RAMBAUD","libell_d_acheminement":"LA CHAPELLE RAMBAUD","code_postal":"74800","coordonnees_gps":[46.0732040123,6.23904981825],"code_commune_insee":"74059"},"geometry":{"type":"Point","coordinates":[6.23904981825,46.0732040123]},"record_timestamp":"2016-05-09T15:17:00+02:00"},{"datasetid":"laposte_hexasmal","recordid":"2f48a6b7f7c46e1a644af48357cba5ad302f66e9","fields":{"nom_de_la_commune":"CHATEL","libell_d_acheminement":"CHATEL","code_postal":"74390","coordonnees_gps":[46.2490325973,6.81712790779],"code_commune_insee":"74063"},"geometry":{"type":"Point","coordinates":[6.81712790779,46.2490325973]},"record_timestamp":"2016-05-09T15:17:00+02:00"},{"datasetid":"laposte_hexasmal","recordid":"89bcfeea85dae2aceaff1d3c5ceb0cd7f2f68d60","fields":{"nom_de_la_commune":"CHATILLON SUR CLUSES","libell_d_acheminement":"CHATILLON SUR CLUSES","code_postal":"74300","coordonnees_gps":[46.0893520244,6.57817291187],"code_commune_insee":"74064"},"geometry":{"type":"Point","coordinates":[6.57817291187,46.0893520244]},"record_timestamp":"2016-05-09T15:17:00+02:00"},{"datasetid":"laposte_hexasmal","recordid":"1f356da943193f37bd4911cfcd18649f50f4ca1f","fields":{"nom_de_la_commune":"CHAVANNAZ","libell_d_acheminement":"CHAVANNAZ","code_postal":"74270","coordonnees_gps":[46.0500384099,6.01652644319],"code_commune_insee":"74066"},"geometry":{"type":"Point","coordinates":[6.01652644319,46.0500384099]},"record_timestamp":"2016-05-09T15:17:00+02:00"},{"datasetid":"laposte_hexasmal","recordid":"6a2244f41d922e67ec9ec551704bc947171caa36","fields":{"nom_de_la_commune":"CHEVALINE","libell_d_acheminement":"CHEVALINE","code_postal":"74210","coordonnees_gps":[45.7302662541,6.20797432213],"code_commune_insee":"74072"},"geometry":{"type":"Point","coordinates":[6.20797432213,45.7302662541]},"record_timestamp":"2016-05-09T15:17:00+02:00"},{"datasetid":"laposte_hexasmal","recordid":"83ea4fdb9da0c34fd34fd0ae2285c5a7f6560423","fields":{"nom_de_la_commune":"CONTAMINE SARZIN","libell_d_acheminement":"CONTAMINE SARZIN","code_postal":"74270","coordonnees_gps":[46.0216239121,5.98148486224],"code_commune_insee":"74086"},"geometry":{"type":"Point","coordinates":[5.98148486224,46.0216239121]},"record_timestamp":"2016-05-09T15:17:00+02:00"},{"datasetid":"laposte_hexasmal","recordid":"193e2d102f1a324e58a6c2ae806b483707119619","fields":{"nom_de_la_commune":"COPPONEX","libell_d_acheminement":"COPPONEX","code_postal":"74350","coordonnees_gps":[46.0442257211,6.0703860483],"code_commune_insee":"74088"},"geometry":{"type":"Point","coordinates":[6.0703860483,46.0442257211]},"record_timestamp":"2016-05-09T15:17:00+02:00"},{"datasetid":"laposte_hexasmal","recordid":"f32b2e313a94712aa160e90588b77a9e55a63bf5","fields":{"nom_de_la_commune":"DEMI QUARTIER","libell_d_acheminement":"DEMI QUARTIER","code_postal":"74120","coordonnees_gps":[45.8739226707,6.6331062739],"code_commune_insee":"74099"},"geometry":{"type":"Point","coordinates":[6.6331062739,45.8739226707]},"record_timestamp":"2016-05-09T15:17:00+02:00"},{"datasetid":"laposte_hexasmal","recordid":"af5867c2ac46fb8d0480729aa840b88a86fedfe9","fields":{"nom_de_la_commune":"DROISY","libell_d_acheminement":"DROISY","code_postal":"74270","coordonnees_gps":[45.961959396,5.8811939602],"code_commune_insee":"74107"},"geometry":{"type":"Point","coordinates":[5.8811939602,45.961959396]},"record_timestamp":"2016-05-09T15:17:00+02:00"},{"datasetid":"laposte_hexasmal","recordid":"4f08138a0e249c6c6613a5b10bdb6f2e4776aa38","fields":{"nom_de_la_commune":"ENTREVERNES","libell_d_acheminement":"ENTREVERNES","code_postal":"74410","coordonnees_gps":[45.7764785792,6.18131365622],"code_commune_insee":"74111"},"geometry":{"type":"Point","coordinates":[6.18131365622,45.7764785792]},"record_timestamp":"2016-05-09T15:17:00+02:00"},{"datasetid":"laposte_hexasmal","recordid":"6d07bf69d4e97aba0f5629b7ecb7188206a1ea45","fields":{"nom_de_la_commune":"ETAUX","libell_d_acheminement":"ETAUX","code_postal":"74800","coordonnees_gps":[46.060819717,6.26988707785],"code_commune_insee":"74116"},"geometry":{"type":"Point","coordinates":[6.26988707785,46.060819717]},"record_timestamp":"2016-05-09T15:17:00+02:00"},{"datasetid":"laposte_hexasmal","recordid":"e686de0d089723b251160004425d8d828fb3b854","fields":{"nom_de_la_commune":"FAUCIGNY","libell_d_acheminement":"FAUCIGNY","code_postal":"74130","coordonnees_gps":[46.1164159018,6.36907611887],"code_commune_insee":"74122"},"geometry":{"type":"Point","coordinates":[6.36907611887,46.1164159018]},"record_timestamp":"2016-05-09T15:17:00+02:00"},{"datasetid":"laposte_hexasmal","recordid":"996f757336809a9ce685ba7c6b77316f112297cc","fields":{"nom_de_la_commune":"FEIGERES","libell_d_acheminement":"FEIGERES","code_postal":"74160","coordonnees_gps":[46.1104409048,6.07310572582],"code_commune_insee":"74124"},"geometry":{"type":"Point","coordinates":[6.07310572582,46.1104409048]},"record_timestamp":"2016-05-09T15:17:00+02:00"},{"datasetid":"laposte_hexasmal","recordid":"5bccd674d02663523da152c4d1b8c9129f2fe4f8","fields":{"nom_de_la_commune":"FESSY","libell_d_acheminement":"FESSY","code_postal":"74890","coordonnees_gps":[46.2708634498,6.42354470529],"code_commune_insee":"74126"},"geometry":{"type":"Point","coordinates":[6.42354470529,46.2708634498]},"record_timestamp":"2016-05-09T15:17:00+02:00"},{"datasetid":"laposte_hexasmal","recordid":"ab0695d00b15eb18dcdbed915e7970a36297df15","fields":{"nom_de_la_commune":"LA FORCLAZ","libell_d_acheminement":"LA FORCLAZ","code_postal":"74200","coordonnees_gps":[46.3179930768,6.61587770566],"code_commune_insee":"74129"},"geometry":{"type":"Point","coordinates":[6.61587770566,46.3179930768]},"record_timestamp":"2016-05-09T15:17:00+02:00"},{"datasetid":"laposte_hexasmal","recordid":"17612c9c908a668a428eb1f077d88d78ee2dd24d","fields":{"nom_de_la_commune":"ALLEVES","libell_d_acheminement":"ALLEVES","code_postal":"74540","coordonnees_gps":[45.7588655872,6.08634740225],"code_commune_insee":"74004"},"geometry":{"type":"Point","coordinates":[6.08634740225,45.7588655872]},"record_timestamp":"2016-05-09T15:17:00+02:00"},{"datasetid":"laposte_hexasmal","recordid":"8afbd553eb45015abbf38f03221f79bdf9fbd0b7","fields":{"nom_de_la_commune":"ALLINGES","libell_d_acheminement":"ALLINGES","code_postal":"74200","coordonnees_gps":[46.333709028,6.46512142751],"code_commune_insee":"74005"},"geometry":{"type":"Point","coordinates":[6.46512142751,46.333709028]},"record_timestamp":"2016-05-09T15:17:00+02:00"},{"datasetid":"laposte_hexasmal","recordid":"c3aae61dc213fed775c288a6fb0951f06c1b6d67","fields":{"nom_de_la_commune":"ANDILLY","libell_d_acheminement":"ANDILLY","code_postal":"74350","coordonnees_gps":[46.0702115695,6.0710017836],"code_commune_insee":"74009"},"geometry":{"type":"Point","coordinates":[6.0710017836,46.0702115695]},"record_timestamp":"2016-05-09T15:17:00+02:00"},{"datasetid":"laposte_hexasmal","recordid":"0100a6f4aaf99f639e7474385a028c5937120c28","fields":{"code_postal":"74350","code_commune_insee":"74009","libell_d_acheminement":"ANDILLY","ligne_5":"JUSSY","nom_de_la_commune":"ANDILLY","coordonnees_gps":[46.0702115695,6.0710017836]},"geometry":{"type":"Point","coordinates":[6.0710017836,46.0702115695]},"record_timestamp":"2016-05-09T15:17:00+02:00"},{"datasetid":"laposte_hexasmal","recordid":"deba2e261a5264c45850de6147509a8b48445e2c","fields":{"nom_de_la_commune":"ARENTHON","libell_d_acheminement":"ARENTHON","code_postal":"74800","coordonnees_gps":[46.0981343308,6.3386699894],"code_commune_insee":"74018"},"geometry":{"type":"Point","coordinates":[6.3386699894,46.0981343308]},"record_timestamp":"2016-05-09T15:17:00+02:00"},{"datasetid":"laposte_hexasmal","recordid":"47d1569378bb4477d30a2fa2cfa95ab364f089c1","fields":{"nom_de_la_commune":"ARMOY","libell_d_acheminement":"ARMOY","code_postal":"74200","coordonnees_gps":[46.3523619359,6.51159949942],"code_commune_insee":"74020"},"geometry":{"type":"Point","coordinates":[6.51159949942,46.3523619359]},"record_timestamp":"2016-05-09T15:17:00+02:00"},{"datasetid":"laposte_hexasmal","recordid":"bc3fb8f16d3e53457f45320874a5617e4d7b296c","fields":{"nom_de_la_commune":"AVIERNOZ","libell_d_acheminement":"AVIERNOZ","code_postal":"74570","coordonnees_gps":[45.9764432094,6.2368970464],"code_commune_insee":"74022"},"geometry":{"type":"Point","coordinates":[6.2368970464,45.9764432094]},"record_timestamp":"2016-05-09T15:17:00+02:00"},{"datasetid":"laposte_hexasmal","recordid":"c6b28603ebeb10b16db04bc889b20e6a5021f712","fields":{"nom_de_la_commune":"LA BAUME","libell_d_acheminement":"LA BAUME","code_postal":"74430","coordonnees_gps":[46.2836072136,6.60860693452],"code_commune_insee":"74030"},"geometry":{"type":"Point","coordinates":[6.60860693452,46.2836072136]},"record_timestamp":"2016-05-09T15:17:00+02:00"},{"datasetid":"laposte_hexasmal","recordid":"ed1bfa261532360c4349a9f570a89a77a8f74f37","fields":{"nom_de_la_commune":"BONNEVILLE","libell_d_acheminement":"BONNEVILLE","code_postal":"74130","coordonnees_gps":[46.0739003968,6.40868532191],"code_commune_insee":"74042"},"geometry":{"type":"Point","coordinates":[6.40868532191,46.0739003968]},"record_timestamp":"2016-05-09T15:17:00+02:00"},{"datasetid":"laposte_hexasmal","recordid":"49d690b122a4db82eac4c033cead1dee683c2294","fields":{"nom_de_la_commune":"CERCIER","libell_d_acheminement":"CERCIER","code_postal":"74350","coordonnees_gps":[46.021660163,6.04815697534],"code_commune_insee":"74051"},"geometry":{"type":"Point","coordinates":[6.04815697534,46.021660163]},"record_timestamp":"2016-05-09T15:17:00+02:00"},{"datasetid":"laposte_hexasmal","recordid":"226a5fa9d4e797d0f384f0dbbae1ecdd414e6d1d","fields":{"nom_de_la_commune":"CERNEX","libell_d_acheminement":"CERNEX","code_postal":"74350","coordonnees_gps":[46.0623077421,6.03872026675],"code_commune_insee":"74052"},"geometry":{"type":"Point","coordinates":[6.03872026675,46.0623077421]},"record_timestamp":"2016-05-09T15:17:00+02:00"},{"datasetid":"laposte_hexasmal","recordid":"532630c8334b01bcd04892b1af916c45457a0fad","fields":{"nom_de_la_commune":"CHAINAZ LES FRASSES","libell_d_acheminement":"CHAINAZ LES FRASSES","code_postal":"74540","coordonnees_gps":[45.7784395221,5.98960566934],"code_commune_insee":"74054"},"geometry":{"type":"Point","coordinates":[5.98960566934,45.7784395221]},"record_timestamp":"2016-05-09T15:17:00+02:00"},{"datasetid":"laposte_hexasmal","recordid":"716a7132baa3374cb405baee66ea29bf99e29e8f","fields":{"code_postal":"74400","code_commune_insee":"74056","libell_d_acheminement":"CHAMONIX MONT BLANC","ligne_5":"LES BOSSONS","nom_de_la_commune":"CHAMONIX MONT BLANC","coordonnees_gps":[45.9309819111,6.92360096711]},"geometry":{"type":"Point","coordinates":[6.92360096711,45.9309819111]},"record_timestamp":"2016-05-09T15:17:00+02:00"},{"datasetid":"laposte_hexasmal","recordid":"46718b9e8b5108406aba75541b0d803ed59923d9","fields":{"nom_de_la_commune":"LA CHAPELLE D ABONDANCE","libell_d_acheminement":"LA CHAPELLE D ABONDANCE","code_postal":"74360","coordonnees_gps":[46.3009535709,6.79280453698],"code_commune_insee":"74058"},"geometry":{"type":"Point","coordinates":[6.79280453698,46.3009535709]},"record_timestamp":"2016-05-09T15:17:00+02:00"},{"datasetid":"laposte_hexasmal","recordid":"673125bad8e1a3065dee415f49d82f8e3e5661e5","fields":{"nom_de_la_commune":"CHENE EN SEMINE","libell_d_acheminement":"CHENE EN SEMINE","code_postal":"74270","coordonnees_gps":[46.0499479891,5.858890983],"code_commune_insee":"74068"},"geometry":{"type":"Point","coordinates":[5.858890983,46.0499479891]},"record_timestamp":"2016-05-09T15:17:00+02:00"},{"datasetid":"laposte_hexasmal","recordid":"faa093f0ee5b2f9b048ecbafa6849bf7b6798e38","fields":{"nom_de_la_commune":"CHENEX","libell_d_acheminement":"CHENEX","code_postal":"74520","coordonnees_gps":[46.1028404412,5.9906719812],"code_commune_insee":"74069"},"geometry":{"type":"Point","coordinates":[5.9906719812,46.1028404412]},"record_timestamp":"2016-05-09T15:17:00+02:00"},{"datasetid":"laposte_hexasmal","recordid":"2d0dc97df2d68edefbb167c6c1fa03e65bd043a0","fields":{"nom_de_la_commune":"CHEVRIER","libell_d_acheminement":"CHEVRIER","code_postal":"74520","coordonnees_gps":[46.1120536918,5.91128750728],"code_commune_insee":"74074"},"geometry":{"type":"Point","coordinates":[5.91128750728,46.1120536918]},"record_timestamp":"2016-05-09T15:17:00+02:00"},{"datasetid":"laposte_hexasmal","recordid":"2a8842f031e6bdd60da43b781641a9301bbffd1d","fields":{"nom_de_la_commune":"CHILLY","libell_d_acheminement":"CHILLY","code_postal":"74270","coordonnees_gps":[45.9892543857,5.95663892885],"code_commune_insee":"74075"},"geometry":{"type":"Point","coordinates":[5.95663892885,45.9892543857]},"record_timestamp":"2016-05-09T15:17:00+02:00"},{"datasetid":"laposte_hexasmal","recordid":"c5fe2bc64551eb3adf75aff2b5e9ca4b05c1c49c","fields":{"nom_de_la_commune":"CHOISY","libell_d_acheminement":"CHOISY","code_postal":"74330","coordonnees_gps":[45.9970301608,6.05417234636],"code_commune_insee":"74076"},"geometry":{"type":"Point","coordinates":[6.05417234636,45.9970301608]},"record_timestamp":"2016-05-09T15:17:00+02:00"},{"datasetid":"laposte_hexasmal","recordid":"6f870cbd32ed8360752e6b85f16c6e050b1441dd","fields":{"code_postal":"74270","code_commune_insee":"74077","libell_d_acheminement":"CLARAFOND ARCINE","ligne_5":"ARCINE","nom_de_la_commune":"CLARAFOND ARCINE","coordonnees_gps":[46.074723886,5.89580535006]},"geometry":{"type":"Point","coordinates":[5.89580535006,46.074723886]},"record_timestamp":"2016-05-09T15:17:00+02:00"},{"datasetid":"laposte_hexasmal","recordid":"9b5bd51fe21a1dcf59d43765d4087b5fe8f18763","fields":{"nom_de_la_commune":"CLERMONT","libell_d_acheminement":"CLERMONT","code_postal":"74270","coordonnees_gps":[45.9734444894,5.90937510902],"code_commune_insee":"74078"},"geometry":{"type":"Point","coordinates":[5.90937510902,45.9734444894]},"record_timestamp":"2016-05-09T15:17:00+02:00"},{"datasetid":"laposte_hexasmal","recordid":"3ca410dcaf82ec925c9228121d70f31c4cff3aa2","fields":{"nom_de_la_commune":"LES CONTAMINES MONTJOIE","libell_d_acheminement":"LES CONTAMINES MONTJOIE","code_postal":"74170","coordonnees_gps":[45.7888971555,6.73152876295],"code_commune_insee":"74085"},"geometry":{"type":"Point","coordinates":[6.73152876295,45.7888971555]},"record_timestamp":"2016-05-09T15:17:00+02:00"},{"datasetid":"laposte_hexasmal","recordid":"b1b29ff749e81853ca23d2f19137a7456da84f7d","fields":{"nom_de_la_commune":"CRANVES SALES","libell_d_acheminement":"CRANVES SALES","code_postal":"74380","coordonnees_gps":[46.1974383697,6.30389958032],"code_commune_insee":"74094"},"geometry":{"type":"Point","coordinates":[6.30389958032,46.1974383697]},"record_timestamp":"2016-05-09T15:17:00+02:00"},{"datasetid":"laposte_hexasmal","recordid":"885ceabe66c03e5dc6fa404de778d90a3522db11","fields":{"nom_de_la_commune":"CREMPIGNY BONNEGUETE","libell_d_acheminement":"CREMPIGNY BONNEGUETE","code_postal":"74150","coordonnees_gps":[45.9467841367,5.90312519314],"code_commune_insee":"74095"},"geometry":{"type":"Point","coordinates":[5.90312519314,45.9467841367]},"record_timestamp":"2016-05-09T15:17:00+02:00"},{"datasetid":"laposte_hexasmal","recordid":"a54dad6ccb5289895e71e0b19fa0a6abb7a0eac4","fields":{"nom_de_la_commune":"DINGY EN VUACHE","libell_d_acheminement":"DINGY EN VUACHE","code_postal":"74520","coordonnees_gps":[46.0886545538,5.94974416216],"code_commune_insee":"74101"},"geometry":{"type":"Point","coordinates":[5.94974416216,46.0886545538]},"record_timestamp":"2016-05-09T15:17:00+02:00"},{"datasetid":"laposte_hexasmal","recordid":"8f9917e1586f7719f88f73792361082ea56930b3","fields":{"nom_de_la_commune":"DOUVAINE","libell_d_acheminement":"DOUVAINE","code_postal":"74140","coordonnees_gps":[46.3063459721,6.29894207485],"code_commune_insee":"74105"},"geometry":{"type":"Point","coordinates":[6.29894207485,46.3063459721]},"record_timestamp":"2016-05-09T15:17:00+02:00"},{"datasetid":"laposte_hexasmal","recordid":"d8482dcdf4e74ebeb77986ca01ed740714507e38","fields":{"nom_de_la_commune":"DRAILLANT","libell_d_acheminement":"DRAILLANT","code_postal":"74550","coordonnees_gps":[46.2957245555,6.4729982985],"code_commune_insee":"74106"},"geometry":{"type":"Point","coordinates":[6.4729982985,46.2957245555]},"record_timestamp":"2016-05-09T15:17:00+02:00"},{"datasetid":"laposte_hexasmal","recordid":"12dae07415f0fef26c2ed38308d0b97db3d62e7c","fields":{"nom_de_la_commune":"FAVERGES SEYTHENEX","libell_d_acheminement":"FAVERGES SEYTHENEX","code_postal":"74210","coordonnees_gps":[45.749197611,6.2852126691],"code_commune_insee":"74123"},"geometry":{"type":"Point","coordinates":[6.2852126691,45.749197611]},"record_timestamp":"2016-05-09T15:17:00+02:00"},{"datasetid":"laposte_hexasmal","recordid":"0b44c56dacf3d1b09dc08cdf66208de94fbfe6cd","fields":{"nom_de_la_commune":"FILLINGES","libell_d_acheminement":"FILLINGES","code_postal":"74250","coordonnees_gps":[46.1661884948,6.35020094115],"code_commune_insee":"74128"},"geometry":{"type":"Point","coordinates":[6.35020094115,46.1661884948]},"record_timestamp":"2016-05-09T15:17:00+02:00"},{"datasetid":"laposte_hexasmal","recordid":"0a7310ea66bc6355696ff2f5c6e0ffd2f3c9698c","fields":{"nom_de_la_commune":"LUCINGES","libell_d_acheminement":"LUCINGES","code_postal":"74380","coordonnees_gps":[46.1940296525,6.32983573974],"code_commune_insee":"74153"},"geometry":{"type":"Point","coordinates":[6.32983573974,46.1940296525]},"record_timestamp":"2016-05-09T15:17:00+02:00"},{"datasetid":"laposte_hexasmal","recordid":"3602dfea080b84c2584d48206157197f4f6d5464","fields":{"nom_de_la_commune":"LULLY","libell_d_acheminement":"LULLY","code_postal":"74890","coordonnees_gps":[46.2927550589,6.40876638382],"code_commune_insee":"74156"},"geometry":{"type":"Point","coordinates":[6.40876638382,46.2927550589]},"record_timestamp":"2016-05-09T15:17:00+02:00"},{"datasetid":"laposte_hexasmal","recordid":"9005f1f25261e07c9a03393add3565f9e5586d32","fields":{"nom_de_la_commune":"MANIGOD","libell_d_acheminement":"MANIGOD","code_postal":"74230","coordonnees_gps":[45.850295364,6.40113588124],"code_commune_insee":"74160"},"geometry":{"type":"Point","coordinates":[6.40113588124,45.850295364]},"record_timestamp":"2016-05-09T15:17:00+02:00"},{"datasetid":"laposte_hexasmal","recordid":"6d3cd9b592ace13667509c1a5d06c90126d1122c","fields":{"nom_de_la_commune":"MEGEVETTE","libell_d_acheminement":"MEGEVETTE","code_postal":"74490","coordonnees_gps":[46.208458258,6.51327068897],"code_commune_insee":"74174"},"geometry":{"type":"Point","coordinates":[6.51327068897,46.208458258]},"record_timestamp":"2016-05-09T15:17:00+02:00"},{"datasetid":"laposte_hexasmal","recordid":"3e4341e497c8c007e0510f438b79b4188c81cc6e","fields":{"nom_de_la_commune":"MENTHONNEX SOUS CLERMONT","libell_d_acheminement":"MENTHONNEX SOUS CLERMONT","code_postal":"74270","coordonnees_gps":[45.9618992174,5.93569269941],"code_commune_insee":"74178"},"geometry":{"type":"Point","coordinates":[5.93569269941,45.9618992174]},"record_timestamp":"2016-05-09T15:17:00+02:00"},{"datasetid":"laposte_hexasmal","recordid":"d45d531664aed5d09643a79eb1e4f642d08af7d7","fields":{"nom_de_la_commune":"MIEUSSY","libell_d_acheminement":"MIEUSSY","code_postal":"74440","coordonnees_gps":[46.1453438048,6.53345961052],"code_commune_insee":"74183"},"geometry":{"type":"Point","coordinates":[6.53345961052,46.1453438048]},"record_timestamp":"2016-05-09T15:17:00+02:00"},{"datasetid":"laposte_hexasmal","recordid":"70ccedd5515da7d1f746c3e74ae09ef9c8c01bce","fields":{"nom_de_la_commune":"MONT SAXONNEX","libell_d_acheminement":"MONT SAXONNEX","code_postal":"74130","coordonnees_gps":[46.0351333935,6.47990420928],"code_commune_insee":"74189"},"geometry":{"type":"Point","coordinates":[6.47990420928,46.0351333935]},"record_timestamp":"2016-05-09T15:17:00+02:00"},{"datasetid":"laposte_hexasmal","recordid":"cc9aca89d14daf803cccd1c2afbc68c35b5cc791","fields":{"nom_de_la_commune":"MURES","libell_d_acheminement":"MURES","code_postal":"74540","coordonnees_gps":[45.8062692849,6.03921790944],"code_commune_insee":"74194"},"geometry":{"type":"Point","coordinates":[6.03921790944,45.8062692849]},"record_timestamp":"2016-05-09T15:17:00+02:00"},{"datasetid":"laposte_hexasmal","recordid":"cfc77c509f44dc53036c1c50acefb3f42f6dde72","fields":{"nom_de_la_commune":"LES OLLIERES","libell_d_acheminement":"LES OLLIERES","code_postal":"74370","coordonnees_gps":[45.9816487094,6.18789182586],"code_commune_insee":"74204"},"geometry":{"type":"Point","coordinates":[6.18789182586,45.9816487094]},"record_timestamp":"2016-05-09T15:17:00+02:00"},{"datasetid":"laposte_hexasmal","recordid":"ae1cfdf0da73ce514906243839cc148ccda2aa19","fields":{"nom_de_la_commune":"PERS JUSSY","libell_d_acheminement":"PERS JUSSY","code_postal":"74930","coordonnees_gps":[46.1018355447,6.25852776575],"code_commune_insee":"74211"},"geometry":{"type":"Point","coordinates":[6.25852776575,46.1018355447]},"record_timestamp":"2016-05-09T15:17:00+02:00"},{"datasetid":"laposte_hexasmal","recordid":"cbd7595b6e6164a8b79fe751c73e68be43a7bcdf","fields":{"code_postal":"74370","code_commune_insee":"74217","libell_d_acheminement":"PRINGY","ligne_5":"FERRIERES","nom_de_la_commune":"PRINGY","coordonnees_gps":[45.9566469348,6.10912303815]},"geometry":{"type":"Point","coordinates":[6.10912303815,45.9566469348]},"record_timestamp":"2016-05-09T15:17:00+02:00"},{"datasetid":"laposte_hexasmal","recordid":"e90581cbbddd83312cb2b7be9af521545459e7c9","fields":{"nom_de_la_commune":"PUBLIER","libell_d_acheminement":"PUBLIER","code_postal":"74500","coordonnees_gps":[46.3896985259,6.54164965422],"code_commune_insee":"74218"},"geometry":{"type":"Point","coordinates":[6.54164965422,46.3896985259]},"record_timestamp":"2016-05-09T15:17:00+02:00"},{"datasetid":"laposte_hexasmal","recordid":"24da74943873c0614e6d276ba26fed0da3151ea8","fields":{"nom_de_la_commune":"QUINTAL","libell_d_acheminement":"QUINTAL","code_postal":"74600","coordonnees_gps":[45.8329607054,6.09119171062],"code_commune_insee":"74219"},"geometry":{"type":"Point","coordinates":[6.09119171062,45.8329607054]},"record_timestamp":"2016-05-09T15:17:00+02:00"},{"datasetid":"laposte_hexasmal","recordid":"77bfd21a5b7e6f8b9dd3113d520ac7c00f48d1c8","fields":{"nom_de_la_commune":"ST BLAISE","libell_d_acheminement":"ST BLAISE","code_postal":"74350","coordonnees_gps":[46.0663582053,6.09154099437],"code_commune_insee":"74228"},"geometry":{"type":"Point","coordinates":[6.09154099437,46.0663582053]},"record_timestamp":"2016-05-09T15:17:00+02:00"},{"datasetid":"laposte_hexasmal","recordid":"9470c3a698cec5840529e3e9195d1d80f2d00686","fields":{"code_postal":"74170","code_commune_insee":"74236","libell_d_acheminement":"ST GERVAIS LES BAINS","ligne_5":"ST NICOLAS DE VEROCE","nom_de_la_commune":"ST GERVAIS LES BAINS","coordonnees_gps":[45.8571864862,6.74016257718]},"geometry":{"type":"Point","coordinates":[6.74016257718,45.8571864862]},"record_timestamp":"2016-05-09T15:17:00+02:00"},{"datasetid":"laposte_hexasmal","recordid":"441bb4ded3fda05f6946f7a7b04cc0ec1c1164a2","fields":{"nom_de_la_commune":"ST JORIOZ","libell_d_acheminement":"ST JORIOZ","code_postal":"74410","coordonnees_gps":[45.822898265,6.14963663908],"code_commune_insee":"74242"},"geometry":{"type":"Point","coordinates":[6.14963663908,45.822898265]},"record_timestamp":"2016-05-09T15:17:00+02:00"},{"datasetid":"laposte_hexasmal","recordid":"5b9204ac58b8fa85f77e4d69ffd6f68fc6313e7e","fields":{"nom_de_la_commune":"SALES","libell_d_acheminement":"SALES","code_postal":"74150","coordonnees_gps":[45.8821225736,5.96006746807],"code_commune_insee":"74255"},"geometry":{"type":"Point","coordinates":[5.96006746807,45.8821225736]},"record_timestamp":"2016-05-09T15:17:00+02:00"},{"datasetid":"laposte_hexasmal","recordid":"2c21cf4578dce448db6864e856dde178004b7277","fields":{"nom_de_la_commune":"LE SAPPEY","libell_d_acheminement":"LE SAPPEY","code_postal":"74350","coordonnees_gps":[46.0883274931,6.16118965479],"code_commune_insee":"74259"},"geometry":{"type":"Point","coordinates":[6.16118965479,46.0883274931]},"record_timestamp":"2016-05-09T15:17:00+02:00"},{"datasetid":"laposte_hexasmal","recordid":"ddbe4efe61ee6f36a30c1f78495e842ddb90db0b","fields":{"nom_de_la_commune":"SAVIGNY","libell_d_acheminement":"SAVIGNY","code_postal":"74520","coordonnees_gps":[46.0694979288,5.95170767195],"code_commune_insee":"74260"},"geometry":{"type":"Point","coordinates":[5.95170767195,46.0694979288]},"record_timestamp":"2016-05-09T15:17:00+02:00"},