[{"datasetid":"laposte_hexasmal","recordid":"0ff96d4a37771dbb137da6a6e4eb212c2fe7b940","fields":{"nom_de_la_commune":"BOIS COLOMBES","libell_d_acheminement":"BOIS COLOMBES","code_postal":"92270","coordonnees_gps":[48.9153368426,2.26738552597],"code_commune_insee":"92009"},"geometry":{"type":"Point","coordinates":[2.26738552597,48.9153368426]},"record_timestamp":"2016-05-09T15:17:00+02:00"},{"datasetid":"laposte_hexasmal","recordid":"f0388e672eabea1565ad81ef1605cd80b18a1ff6","fields":{"nom_de_la_commune":"BOULOGNE BILLANCOURT","libell_d_acheminement":"BOULOGNE BILLANCOURT","code_postal":"92100","coordonnees_gps":[48.8365843138,2.23913599058],"code_commune_insee":"92012"},"geometry":{"type":"Point","coordinates":[2.23913599058,48.8365843138]},"record_timestamp":"2016-05-09T15:17:00+02:00"},{"datasetid":"laposte_hexasmal","recordid":"735434a5db1733dfadd707b32c85041a03446f36","fields":{"nom_de_la_commune":"BOURG LA REINE","libell_d_acheminement":"BOURG LA REINE","code_postal":"92340","coordonnees_gps":[48.7799073627,2.31643010763],"code_commune_insee":"92014"},"geometry":{"type":"Point","coordinates":[2.31643010763,48.7799073627]},"record_timestamp":"2016-05-09T15:17:00+02:00"},{"datasetid":"laposte_hexasmal","recordid":"d9bb23e6354445396650bcfcdd45bed43275bc2a","fields":{"nom_de_la_commune":"CHATILLON","libell_d_acheminement":"CHATILLON","code_postal":"92320","coordonnees_gps":[48.8034091756,2.28799131883],"code_commune_insee":"92020"},"geometry":{"type":"Point","coordinates":[2.28799131883,48.8034091756]},"record_timestamp":"2016-05-09T15:17:00+02:00"},{"datasetid":"laposte_hexasmal","recordid":"b46057bf16a809e239e403774095ce3193391b1a","fields":{"nom_de_la_commune":"FONTENAY AUX ROSES","libell_d_acheminement":"FONTENAY AUX ROSES","code_postal":"92260","coordonnees_gps":[48.7897301312,2.28723493557],"code_commune_insee":"92032"},"geometry":{"type":"Point","coordinates":[2.28723493557,48.7897301312]},"record_timestamp":"2016-05-09T15:17:00+02:00"},{"datasetid":"laposte_hexasmal","recordid":"8ba90c3a8ee1219717a7e2675442abd58a246dbc","fields":{"nom_de_la_commune":"GARCHES","libell_d_acheminement":"GARCHES","code_postal":"92380","coordonnees_gps":[48.8450113548,2.18665007789],"code_commune_insee":"92033"},"geometry":{"type":"Point","coordinates":[2.18665007789,48.8450113548]},"record_timestamp":"2016-05-09T15:17:00+02:00"},{"datasetid":"laposte_hexasmal","recordid":"6711658a33c0d6864aeb5a46e09b36231bd85d28","fields":{"nom_de_la_commune":"LA GARENNE COLOMBES","libell_d_acheminement":"LA GARENNE COLOMBES","code_postal":"92250","coordonnees_gps":[48.9067577111,2.24464604084],"code_commune_insee":"92035"},"geometry":{"type":"Point","coordinates":[2.24464604084,48.9067577111]},"record_timestamp":"2016-05-09T15:17:00+02:00"},{"datasetid":"laposte_hexasmal","recordid":"2886cb7f985419998d4ee341c4abaf36aca2706f","fields":{"nom_de_la_commune":"NEUILLY SUR SEINE","libell_d_acheminement":"NEUILLY SUR SEINE","code_postal":"92200","coordonnees_gps":[48.8853719688,2.26642584746],"code_commune_insee":"92051"},"geometry":{"type":"Point","coordinates":[2.26642584746,48.8853719688]},"record_timestamp":"2016-05-09T15:17:00+02:00"},{"datasetid":"laposte_hexasmal","recordid":"983dabcddc5ed62fbeb7fb8f53d6b1be2e122e89","fields":{"code_postal":"92350","code_commune_insee":"92060","libell_d_acheminement":"LE PLESSIS ROBINSON","ligne_5":"ROBINSON","nom_de_la_commune":"LE PLESSIS ROBINSON","coordonnees_gps":[48.7804383642,2.26064286011]},"geometry":{"type":"Point","coordinates":[2.26064286011,48.7804383642]},"record_timestamp":"2016-05-09T15:17:00+02:00"},{"datasetid":"laposte_hexasmal","recordid":"840682511b061c5ad8b4817eebd3df489fc7ca4e","fields":{"nom_de_la_commune":"PUTEAUX","libell_d_acheminement":"PUTEAUX","code_postal":"92800","coordonnees_gps":[48.8837094969,2.23834178314],"code_commune_insee":"92062"},"geometry":{"type":"Point","coordinates":[2.23834178314,48.8837094969]},"record_timestamp":"2016-05-09T15:17:00+02:00"},{"datasetid":"laposte_hexasmal","recordid":"41fbc30c506dc7c90f5a89dc208e3394728c6d2c","fields":{"code_postal":"92500","code_commune_insee":"92063","libell_d_acheminement":"RUEIL MALMAISON","ligne_5":"BUZENVAL","nom_de_la_commune":"RUEIL MALMAISON","coordonnees_gps":[48.8691897371,2.1773406315]},"geometry":{"type":"Point","coordinates":[2.1773406315,48.8691897371]},"record_timestamp":"2016-05-09T15:17:00+02:00"},{"datasetid":"laposte_hexasmal","recordid":"b33929c95d2854dd4a9593ecb7a92d940a1f126f","fields":{"nom_de_la_commune":"ANTONY","libell_d_acheminement":"ANTONY","code_postal":"92160","coordonnees_gps":[48.7503412602,2.2993268102],"code_commune_insee":"92002"},"geometry":{"type":"Point","coordinates":[2.2993268102,48.7503412602]},"record_timestamp":"2016-05-09T15:17:00+02:00"},{"datasetid":"laposte_hexasmal","recordid":"e20090b88d8f8cfb2fa9ac32f5ffb37e2e646436","fields":{"nom_de_la_commune":"ASNIERES SUR SEINE","libell_d_acheminement":"ASNIERES SUR SEINE","code_postal":"92600","coordonnees_gps":[48.9153530123,2.2880384663],"code_commune_insee":"92004"},"geometry":{"type":"Point","coordinates":[2.2880384663,48.9153530123]},"record_timestamp":"2016-05-09T15:17:00+02:00"},{"datasetid":"laposte_hexasmal","recordid":"3b7096d279f0b2f32811695c8443b998ecf6baf3","fields":{"nom_de_la_commune":"CLAMART","libell_d_acheminement":"CLAMART","code_postal":"92140","coordonnees_gps":[48.7964306792,2.25474652922],"code_commune_insee":"92023"},"geometry":{"type":"Point","coordinates":[2.25474652922,48.7964306792]},"record_timestamp":"2016-05-09T15:17:00+02:00"},{"datasetid":"laposte_hexasmal","recordid":"7fb8a221c78e7522c44cf03b88199a8ee97a8520","fields":{"nom_de_la_commune":"COLOMBES","libell_d_acheminement":"COLOMBES","code_postal":"92700","coordonnees_gps":[48.9225179147,2.24675160629],"code_commune_insee":"92025"},"geometry":{"type":"Point","coordinates":[2.24675160629,48.9225179147]},"record_timestamp":"2016-05-09T15:17:00+02:00"},{"datasetid":"laposte_hexasmal","recordid":"becfc58718accdc1ba9b88cc7aa2efaea4a7741a","fields":{"nom_de_la_commune":"SEVRES","libell_d_acheminement":"SEVRES","code_postal":"92310","coordonnees_gps":[48.821476509,2.21052297438],"code_commune_insee":"92072"},"geometry":{"type":"Point","coordinates":[2.21052297438,48.821476509]},"record_timestamp":"2016-05-09T15:17:00+02:00"},{"datasetid":"laposte_hexasmal","recordid":"0805cba484537d83cf2dbfbe58910ba03d2aef23","fields":{"nom_de_la_commune":"VILLE D AVRAY","libell_d_acheminement":"VILLE D AVRAY","code_postal":"92410","coordonnees_gps":[48.8215895592,2.17761311514],"code_commune_insee":"92077"},"geometry":{"type":"Point","coordinates":[2.17761311514,48.8215895592]},"record_timestamp":"2016-05-09T15:17:00+02:00"},{"datasetid":"laposte_hexasmal","recordid":"2c0e473ce68e46f9a9a4080a7731c2fae2675b86","fields":{"nom_de_la_commune":"MARNES LA COQUETTE","libell_d_acheminement":"MARNES LA COQUETTE","code_postal":"92430","coordonnees_gps":[48.830271264,2.16647261735],"code_commune_insee":"92047"},"geometry":{"type":"Point","coordinates":[2.16647261735,48.830271264]},"record_timestamp":"2016-05-09T15:17:00+02:00"},{"datasetid":"laposte_hexasmal","recordid":"2e168be3edff6ec4c63c51d617684045064072d7","fields":{"nom_de_la_commune":"MEUDON","libell_d_acheminement":"MEUDON","code_postal":"92190","coordonnees_gps":[48.8037275796,2.22696287829],"code_commune_insee":"92048"},"geometry":{"type":"Point","coordinates":[2.22696287829,48.8037275796]},"record_timestamp":"2016-05-09T15:17:00+02:00"},{"datasetid":"laposte_hexasmal","recordid":"1bf4fb10a981f909c1122789f3a5108b46d401d8","fields":{"code_postal":"92360","code_commune_insee":"92048","libell_d_acheminement":"MEUDON","ligne_5":"MEUDON LA FORET","nom_de_la_commune":"MEUDON","coordonnees_gps":[48.8037275796,2.22696287829]},"geometry":{"type":"Point","coordinates":[2.22696287829,48.8037275796]},"record_timestamp":"2016-05-09T15:17:00+02:00"},{"datasetid":"laposte_hexasmal","recordid":"625707b7a3ad79adfedbcb10de42d5d96f76e826","fields":{"nom_de_la_commune":"RUEIL MALMAISON","libell_d_acheminement":"RUEIL MALMAISON","code_postal":"92500","coordonnees_gps":[48.8691897371,2.1773406315],"code_commune_insee":"92063"},"geometry":{"type":"Point","coordinates":[2.1773406315,48.8691897371]},"record_timestamp":"2016-05-09T15:17:00+02:00"},{"datasetid":"laposte_hexasmal","recordid":"b139cb7dee4a3182c1bab8df63a9dd7c8f11c147","fields":{"nom_de_la_commune":"ST CLOUD","libell_d_acheminement":"ST CLOUD","code_postal":"92210","coordonnees_gps":[48.8428741034,2.20864570316],"code_commune_insee":"92064"},"geometry":{"type":"Point","coordinates":[2.20864570316,48.8428741034]},"record_timestamp":"2016-05-09T15:17:00+02:00"},{"datasetid":"laposte_hexasmal","recordid":"8b312baebbb795be4d3ba84645fcdfc5672c7596","fields":{"nom_de_la_commune":"SURESNES","libell_d_acheminement":"SURESNES","code_postal":"92150","coordonnees_gps":[48.8698479132,2.21965517625],"code_commune_insee":"92073"},"geometry":{"type":"Point","coordinates":[2.21965517625,48.8698479132]},"record_timestamp":"2016-05-09T15:17:00+02:00"},{"datasetid":"laposte_hexasmal","recordid":"05f06d01c52d21eb799be81325fcae06ee03e31c","fields":{"nom_de_la_commune":"VANVES","libell_d_acheminement":"VANVES","code_postal":"92170","coordonnees_gps":[48.8215227089,2.28739490768],"code_commune_insee":"92075"},"geometry":{"type":"Point","coordinates":[2.28739490768,48.8215227089]},"record_timestamp":"2016-05-09T15:17:00+02:00"},{"datasetid":"laposte_hexasmal","recordid":"25fc43145711e2775aa4a4e688f132b3546fe593","fields":{"nom_de_la_commune":"VILLENEUVE LA GARENNE","libell_d_acheminement":"VILLENEUVE LA GARENNE","code_postal":"92390","coordonnees_gps":[48.9364061917,2.32448995943],"code_commune_insee":"92078"},"geometry":{"type":"Point","coordinates":[2.32448995943,48.9364061917]},"record_timestamp":"2016-05-09T15:17:00+02:00"},{"datasetid":"laposte_hexasmal","recordid":"2bdd783f26154c619f275b04283c956c95262f92","fields":{"nom_de_la_commune":"CLICHY","libell_d_acheminement":"CLICHY","code_postal":"92110","coordonnees_gps":[48.9035359139,2.30575230452],"code_commune_insee":"92024"},"geometry":{"type":"Point","coordinates":[2.30575230452,48.9035359139]},"record_timestamp":"2016-05-09T15:17:00+02:00"},{"datasetid":"laposte_hexasmal","recordid":"0ef58cd10893593ee1452e2e31513ec7f183ef07","fields":{"nom_de_la_commune":"COURBEVOIE","libell_d_acheminement":"COURBEVOIE","code_postal":"92400","coordonnees_gps":[48.8984504771,2.25570587289],"code_commune_insee":"92026"},"geometry":{"type":"Point","coordinates":[2.25570587289,48.8984504771]},"record_timestamp":"2016-05-09T15:17:00+02:00"},{"datasetid":"laposte_hexasmal","recordid":"0d7b9ce0837c3e0d2cfd1cbede37a3397a46235a","fields":{"nom_de_la_commune":"MALAKOFF","libell_d_acheminement":"MALAKOFF","code_postal":"92240","coordonnees_gps":[48.8169695977,2.29693599517],"code_commune_insee":"92046"},"geometry":{"type":"Point","coordinates":[2.29693599517,48.8169695977]},"record_timestamp":"2016-05-09T15:17:00+02:00"},{"datasetid":"laposte_hexasmal","recordid":"c07ee9799606a827fc091440d121e7febaecc9aa","fields":{"nom_de_la_commune":"MONTROUGE","libell_d_acheminement":"MONTROUGE","code_postal":"92120","coordonnees_gps":[48.8153032159,2.31648921432],"code_commune_insee":"92049"},"geometry":{"type":"Point","coordinates":[2.31648921432,48.8153032159]},"record_timestamp":"2016-05-09T15:17:00+02:00"},{"datasetid":"laposte_hexasmal","recordid":"9cca33ea8e4200fbd4765d704234a5594566a6aa","fields":{"nom_de_la_commune":"NANTERRE","libell_d_acheminement":"NANTERRE","code_postal":"92000","coordonnees_gps":[48.8960701282,2.20671346353],"code_commune_insee":"92050"},"geometry":{"type":"Point","coordinates":[2.20671346353,48.8960701282]},"record_timestamp":"2016-05-09T15:17:00+02:00"},{"datasetid":"laposte_hexasmal","recordid":"75b39931fdc11d76ac40f4800b07797fc5f5b827","fields":{"nom_de_la_commune":"SCEAUX","libell_d_acheminement":"SCEAUX","code_postal":"92330","coordonnees_gps":[48.776816369,2.29529414514],"code_commune_insee":"92071"},"geometry":{"type":"Point","coordinates":[2.29529414514,48.776816369]},"record_timestamp":"2016-05-09T15:17:00+02:00"},{"datasetid":"laposte_hexasmal","recordid":"cc15780232ccd3c44274d5f3e10d6feb3001132d","fields":{"nom_de_la_commune":"VAUCRESSON","libell_d_acheminement":"VAUCRESSON","code_postal":"92420","coordonnees_gps":[48.8410515899,2.16026455161],"code_commune_insee":"92076"},"geometry":{"type":"Point","coordinates":[2.16026455161,48.8410515899]},"record_timestamp":"2016-05-09T15:17:00+02:00"},{"datasetid":"laposte_hexasmal","recordid":"b06b3a8dcc2f392481800876f258ec211ad7b73e","fields":{"nom_de_la_commune":"BAGNEUX","libell_d_acheminement":"BAGNEUX","code_postal":"92220","coordonnees_gps":[48.7983229866,2.30989995212],"code_commune_insee":"92007"},"geometry":{"type":"Point","coordinates":[2.30989995212,48.7983229866]},"record_timestamp":"2016-05-09T15:17:00+02:00"},{"datasetid":"laposte_hexasmal","recordid":"6f59ac1d043dbbe02b1fa76049c79dd254a89740","fields":{"nom_de_la_commune":"CHAVILLE","libell_d_acheminement":"CHAVILLE","code_postal":"92370","coordonnees_gps":[48.8076083562,2.19234061062],"code_commune_insee":"92022"},"geometry":{"type":"Point","coordinates":[2.19234061062,48.8076083562]},"record_timestamp":"2016-05-09T15:17:00+02:00"},{"datasetid":"laposte_hexasmal","recordid":"0b28122969a25bcc02f7fb217fd56e8c8a4fcd63","fields":{"nom_de_la_commune":"ISSY LES MOULINEAUX","libell_d_acheminement":"ISSY LES MOULINEAUX","code_postal":"92130","coordonnees_gps":[48.82347434,2.26449823277],"code_commune_insee":"92040"},"geometry":{"type":"Point","coordinates":[2.26449823277,48.82347434]},"record_timestamp":"2016-05-09T15:17:00+02:00"},{"datasetid":"laposte_hexasmal","recordid":"5b1f7a7325c4cadfdc643efb03dd613b508bb417","fields":{"nom_de_la_commune":"LEVALLOIS PERRET","libell_d_acheminement":"LEVALLOIS PERRET","code_postal":"92300","coordonnees_gps":[48.895071672,2.28688268127],"code_commune_insee":"92044"},"geometry":{"type":"Point","coordinates":[2.28688268127,48.895071672]},"record_timestamp":"2016-05-09T15:17:00+02:00"},{"datasetid":"laposte_hexasmal","recordid":"3851c611c79b2e4b051d75c376ae8923daead958","fields":{"nom_de_la_commune":"LE PLESSIS ROBINSON","libell_d_acheminement":"LE PLESSIS ROBINSON","code_postal":"92350","coordonnees_gps":[48.7804383642,2.26064286011],"code_commune_insee":"92060"},"geometry":{"type":"Point","coordinates":[2.26064286011,48.7804383642]},"record_timestamp":"2016-05-09T15:17:00+02:00"},{"datasetid":"laposte_hexasmal","recordid":"5034809653baa99d05b9bb9b84ee87894ebdab97","fields":{"nom_de_la_commune":"CHATENAY MALABRY","libell_d_acheminement":"CHATENAY MALABRY","code_postal":"92290","coordonnees_gps":[48.7681690197,2.26282598525],"code_commune_insee":"92019"},"geometry":{"type":"Point","coordinates":[2.26282598525,48.7681690197]},"record_timestamp":"2016-05-09T15:17:00+02:00"},{"datasetid":"laposte_hexasmal","recordid":"376c14df829a26ad7654588658b04ecd7e0e571f","fields":{"code_postal":"92290","code_commune_insee":"92019","libell_d_acheminement":"CHATENAY MALABRY","ligne_5":"LA BUTTE ROUGE","nom_de_la_commune":"CHATENAY MALABRY","coordonnees_gps":[48.7681690197,2.26282598525]},"geometry":{"type":"Point","coordinates":[2.26282598525,48.7681690197]},"record_timestamp":"2016-05-09T15:17:00+02:00"},{"datasetid":"laposte_hexasmal","recordid":"3640f0807c24482a5da9f47aef0557660a634948","fields":{"code_postal":"92140","code_commune_insee":"92023","libell_d_acheminement":"CLAMART","ligne_5":"LE PETIT CLAMART","nom_de_la_commune":"CLAMART","coordonnees_gps":[48.7964306792,2.25474652922]},"geometry":{"type":"Point","coordinates":[2.25474652922,48.7964306792]},"record_timestamp":"2016-05-09T15:17:00+02:00"},{"datasetid":"laposte_hexasmal","recordid":"45f533cc62adb459a515a61a50eaa010799bc96f","fields":{"nom_de_la_commune":"GENNEVILLIERS","libell_d_acheminement":"GENNEVILLIERS","code_postal":"92230","coordonnees_gps":[48.9345190548,2.29384987973],"code_commune_insee":"92036"},"geometry":{"type":"Point","coordinates":[2.29384987973,48.9345190548]},"record_timestamp":"2016-05-09T15:17:00+02:00"}]