[{"datasetid":"laposte_hexasmal","recordid":"d0cf08e6823baee9d0fa51ebdd27846a4ea83ce5","fields":{"code_postal":"49150","code_commune_insee":"49018","libell_d_acheminement":"BAUGE EN ANJOU","ligne_5":"ST MARTIN D ARCE","nom_de_la_commune":"BAUGE EN ANJOU","coordonnees_gps":[47.5466894738,-0.109021794815]},"geometry":{"type":"Point","coordinates":[-0.109021794815,47.5466894738]},"record_timestamp":"2016-05-09T15:17:00+02:00"},{"datasetid":"laposte_hexasmal","recordid":"5687a5a4f640fce9922625a67707da4a7d2427dc","fields":{"nom_de_la_commune":"BEAUFORT EN ANJOU","libell_d_acheminement":"BEAUFORT EN ANJOU","code_postal":"49250","coordonnees_gps":[47.4363863926,-0.206986791966],"code_commune_insee":"49021"},"geometry":{"type":"Point","coordinates":[-0.206986791966,47.4363863926]},"record_timestamp":"2016-05-09T15:17:00+02:00"},{"datasetid":"laposte_hexasmal","recordid":"640509b1b0b8d66b1b7be9db0e23181c29f86be1","fields":{"code_postal":"49110","code_commune_insee":"49023","libell_d_acheminement":"BEAUPREAU EN MAUGES","ligne_5":"LE PIN EN MAUGES","nom_de_la_commune":"BEAUPREAU EN MAUGES","coordonnees_gps":[47.2125984545,-0.983619028639]},"geometry":{"type":"Point","coordinates":[-0.983619028639,47.2125984545]},"record_timestamp":"2016-05-09T15:17:00+02:00"},{"datasetid":"laposte_hexasmal","recordid":"f5d9d164cec8a060b14f2fc0a00c2c21bec82cb1","fields":{"code_postal":"49450","code_commune_insee":"49023","libell_d_acheminement":"BEAUPREAU EN MAUGES","ligne_5":"VILLEDIEU LA BLOUERE","nom_de_la_commune":"BEAUPREAU EN MAUGES","coordonnees_gps":[47.2125984545,-0.983619028639]},"geometry":{"type":"Point","coordinates":[-0.983619028639,47.2125984545]},"record_timestamp":"2016-05-09T15:17:00+02:00"},{"datasetid":"laposte_hexasmal","recordid":"e5f4cb62821a2c8708f0ee7330ff017702240d05","fields":{"code_postal":"49600","code_commune_insee":"49023","libell_d_acheminement":"BEAUPREAU EN MAUGES","ligne_5":"LA CHAPELLE DU GENET","nom_de_la_commune":"BEAUPREAU EN MAUGES","coordonnees_gps":[47.2125984545,-0.983619028639]},"geometry":{"type":"Point","coordinates":[-0.983619028639,47.2125984545]},"record_timestamp":"2016-05-09T15:17:00+02:00"},{"datasetid":"laposte_hexasmal","recordid":"c8997d56d3e836957c82c70b6ec403a64a4f35b6","fields":{"nom_de_la_commune":"BEGROLLES EN MAUGES","libell_d_acheminement":"BEGROLLES EN MAUGES","code_postal":"49122","coordonnees_gps":[47.133273239,-0.931697835787],"code_commune_insee":"49027"},"geometry":{"type":"Point","coordinates":[-0.931697835787,47.133273239]},"record_timestamp":"2016-05-09T15:17:00+02:00"},{"datasetid":"laposte_hexasmal","recordid":"e75b2bd81f957725b76c0d22d1fd8603650a9fc8","fields":{"code_postal":"49320","code_commune_insee":"49029","libell_d_acheminement":"BLAISON ST SULPICE","ligne_5":"ST SULPICE","nom_de_la_commune":"BLAISON ST SULPICE","coordonnees_gps":[47.3908187654,-0.380019189582]},"geometry":{"type":"Point","coordinates":[-0.380019189582,47.3908187654]},"record_timestamp":"2016-05-09T15:17:00+02:00"},{"datasetid":"laposte_hexasmal","recordid":"3770650f568e832d11d49c335767a52a2fe25a78","fields":{"nom_de_la_commune":"BOUILLE MENARD","libell_d_acheminement":"BOUILLE MENARD","code_postal":"49520","coordonnees_gps":[47.7381032955,-0.969364603994],"code_commune_insee":"49036"},"geometry":{"type":"Point","coordinates":[-0.969364603994,47.7381032955]},"record_timestamp":"2016-05-09T15:17:00+02:00"},{"datasetid":"laposte_hexasmal","recordid":"2c3ce5fc681ef51bce42255512150feab287d5af","fields":{"nom_de_la_commune":"BRAIN SUR ALLONNES","libell_d_acheminement":"BRAIN SUR ALLONNES","code_postal":"49650","coordonnees_gps":[47.3056918695,0.0710549100336],"code_commune_insee":"49041"},"geometry":{"type":"Point","coordinates":[0.0710549100336,47.3056918695]},"record_timestamp":"2016-05-09T15:17:00+02:00"},{"datasetid":"laposte_hexasmal","recordid":"2dd4af5077fd7550fbcb1d6b3b73de10427cd3ad","fields":{"nom_de_la_commune":"BREZE","libell_d_acheminement":"BREZE","code_postal":"49260","coordonnees_gps":[47.1659198942,-0.0543045916422],"code_commune_insee":"49046"},"geometry":{"type":"Point","coordinates":[-0.0543045916422,47.1659198942]},"record_timestamp":"2016-05-09T15:17:00+02:00"},{"datasetid":"laposte_hexasmal","recordid":"3e0031047ac650e1f369114d4f0662afbb748a0b","fields":{"nom_de_la_commune":"BRIOLLAY","libell_d_acheminement":"BRIOLLAY","code_postal":"49125","coordonnees_gps":[47.57639762,-0.497931074064],"code_commune_insee":"49048"},"geometry":{"type":"Point","coordinates":[-0.497931074064,47.57639762]},"record_timestamp":"2016-05-09T15:17:00+02:00"},{"datasetid":"laposte_hexasmal","recordid":"61d60f88cf05f6a1bfd667330f0657d23b0622a9","fields":{"nom_de_la_commune":"CANDE","libell_d_acheminement":"CANDE","code_postal":"49440","coordonnees_gps":[47.5585230813,-1.03503351449],"code_commune_insee":"49054"},"geometry":{"type":"Point","coordinates":[-1.03503351449,47.5585230813]},"record_timestamp":"2016-05-09T15:17:00+02:00"},{"datasetid":"laposte_hexasmal","recordid":"8e39230a1a9aebc8e02fe2477282be54b9f1606b","fields":{"nom_de_la_commune":"CARBAY","libell_d_acheminement":"CARBAY","code_postal":"49420","coordonnees_gps":[47.7315510459,-1.2261277126],"code_commune_insee":"49056"},"geometry":{"type":"Point","coordinates":[-1.2261277126,47.7315510459]},"record_timestamp":"2016-05-09T15:17:00+02:00"},{"datasetid":"laposte_hexasmal","recordid":"84cc441019947cd0e567c6fd6799e413d03547b9","fields":{"nom_de_la_commune":"CERNUSSON","libell_d_acheminement":"CERNUSSON","code_postal":"49310","coordonnees_gps":[47.1678543768,-0.482175305378],"code_commune_insee":"49057"},"geometry":{"type":"Point","coordinates":[-0.482175305378,47.1678543768]},"record_timestamp":"2016-05-09T15:17:00+02:00"},{"datasetid":"laposte_hexasmal","recordid":"2f9110b23865870f880fb65951e2cdd18190bd62","fields":{"nom_de_la_commune":"CHALONNES SOUS LE LUDE","libell_d_acheminement":"CHALONNES SOUS LE LUDE","code_postal":"49490","coordonnees_gps":[47.5572762686,0.176064952548],"code_commune_insee":"49062"},"geometry":{"type":"Point","coordinates":[0.176064952548,47.5572762686]},"record_timestamp":"2016-05-09T15:17:00+02:00"},{"datasetid":"laposte_hexasmal","recordid":"35b106602530ea8a0c90e4ef5c88d05e982199c3","fields":{"nom_de_la_commune":"CHAMPIGNE","libell_d_acheminement":"CHAMPIGNE","code_postal":"49330","coordonnees_gps":[47.6653059504,-0.570426298247],"code_commune_insee":"49065"},"geometry":{"type":"Point","coordinates":[-0.570426298247,47.6653059504]},"record_timestamp":"2016-05-09T15:17:00+02:00"},{"datasetid":"laposte_hexasmal","recordid":"08fa6203b8687e8e12e623158e2a1cdcfbe6014a","fields":{"nom_de_la_commune":"CHENILLE CHAMPTEUSSE","libell_d_acheminement":"CHENILLE CHAMPTEUSSE","code_postal":"49220","coordonnees_gps":[47.6694970175,-0.65425867074],"code_commune_insee":"49067"},"geometry":{"type":"Point","coordinates":[-0.65425867074,47.6694970175]},"record_timestamp":"2016-05-09T15:17:00+02:00"},{"datasetid":"laposte_hexasmal","recordid":"f8bd9154a68447d5c44b9e6b64fa14b36649805a","fields":{"code_postal":"49270","code_commune_insee":"49069","libell_d_acheminement":"OREE D ANJOU","ligne_5":"LA VARENNE","nom_de_la_commune":"OREE D ANJOU","coordonnees_gps":[47.3218941947,-1.26053581871]},"geometry":{"type":"Point","coordinates":[-1.26053581871,47.3218941947]},"record_timestamp":"2016-05-09T15:17:00+02:00"},{"datasetid":"laposte_hexasmal","recordid":"834d6fc7a098e58f29765bbbdc51ace6a0dd2bf7","fields":{"code_postal":"49270","code_commune_insee":"49069","libell_d_acheminement":"OREE D ANJOU","ligne_5":"ST CHRISTOPHE LA COUPERIE","nom_de_la_commune":"OREE D ANJOU","coordonnees_gps":[47.3218941947,-1.26053581871]},"geometry":{"type":"Point","coordinates":[-1.26053581871,47.3218941947]},"record_timestamp":"2016-05-09T15:17:00+02:00"},{"datasetid":"laposte_hexasmal","recordid":"92ba1f49fb55ba7d2f719fbc98a263fcae9eff0d","fields":{"code_postal":"49530","code_commune_insee":"49069","libell_d_acheminement":"OREE D ANJOU","ligne_5":"BOUZILLE","nom_de_la_commune":"OREE D ANJOU","coordonnees_gps":[47.3218941947,-1.26053581871]},"geometry":{"type":"Point","coordinates":[-1.26053581871,47.3218941947]},"record_timestamp":"2016-05-09T15:17:00+02:00"},{"datasetid":"laposte_hexasmal","recordid":"f6415eff611d11356c958223c72ef5a9096a6332","fields":{"code_postal":"49530","code_commune_insee":"49069","libell_d_acheminement":"OREE D ANJOU","ligne_5":"DRAIN","nom_de_la_commune":"OREE D ANJOU","coordonnees_gps":[47.3218941947,-1.26053581871]},"geometry":{"type":"Point","coordinates":[-1.26053581871,47.3218941947]},"record_timestamp":"2016-05-09T15:17:00+02:00"},{"datasetid":"laposte_hexasmal","recordid":"0571f7743852c0c20e5c29059414ee58e4393bcc","fields":{"nom_de_la_commune":"LA CHAPELLE ST LAUD","libell_d_acheminement":"LA CHAPELLE ST LAUD","code_postal":"49140","coordonnees_gps":[47.6139328972,-0.298192588523],"code_commune_insee":"49076"},"geometry":{"type":"Point","coordinates":[-0.298192588523,47.6139328972]},"record_timestamp":"2016-05-09T15:17:00+02:00"},{"datasetid":"laposte_hexasmal","recordid":"671a297f29d56b8ac6343f8a4fc53dbb09a89b81","fields":{"nom_de_la_commune":"CHATELAIS","libell_d_acheminement":"CHATELAIS","code_postal":"49520","coordonnees_gps":[47.7621935629,-0.934797324242],"code_commune_insee":"49081"},"geometry":{"type":"Point","coordinates":[-0.934797324242,47.7621935629]},"record_timestamp":"2016-05-09T15:17:00+02:00"},{"datasetid":"laposte_hexasmal","recordid":"191ad856630e6da92288251de09142b4b0d23003","fields":{"nom_de_la_commune":"CHEFFES","libell_d_acheminement":"CHEFFES","code_postal":"49125","coordonnees_gps":[47.6253057182,-0.519918963857],"code_commune_insee":"49090"},"geometry":{"type":"Point","coordinates":[-0.519918963857,47.6253057182]},"record_timestamp":"2016-05-09T15:17:00+02:00"},{"datasetid":"laposte_hexasmal","recordid":"71fd8801426700476c52cce3bbb26617b79f3e1a","fields":{"nom_de_la_commune":"CHEMILLE EN ANJOU","libell_d_acheminement":"CHEMILLE EN ANJOU","code_postal":"49120","coordonnees_gps":[47.2272268469,-0.730188160448],"code_commune_insee":"49092"},"geometry":{"type":"Point","coordinates":[-0.730188160448,47.2272268469]},"record_timestamp":"2016-05-09T15:17:00+02:00"},{"datasetid":"laposte_hexasmal","recordid":"32ef251f8085c82e56dc50185b48809847630567","fields":{"code_postal":"49120","code_commune_insee":"49092","libell_d_acheminement":"CHEMILLE EN ANJOU","ligne_5":"COSSE D ANJOU","nom_de_la_commune":"CHEMILLE EN ANJOU","coordonnees_gps":[47.2272268469,-0.730188160448]},"geometry":{"type":"Point","coordinates":[-0.730188160448,47.2272268469]},"record_timestamp":"2016-05-09T15:17:00+02:00"},{"datasetid":"laposte_hexasmal","recordid":"69fde13e0a9caef9f279c58d08388b6121c2bd45","fields":{"code_postal":"49120","code_commune_insee":"49092","libell_d_acheminement":"CHEMILLE EN ANJOU","ligne_5":"NEUVY EN MAUGES","nom_de_la_commune":"CHEMILLE EN ANJOU","coordonnees_gps":[47.2272268469,-0.730188160448]},"geometry":{"type":"Point","coordinates":[-0.730188160448,47.2272268469]},"record_timestamp":"2016-05-09T15:17:00+02:00"},{"datasetid":"laposte_hexasmal","recordid":"32a2441c3ccea480331af386a8922e91c426ab31","fields":{"code_postal":"49750","code_commune_insee":"49092","libell_d_acheminement":"CHEMILLE EN ANJOU","ligne_5":"CHANZEAUX","nom_de_la_commune":"CHEMILLE EN ANJOU","coordonnees_gps":[47.2272268469,-0.730188160448]},"geometry":{"type":"Point","coordinates":[-0.730188160448,47.2272268469]},"record_timestamp":"2016-05-09T15:17:00+02:00"},{"datasetid":"laposte_hexasmal","recordid":"db93c7472ea5f936c8eccc581c2a955286a58b85","fields":{"nom_de_la_commune":"CIZAY LA MADELEINE","libell_d_acheminement":"CIZAY LA MADELEINE","code_postal":"49700","coordonnees_gps":[47.1826312611,-0.184989396034],"code_commune_insee":"49100"},"geometry":{"type":"Point","coordinates":[-0.184989396034,47.1826312611]},"record_timestamp":"2016-05-09T15:17:00+02:00"},{"datasetid":"laposte_hexasmal","recordid":"d2b5cd0f593b57de8e189225744e1f74b83fac4d","fields":{"nom_de_la_commune":"CORZE","libell_d_acheminement":"CORZE","code_postal":"49140","coordonnees_gps":[47.5424133416,-0.369410127178],"code_commune_insee":"49110"},"geometry":{"type":"Point","coordinates":[-0.369410127178,47.5424133416]},"record_timestamp":"2016-05-09T15:17:00+02:00"},{"datasetid":"laposte_hexasmal","recordid":"164315c3e45d1c2c0c548cadb85f88fd19574d03","fields":{"nom_de_la_commune":"DURTAL","libell_d_acheminement":"DURTAL","code_postal":"49430","coordonnees_gps":[47.6780515421,-0.254608332885],"code_commune_insee":"49127"},"geometry":{"type":"Point","coordinates":[-0.254608332885,47.6780515421]},"record_timestamp":"2016-05-09T15:17:00+02:00"},{"datasetid":"laposte_hexasmal","recordid":"721ff624bfb4792d2ed5a8b07c8a24e32937489e","fields":{"nom_de_la_commune":"FENEU","libell_d_acheminement":"FENEU","code_postal":"49460","coordonnees_gps":[47.5840201404,-0.600831621131],"code_commune_insee":"49135"},"geometry":{"type":"Point","coordinates":[-0.600831621131,47.5840201404]},"record_timestamp":"2016-05-09T15:17:00+02:00"},{"datasetid":"laposte_hexasmal","recordid":"b449fdbd98af4f83ce44dc40aa3fca9e1d653487","fields":{"code_postal":"49250","code_commune_insee":"49138","libell_d_acheminement":"LES BOIS D ANJOU","ligne_5":"FONTAINE GUERIN","nom_de_la_commune":"LES BOIS D ANJOU","coordonnees_gps":[47.4829167789,-0.174198642479]},"geometry":{"type":"Point","coordinates":[-0.174198642479,47.4829167789]},"record_timestamp":"2016-05-09T15:17:00+02:00"},{"datasetid":"laposte_hexasmal","recordid":"4b8e78eba09bec04c8c8875d3a90a2540e724101","fields":{"code_postal":"49320","code_commune_insee":"49149","libell_d_acheminement":"GENNES VAL DE LOIRE","ligne_5":"GREZILLE","nom_de_la_commune":"GENNES VAL DE LOIRE","coordonnees_gps":[47.3145776087,-0.253486023918]},"geometry":{"type":"Point","coordinates":[-0.253486023918,47.3145776087]},"record_timestamp":"2016-05-09T15:17:00+02:00"},{"datasetid":"laposte_hexasmal","recordid":"28bf409ba17b5f755e4dcc0e47bed0ebcd8570a3","fields":{"code_postal":"49350","code_commune_insee":"49149","libell_d_acheminement":"GENNES VAL DE LOIRE","ligne_5":"LE THOUREIL","nom_de_la_commune":"GENNES VAL DE LOIRE","coordonnees_gps":[47.3145776087,-0.253486023918]},"geometry":{"type":"Point","coordinates":[-0.253486023918,47.3145776087]},"record_timestamp":"2016-05-09T15:17:00+02:00"},{"datasetid":"laposte_hexasmal","recordid":"a6764e6e994c7edb97e8872d3ec0c90a5910a56b","fields":{"code_postal":"49350","code_commune_insee":"49149","libell_d_acheminement":"GENNES VAL DE LOIRE","ligne_5":"ST GEORGES DES SEPT VOIES","nom_de_la_commune":"GENNES VAL DE LOIRE","coordonnees_gps":[47.3145776087,-0.253486023918]},"geometry":{"type":"Point","coordinates":[-0.253486023918,47.3145776087]},"record_timestamp":"2016-05-09T15:17:00+02:00"},{"datasetid":"laposte_hexasmal","recordid":"a58076a92b4e7672b7afaa974640797dd4da5445","fields":{"nom_de_la_commune":"L HOTELLERIE DE FLEE","libell_d_acheminement":"L HOTELLERIE DE FLEE","code_postal":"49500","coordonnees_gps":[47.7471998488,-0.892010550736],"code_commune_insee":"49158"},"geometry":{"type":"Point","coordinates":[-0.892010550736,47.7471998488]},"record_timestamp":"2016-05-09T15:17:00+02:00"},{"datasetid":"laposte_hexasmal","recordid":"6f06bf3521ad7440dc0d4823c752d9cd340b34ce","fields":{"nom_de_la_commune":"LA JAILLE YVON","libell_d_acheminement":"LA JAILLE YVON","code_postal":"49220","coordonnees_gps":[47.7267173977,-0.687550991223],"code_commune_insee":"49161"},"geometry":{"type":"Point","coordinates":[-0.687550991223,47.7267173977]},"record_timestamp":"2016-05-09T15:17:00+02:00"},{"datasetid":"laposte_hexasmal","recordid":"bc9c7f5d5ea67f9f0b01b1194d94e18571a4dde5","fields":{"code_postal":"49220","code_commune_insee":"49176","libell_d_acheminement":"LE LION D ANGERS","ligne_5":"ANDIGNE","nom_de_la_commune":"LE LION D ANGERS","coordonnees_gps":[47.6307737346,-0.749881925184]},"geometry":{"type":"Point","coordinates":[-0.749881925184,47.6307737346]},"record_timestamp":"2016-05-09T15:17:00+02:00"},{"datasetid":"laposte_hexasmal","recordid":"16a1cf31f68bb5e1ec88f45daf401c14705f466c","fields":{"nom_de_la_commune":"MAZE MILON","libell_d_acheminement":"MAZE MILON","code_postal":"49630","coordonnees_gps":[47.4603950447,-0.284298744303],"code_commune_insee":"49194"},"geometry":{"type":"Point","coordinates":[-0.284298744303,47.4603950447]},"record_timestamp":"2016-05-09T15:17:00+02:00"},{"datasetid":"laposte_hexasmal","recordid":"2cac1fec649dedef8550d6953cbb7f92610fae5a","fields":{"code_postal":"49770","code_commune_insee":"49200","libell_d_acheminement":"LONGUENEE EN ANJOU","ligne_5":"LE PLESSIS MACE","nom_de_la_commune":"LONGUENEE EN ANJOU","coordonnees_gps":[47.5607664036,-0.683468497352]},"geometry":{"type":"Point","coordinates":[-0.683468497352,47.5607664036]},"record_timestamp":"2016-05-09T15:17:00+02:00"},{"datasetid":"laposte_hexasmal","recordid":"9522db079a4cbf252eb37467c897b46c5d8658c7","fields":{"nom_de_la_commune":"LA MENITRE","libell_d_acheminement":"LA MENITRE","code_postal":"49250","coordonnees_gps":[47.4070050575,-0.256671293231],"code_commune_insee":"49201"},"geometry":{"type":"Point","coordinates":[-0.256671293231,47.4070050575]},"record_timestamp":"2016-05-09T15:17:00+02:00"},{"datasetid":"laposte_hexasmal","recordid":"31a5924bf92ef6a38defbb24ab40bf0de0e56798","fields":{"nom_de_la_commune":"MONTIGNE LES RAIRIES","libell_d_acheminement":"MONTIGNE LES RAIRIES","code_postal":"49430","coordonnees_gps":[47.6256194713,-0.214038609082],"code_commune_insee":"49209"},"geometry":{"type":"Point","coordinates":[-0.214038609082,47.6256194713]},"record_timestamp":"2016-05-09T15:17:00+02:00"},{"datasetid":"laposte_hexasmal","recordid":"ad70ffd46bb40e25492774ef5fd26be3d1dafc2c","fields":{"nom_de_la_commune":"MONTREUIL SUR MAINE","libell_d_acheminement":"MONTREUIL SUR MAINE","code_postal":"49220","coordonnees_gps":[47.6603355661,-0.71140770195],"code_commune_insee":"49217"},"geometry":{"type":"Point","coordinates":[-0.71140770195,47.6603355661]},"record_timestamp":"2016-05-09T15:17:00+02:00"},{"datasetid":"laposte_hexasmal","recordid":"801cf17086618bbae96ea0c450dc44d755b44dd2","fields":{"nom_de_la_commune":"MONTREVAULT SUR EVRE","libell_d_acheminement":"MONTREVAULT SUR EVRE","code_postal":"49110","coordonnees_gps":[47.255395404,-1.05160971025],"code_commune_insee":"49218"},"geometry":{"type":"Point","coordinates":[-1.05160971025,47.255395404]},"record_timestamp":"2016-05-09T15:17:00+02:00"},{"datasetid":"laposte_hexasmal","recordid":"ada3a0184e2776fe87616a6eb69eecbd3afc5ff5","fields":{"code_postal":"49110","code_commune_insee":"49218","libell_d_acheminement":"MONTREVAULT SUR EVRE","ligne_5":"ST QUENTIN EN MAUGES","nom_de_la_commune":"MONTREVAULT SUR EVRE","coordonnees_gps":[47.255395404,-1.05160971025]},"geometry":{"type":"Point","coordinates":[-1.05160971025,47.255395404]},"record_timestamp":"2016-05-09T15:17:00+02:00"},{"datasetid":"laposte_hexasmal","recordid":"39f2a0bb3552c6edc3511a7119a1a659589bd0dd","fields":{"nom_de_la_commune":"NOELLET","libell_d_acheminement":"NOELLET","code_postal":"49520","coordonnees_gps":[47.6939204743,-1.08973286033],"code_commune_insee":"49226"},"geometry":{"type":"Point","coordinates":[-1.08973286033,47.6939204743]},"record_timestamp":"2016-05-09T15:17:00+02:00"},{"datasetid":"laposte_hexasmal","recordid":"fe6e2de5d5dc9640123c808d1d8581d6d575b86d","fields":{"nom_de_la_commune":"PARNAY","libell_d_acheminement":"PARNAY","code_postal":"49730","coordonnees_gps":[47.2209572382,0.00402105248715],"code_commune_insee":"49235"},"geometry":{"type":"Point","coordinates":[0.00402105248715,47.2209572382]},"record_timestamp":"2016-05-09T15:17:00+02:00"},{"datasetid":"laposte_hexasmal","recordid":"7334619663ee7859a95b3a5bb6b8a4ce49e28999","fields":{"code_postal":"49290","code_commune_insee":"49244","libell_d_acheminement":"MAUGES SUR LOIRE","ligne_5":"BOURGNEUF EN MAUGES","nom_de_la_commune":"MAUGES SUR LOIRE","coordonnees_gps":[47.3429800481,-0.869186945487]},"geometry":{"type":"Point","coordinates":[-0.869186945487,47.3429800481]},"record_timestamp":"2016-05-09T15:17:00+02:00"},{"datasetid":"laposte_hexasmal","recordid":"a6fd8c9f1fc01220ea79f44b9da96d466687dd52","fields":{"code_postal":"49620","code_commune_insee":"49244","libell_d_acheminement":"MAUGES SUR LOIRE","ligne_5":"LA POMMERAYE","nom_de_la_commune":"MAUGES SUR LOIRE","coordonnees_gps":[47.3429800481,-0.869186945487]},"geometry":{"type":"Point","coordinates":[-0.869186945487,47.3429800481]},"record_timestamp":"2016-05-09T15:17:00+02:00"},{"datasetid":"laposte_hexasmal","recordid":"9e5cebc7599bed08ceea0b01a611b71ae65f493f","fields":{"nom_de_la_commune":"ROU MARSON","libell_d_acheminement":"ROU MARSON","code_postal":"49400","coordonnees_gps":[47.2445767064,-0.151599974844],"code_commune_insee":"49262"},"geometry":{"type":"Point","coordinates":[-0.151599974844,47.2445767064]},"record_timestamp":"2016-05-09T15:17:00+02:00"},{"datasetid":"laposte_hexasmal","recordid":"a4d26e8788cd5aa44bacd2e553aca2798cb5ee95","fields":{"nom_de_la_commune":"ST AUGUSTIN DES BOIS","libell_d_acheminement":"ST AUGUSTIN DES BOIS","code_postal":"49170","coordonnees_gps":[47.4545053471,-0.800399129373],"code_commune_insee":"49266"},"geometry":{"type":"Point","coordinates":[-0.800399129373,47.4545053471]},"record_timestamp":"2016-05-09T15:17:00+02:00"},{"datasetid":"laposte_hexasmal","recordid":"413c26c5151f2c4e6b48506ec2a7a5f858d854ec","fields":{"nom_de_la_commune":"STE GEMMES D ANDIGNE","libell_d_acheminement":"STE GEMMES D ANDIGNE","code_postal":"49500","coordonnees_gps":[47.6660928171,-0.895241558075],"code_commune_insee":"49277"},"geometry":{"type":"Point","coordinates":[-0.895241558075,47.6660928171]},"record_timestamp":"2016-05-09T15:17:00+02:00"},{"datasetid":"laposte_hexasmal","recordid":"39120b5abe58ff418afd91c1dd37679fe5964af4","fields":{"nom_de_la_commune":"ST JEAN DES MAUVRETS","libell_d_acheminement":"ST JEAN DES MAUVRETS","code_postal":"49320","coordonnees_gps":[47.3849442681,-0.460307336678],"code_commune_insee":"49290"},"geometry":{"type":"Point","coordinates":[-0.460307336678,47.3849442681]},"record_timestamp":"2016-05-09T15:17:00+02:00"},{"datasetid":"laposte_hexasmal","recordid":"2d90785a7746160a647f19fe692c5fb4b23e75ac","fields":{"nom_de_la_commune":"ST LEGER SOUS CHOLET","libell_d_acheminement":"ST LEGER SOUS CHOLET","code_postal":"49280","coordonnees_gps":[47.1022853762,-0.904193715243],"code_commune_insee":"49299"},"geometry":{"type":"Point","coordinates":[-0.904193715243,47.1022853762]},"record_timestamp":"2016-05-09T15:17:00+02:00"},{"datasetid":"laposte_hexasmal","recordid":"524a4602822e30c188379426ec923300c522b57b","fields":{"code_postal":"49450","code_commune_insee":"49301","libell_d_acheminement":"SEVREMOINE","ligne_5":"ROUSSAY","nom_de_la_commune":"SEVREMOINE","coordonnees_gps":[47.1256560392,-0.998341815021]},"geometry":{"type":"Point","coordinates":[-0.998341815021,47.1256560392]},"record_timestamp":"2016-05-09T15:17:00+02:00"},{"datasetid":"laposte_hexasmal","recordid":"b9483118dd2fac4dc63b3b53a349fffbf06e8724","fields":{"nom_de_la_commune":"ST MARTIN DU FOUILLOUX","libell_d_acheminement":"ST MARTIN DU FOUILLOUX","code_postal":"49170","coordonnees_gps":[47.4370289729,-0.708731973455],"code_commune_insee":"49306"},"geometry":{"type":"Point","coordinates":[-0.708731973455,47.4370289729]},"record_timestamp":"2016-05-09T15:17:00+02:00"},{"datasetid":"laposte_hexasmal","recordid":"0d4403250855f5e0525abd26dc9f4f6bc9ab5469","fields":{"code_postal":"49630","code_commune_insee":"49307","libell_d_acheminement":"LOIRE AUTHION","ligne_5":"CORNE","nom_de_la_commune":"LOIRE AUTHION","coordonnees_gps":[47.4219645317,-0.319673646947]},"geometry":{"type":"Point","coordinates":[-0.319673646947,47.4219645317]},"record_timestamp":"2016-05-09T15:17:00+02:00"},{"datasetid":"laposte_hexasmal","recordid":"e658a36215d08176fabdc740a5e17125712ea6ba","fields":{"code_postal":"49800","code_commune_insee":"49307","libell_d_acheminement":"LOIRE AUTHION","ligne_5":"ANDARD","nom_de_la_commune":"LOIRE AUTHION","coordonnees_gps":[47.4219645317,-0.319673646947]},"geometry":{"type":"Point","coordinates":[-0.319673646947,47.4219645317]},"record_timestamp":"2016-05-09T15:17:00+02:00"},{"datasetid":"laposte_hexasmal","recordid":"9a8d89476faaf8e639fcd92ec033d2fca5756923","fields":{"nom_de_la_commune":"SARRIGNE","libell_d_acheminement":"SARRIGNE","code_postal":"49800","coordonnees_gps":[47.5024740958,-0.385798724443],"code_commune_insee":"49326"},"geometry":{"type":"Point","coordinates":[-0.385798724443,47.5024740958]},"record_timestamp":"2016-05-09T15:17:00+02:00"},{"datasetid":"laposte_hexasmal","recordid":"bb4aeedb3a91af8b3a3669d83050dfae2f93cb05","fields":{"code_postal":"49400","code_commune_insee":"49328","libell_d_acheminement":"SAUMUR","ligne_5":"DAMPIERRE SUR LOIRE","nom_de_la_commune":"SAUMUR","coordonnees_gps":[47.2673853525,-0.0830410591988]},"geometry":{"type":"Point","coordinates":[-0.0830410591988,47.2673853525]},"record_timestamp":"2016-05-09T15:17:00+02:00"},{"datasetid":"laposte_hexasmal","recordid":"da13ced2d8f236e14cc2f6785810c08ab4caf2cb","fields":{"code_postal":"49400","code_commune_insee":"49328","libell_d_acheminement":"SAUMUR","ligne_5":"ST LAMBERT DES LEVEES","nom_de_la_commune":"SAUMUR","coordonnees_gps":[47.2673853525,-0.0830410591988]},"geometry":{"type":"Point","coordinates":[-0.0830410591988,47.2673853525]},"record_timestamp":"2016-05-09T15:17:00+02:00"},{"datasetid":"laposte_hexasmal","recordid":"4598182bf57ec26cf0071ef29563a442ad517d3c","fields":{"nom_de_la_commune":"SAVENNIERES","libell_d_acheminement":"SAVENNIERES","code_postal":"49170","coordonnees_gps":[47.405865718,-0.667155831696],"code_commune_insee":"49329"},"geometry":{"type":"Point","coordinates":[-0.667155831696,47.405865718]},"record_timestamp":"2016-05-09T15:17:00+02:00"},{"datasetid":"laposte_hexasmal","recordid":"49300812639a4376be63f006f4849cda90d91221","fields":{"code_postal":"49140","code_commune_insee":"49333","libell_d_acheminement":"SEICHES SUR LE LOIR","ligne_5":"MATHEFLON","nom_de_la_commune":"SEICHES SUR LE LOIR","coordonnees_gps":[47.6039171793,-0.358897551801]},"geometry":{"type":"Point","coordinates":[-0.358897551801,47.6039171793]},"record_timestamp":"2016-05-09T15:17:00+02:00"},{"datasetid":"laposte_hexasmal","recordid":"fe0a4bd121bde21c3e3528f2f8eaa705ea027b87","fields":{"code_postal":"49380","code_commune_insee":"49345","libell_d_acheminement":"BELLEVIGNE EN LAYON","ligne_5":"FAYE D ANJOU","nom_de_la_commune":"BELLEVIGNE EN LAYON","coordonnees_gps":[47.2592682331,-0.517923916545]},"geometry":{"type":"Point","coordinates":[-0.517923916545,47.2592682331]},"record_timestamp":"2016-05-09T15:17:00+02:00"},{"datasetid":"laposte_hexasmal","recordid":"4a65671f05068a60b77dc910818d24532734c4ce","fields":{"nom_de_la_commune":"LES ULMES","libell_d_acheminement":"LES ULMES","code_postal":"49700","coordonnees_gps":[47.2234666455,-0.18231147008],"code_commune_insee":"49359"},"geometry":{"type":"Point","coordinates":[-0.18231147008,47.2234666455]},"record_timestamp":"2016-05-09T15:17:00+02:00"},{"datasetid":"laposte_hexasmal","recordid":"ebfadaed2cfdd3d07cf040ac9fe5aac4bace80be","fields":{"code_postal":"49220","code_commune_insee":"49367","libell_d_acheminement":"ERDRE EN ANJOU","ligne_5":"GENE","nom_de_la_commune":"ERDRE EN ANJOU","coordonnees_gps":[47.5882203908,-0.849650865368]},"geometry":{"type":"Point","coordinates":[-0.849650865368,47.5882203908]},"record_timestamp":"2016-05-09T15:17:00+02:00"},{"datasetid":"laposte_hexasmal","recordid":"36c3e535f09990a606c2056e3745fd965e39f538","fields":{"code_postal":"49370","code_commune_insee":"49367","libell_d_acheminement":"ERDRE EN ANJOU","ligne_5":"LA POUEZE","nom_de_la_commune":"ERDRE EN ANJOU","coordonnees_gps":[47.5882203908,-0.849650865368]},"geometry":{"type":"Point","coordinates":[-0.849650865368,47.5882203908]},"record_timestamp":"2016-05-09T15:17:00+02:00"},{"datasetid":"laposte_hexasmal","recordid":"68a5c0b6c7037a6832a2d0409967a74232ef0e38","fields":{"nom_de_la_commune":"VERNANTES","libell_d_acheminement":"VERNANTES","code_postal":"49390","coordonnees_gps":[47.3942457572,0.0285780026834],"code_commune_insee":"49368"},"geometry":{"type":"Point","coordinates":[0.0285780026834,47.3942457572]},"record_timestamp":"2016-05-09T15:17:00+02:00"},{"datasetid":"laposte_hexasmal","recordid":"575af61df7cfa14cb2bfdc34eec1b0e55aacc508","fields":{"nom_de_la_commune":"VERRIE","libell_d_acheminement":"VERRIE","code_postal":"49400","coordonnees_gps":[47.2685065312,-0.186628431321],"code_commune_insee":"49370"},"geometry":{"type":"Point","coordinates":[-0.186628431321,47.2685065312]},"record_timestamp":"2016-05-09T15:17:00+02:00"},{"datasetid":"laposte_hexasmal","recordid":"e0dd792d8212ceb0dced52e9b3c2fe90d804b37e","fields":{"code_postal":"49540","code_commune_insee":"49373","libell_d_acheminement":"LYS HAUT LAYON","ligne_5":"LA FOSSE DE TIGNE","nom_de_la_commune":"LYS HAUT LAYON","coordonnees_gps":[47.1373301524,-0.559450064005]},"geometry":{"type":"Point","coordinates":[-0.559450064005,47.1373301524]},"record_timestamp":"2016-05-09T15:17:00+02:00"},{"datasetid":"laposte_hexasmal","recordid":"48f48160d55eb60635071c036c26dd337c9b7b33","fields":{"nom_de_la_commune":"VILLEBERNIER","libell_d_acheminement":"VILLEBERNIER","code_postal":"49400","coordonnees_gps":[47.2624126293,-0.0208277166686],"code_commune_insee":"49374"},"geometry":{"type":"Point","coordinates":[-0.0208277166686,47.2624126293]},"record_timestamp":"2016-05-09T15:17:00+02:00"},{"datasetid":"laposte_hexasmal","recordid":"99d977dd3b73a0553b6f8451325975f9b39c1a07","fields":{"nom_de_la_commune":"ALLONNES","libell_d_acheminement":"ALLONNES","code_postal":"49650","coordonnees_gps":[47.3034746947,0.0111127082363],"code_commune_insee":"49002"},"geometry":{"type":"Point","coordinates":[0.0111127082363,47.3034746947]},"record_timestamp":"2016-05-09T15:17:00+02:00"},{"datasetid":"laposte_hexasmal","recordid":"802af7349b9c185618982f0270093dd0e913dcc5","fields":{"nom_de_la_commune":"AUVERSE","libell_d_acheminement":"AUVERSE","code_postal":"49490","coordonnees_gps":[47.5005493445,0.0389865694982],"code_commune_insee":"49013"},"geometry":{"type":"Point","coordinates":[0.0389865694982,47.5005493445]},"record_timestamp":"2016-05-09T15:17:00+02:00"},{"datasetid":"laposte_hexasmal","recordid":"8fb0d4ed55462471e0f7a8285056ea2243d246e5","fields":{"nom_de_la_commune":"BARACE","libell_d_acheminement":"BARACE","code_postal":"49430","coordonnees_gps":[47.6427261834,-0.357767481621],"code_commune_insee":"49017"},"geometry":{"type":"Point","coordinates":[-0.357767481621,47.6427261834]},"record_timestamp":"2016-05-09T15:17:00+02:00"},{"datasetid":"laposte_hexasmal","recordid":"78eb093a2118a74d3bd1850ce4f51c12c72082f8","fields":{"code_postal":"49150","code_commune_insee":"49018","libell_d_acheminement":"BAUGE EN ANJOU","ligne_5":"CHARTRENE","nom_de_la_commune":"BAUGE EN ANJOU","coordonnees_gps":[47.5466894738,-0.109021794815]},"geometry":{"type":"Point","coordinates":[-0.109021794815,47.5466894738]},"record_timestamp":"2016-05-09T15:17:00+02:00"},{"datasetid":"laposte_hexasmal","recordid":"0451da015ffc647eb7589d82d70ed446ed083300","fields":{"code_postal":"49700","code_commune_insee":"49003","libell_d_acheminement":"TUFFALUN","ligne_5":"LOUERRE","nom_de_la_commune":"TUFFALUN","coordonnees_gps":[47.2573828474,-0.337427788842]},"geometry":{"type":"Point","coordinates":[-0.337427788842,47.2573828474]},"record_timestamp":"2016-05-09T15:17:00+02:00"},{"datasetid":"laposte_hexasmal","recordid":"6cf76b4716440b696f9152bf2f7e450db507ea2b","fields":{"nom_de_la_commune":"ANGERS","libell_d_acheminement":"ANGERS","code_postal":"49000","coordonnees_gps":[47.476837416,-0.556125995444],"code_commune_insee":"49007"},"geometry":{"type":"Point","coordinates":[-0.556125995444,47.476837416]},"record_timestamp":"2016-05-09T15:17:00+02:00"},{"datasetid":"laposte_hexasmal","recordid":"4e82a78344792ea2ccc611ee8c0b90d8a1122eeb","fields":{"code_postal":"49150","code_commune_insee":"49018","libell_d_acheminement":"BAUGE EN ANJOU","ligne_5":"ST QUENTIN LES BEAUREPAIRE","nom_de_la_commune":"BAUGE EN ANJOU","coordonnees_gps":[47.5466894738,-0.109021794815]},"geometry":{"type":"Point","coordinates":[-0.109021794815,47.5466894738]},"record_timestamp":"2016-05-09T15:17:00+02:00"},{"datasetid":"laposte_hexasmal","recordid":"961b721779208eda0b865eee5084545b4802cc20","fields":{"nom_de_la_commune":"BEAUCOUZE","libell_d_acheminement":"BEAUCOUZE","code_postal":"49070","coordonnees_gps":[47.4744512295,-0.63405515785],"code_commune_insee":"49020"},"geometry":{"type":"Point","coordinates":[-0.63405515785,47.4744512295]},"record_timestamp":"2016-05-09T15:17:00+02:00"},{"datasetid":"laposte_hexasmal","recordid":"3716176853e97a48efd14f4fe36af37206515168","fields":{"code_postal":"49510","code_commune_insee":"49023","libell_d_acheminement":"BEAUPREAU EN MAUGES","ligne_5":"LA POITEVINIERE","nom_de_la_commune":"BEAUPREAU EN MAUGES","coordonnees_gps":[47.2125984545,-0.983619028639]},"geometry":{"type":"Point","coordinates":[-0.983619028639,47.2125984545]},"record_timestamp":"2016-05-09T15:17:00+02:00"},{"datasetid":"laposte_hexasmal","recordid":"753507c264676e4c889a245289c76d794aafa646","fields":{"code_postal":"49600","code_commune_insee":"49023","libell_d_acheminement":"BEAUPREAU EN MAUGES","ligne_5":"ANDREZE","nom_de_la_commune":"BEAUPREAU EN MAUGES","coordonnees_gps":[47.2125984545,-0.983619028639]},"geometry":{"type":"Point","coordinates":[-0.983619028639,47.2125984545]},"record_timestamp":"2016-05-09T15:17:00+02:00"},{"datasetid":"laposte_hexasmal","recordid":"22456f5d011663b76fe77a5db9c55a33158e99ae","fields":{"code_postal":"49600","code_commune_insee":"49023","libell_d_acheminement":"BEAUPREAU EN MAUGES","ligne_5":"GESTE","nom_de_la_commune":"BEAUPREAU EN MAUGES","coordonnees_gps":[47.2125984545,-0.983619028639]},"geometry":{"type":"Point","coordinates":[-0.983619028639,47.2125984545]},"record_timestamp":"2016-05-09T15:17:00+02:00"},{"datasetid":"laposte_hexasmal","recordid":"d3ec0a86da5d46efa6161d4d477ca727b8097496","fields":{"nom_de_la_commune":"BECON LES GRANITS","libell_d_acheminement":"BECON LES GRANITS","code_postal":"49370","coordonnees_gps":[47.4995106103,-0.799139218655],"code_commune_insee":"49026"},"geometry":{"type":"Point","coordinates":[-0.799139218655,47.4995106103]},"record_timestamp":"2016-05-09T15:17:00+02:00"},{"datasetid":"laposte_hexasmal","recordid":"242f97fb1f10e38af9d26d32345afb5398aa1e3a","fields":{"nom_de_la_commune":"BOUCHEMAINE","libell_d_acheminement":"BOUCHEMAINE","code_postal":"49080","coordonnees_gps":[47.4307669874,-0.627122133651],"code_commune_insee":"49035"},"geometry":{"type":"Point","coordinates":[-0.627122133651,47.4307669874]},"record_timestamp":"2016-05-09T15:17:00+02:00"},{"datasetid":"laposte_hexasmal","recordid":"263631e659c2093a522f485ffb56e9fc1c75019d","fields":{"code_postal":"49220","code_commune_insee":"49067","libell_d_acheminement":"CHENILLE CHAMPTEUSSE","ligne_5":"CHENILLE CHANGE","nom_de_la_commune":"CHENILLE CHAMPTEUSSE","coordonnees_gps":[47.6694970175,-0.65425867074]},"geometry":{"type":"Point","coordinates":[-0.65425867074,47.6694970175]},"record_timestamp":"2016-05-09T15:17:00+02:00"},{"datasetid":"laposte_hexasmal","recordid":"cf1f2fef85c0b53c01227954e5f222f3ec581898","fields":{"code_postal":"49270","code_commune_insee":"49069","libell_d_acheminement":"OREE D ANJOU","ligne_5":"ST SAUVEUR DE LANDEMONT","nom_de_la_commune":"OREE D ANJOU","coordonnees_gps":[47.3218941947,-1.26053581871]},"geometry":{"type":"Point","coordinates":[-1.26053581871,47.3218941947]},"record_timestamp":"2016-05-09T15:17:00+02:00"},{"datasetid":"laposte_hexasmal","recordid":"de578f18a86afe8a3cac888a4c0801d514cf00be","fields":{"code_postal":"49120","code_commune_insee":"49092","libell_d_acheminement":"CHEMILLE EN ANJOU","ligne_5":"LES GARDES","nom_de_la_commune":"CHEMILLE EN ANJOU","coordonnees_gps":[47.2272268469,-0.730188160448]},"geometry":{"type":"Point","coordinates":[-0.730188160448,47.2272268469]},"record_timestamp":"2016-05-09T15:17:00+02:00"},{"datasetid":"laposte_hexasmal","recordid":"12247bee99f42c9f1710bc3dff874c1c899c11cd","fields":{"code_postal":"49310","code_commune_insee":"49092","libell_d_acheminement":"CHEMILLE EN ANJOU","ligne_5":"LA SALLE DE VIHIERS","nom_de_la_commune":"CHEMILLE EN ANJOU","coordonnees_gps":[47.2272268469,-0.730188160448]},"geometry":{"type":"Point","coordinates":[-0.730188160448,47.2272268469]},"record_timestamp":"2016-05-09T15:17:00+02:00"},{"datasetid":"laposte_hexasmal","recordid":"f0c3358f1c654de13f60917810569ba70f99f2ac","fields":{"code_postal":"49670","code_commune_insee":"49092","libell_d_acheminement":"CHEMILLE EN ANJOU","ligne_5":"JOUE ETIAU","nom_de_la_commune":"CHEMILLE EN ANJOU","coordonnees_gps":[47.2272268469,-0.730188160448]},"geometry":{"type":"Point","coordinates":[-0.730188160448,47.2272268469]},"record_timestamp":"2016-05-09T15:17:00+02:00"},{"datasetid":"laposte_hexasmal","recordid":"693c3be3ee209442968a7ef4d122d4792e4623fc","fields":{"code_postal":"49300","code_commune_insee":"49099","libell_d_acheminement":"CHOLET","ligne_5":"LE PUY ST BONNET","nom_de_la_commune":"CHOLET","coordonnees_gps":[47.0454402992,-0.877886189605]},"geometry":{"type":"Point","coordinates":[-0.877886189605,47.0454402992]},"record_timestamp":"2016-05-09T15:17:00+02:00"},{"datasetid":"laposte_hexasmal","recordid":"da6bd7797d418771791c3061dc16e1c47a9b371d","fields":{"code_postal":"49520","code_commune_insee":"49103","libell_d_acheminement":"COMBREE","ligne_5":"BEL AIR","nom_de_la_commune":"COMBREE","coordonnees_gps":[47.7071628659,-1.02070109736]},"geometry":{"type":"Point","coordinates":[-1.02070109736,47.7071628659]},"record_timestamp":"2016-05-09T15:17:00+02:00"},{"datasetid":"laposte_hexasmal","recordid":"04a380c3dc567e39d8005d7a2e70962f220c878d","fields":{"nom_de_la_commune":"CONTIGNE","libell_d_acheminement":"CONTIGNE","code_postal":"49330","coordonnees_gps":[47.7267152855,-0.502172077277],"code_commune_insee":"49105"},"geometry":{"type":"Point","coordinates":[-0.502172077277,47.7267152855]},"record_timestamp":"2016-05-09T15:17:00+02:00"},{"datasetid":"laposte_hexasmal","recordid":"55956b88bdcc19fa4e2293110d1550590a1dac40","fields":{"nom_de_la_commune":"LA CORNUAILLE","libell_d_acheminement":"LA CORNUAILLE","code_postal":"49440","coordonnees_gps":[47.5247468295,-0.995630411608],"code_commune_insee":"49108"},"geometry":{"type":"Point","coordinates":[-0.995630411608,47.5247468295]},"record_timestamp":"2016-05-09T15:17:00+02:00"},{"datasetid":"laposte_hexasmal","recordid":"fcd806b60fcb15c3be75fe9a246fad3e3e14553e","fields":{"nom_de_la_commune":"COURLEON","libell_d_acheminement":"COURLEON","code_postal":"49390","coordonnees_gps":[47.3809189651,0.146996845138],"code_commune_insee":"49114"},"geometry":{"type":"Point","coordinates":[0.146996845138,47.3809189651]},"record_timestamp":"2016-05-09T15:17:00+02:00"},{"datasetid":"laposte_hexasmal","recordid":"c73a9d7c3756f3633f22ce9277cd9e4165694c69","fields":{"nom_de_la_commune":"LA FERRIERE DE FLEE","libell_d_acheminement":"LA FERRIERE DE FLEE","code_postal":"49500","coordonnees_gps":[47.7365814493,-0.839728647757],"code_commune_insee":"49136"},"geometry":{"type":"Point","coordinates":[-0.839728647757,47.7365814493]},"record_timestamp":"2016-05-09T15:17:00+02:00"},{"datasetid":"laposte_hexasmal","recordid":"8424d05e5a1ee3d745f49088080e747649da4824","fields":{"code_postal":"49250","code_commune_insee":"49138","libell_d_acheminement":"LES BOIS D ANJOU","ligne_5":"ST GEORGES DU BOIS","nom_de_la_commune":"LES BOIS D ANJOU","coordonnees_gps":[47.4829167789,-0.174198642479]},"geometry":{"type":"Point","coordinates":[-0.174198642479,47.4829167789]},"record_timestamp":"2016-05-09T15:17:00+02:00"},{"datasetid":"laposte_hexasmal","recordid":"3d2b24ead9f069b5d2092cb605c45e9826d390ef","fields":{"nom_de_la_commune":"FREIGNE","libell_d_acheminement":"FREIGNE","code_postal":"49440","coordonnees_gps":[47.5362195118,-1.10598728403],"code_commune_insee":"49144"},"geometry":{"type":"Point","coordinates":[-1.10598728403,47.5362195118]},"record_timestamp":"2016-05-09T15:17:00+02:00"},{"datasetid":"laposte_hexasmal","recordid":"1f4c465acce85207d04b786295b21b33b4681c0c","fields":{"nom_de_la_commune":"GREZ NEUVILLE","libell_d_acheminement":"GREZ NEUVILLE","code_postal":"49220","coordonnees_gps":[47.5951579943,-0.695965516847],"code_commune_insee":"49155"},"geometry":{"type":"Point","coordinates":[-0.695965516847,47.5951579943]},"record_timestamp":"2016-05-09T15:17:00+02:00"},{"datasetid":"laposte_hexasmal","recordid":"ca57ee0840f7072ea9c22dd19cbb2f151ba8a659","fields":{"nom_de_la_commune":"GRUGE L HOPITAL","libell_d_acheminement":"GRUGE L HOPITAL","code_postal":"49520","coordonnees_gps":[47.7529019334,-1.02649508441],"code_commune_insee":"49156"},"geometry":{"type":"Point","coordinates":[-1.02649508441,47.7529019334]},"record_timestamp":"2016-05-09T15:17:00+02:00"},{"datasetid":"laposte_hexasmal","recordid":"f66dc8b185791d541ce837307ae9453543793c12","fields":{"nom_de_la_commune":"INGRANDES LE FRESNE SUR LOIRE","libell_d_acheminement":"INGRANDES LE FRESNE SUR LOIRE","code_postal":"49123","coordonnees_gps":[47.4154942142,-0.920314202965],"code_commune_insee":"49160"},"geometry":{"type":"Point","coordinates":[-0.920314202965,47.4154942142]},"record_timestamp":"2016-05-09T15:17:00+02:00"},{"datasetid":"laposte_hexasmal","recordid":"9c48cc46fed9de4ce3adacebbc0e04ee858eba81","fields":{"nom_de_la_commune":"LOUVAINES","libell_d_acheminement":"LOUVAINES","code_postal":"49500","coordonnees_gps":[47.6906077603,-0.802929721052],"code_commune_insee":"49184"},"geometry":{"type":"Point","coordinates":[-0.802929721052,47.6906077603]},"record_timestamp":"2016-05-09T15:17:00+02:00"},{"datasetid":"laposte_hexasmal","recordid":"8b548fc3348e27d4719e3e0107c1c20d2d8541e3","fields":{"nom_de_la_commune":"LUIGNE","libell_d_acheminement":"LUIGNE","code_postal":"49320","coordonnees_gps":[47.2858487854,-0.400877315446],"code_commune_insee":"49186"},"geometry":{"type":"Point","coordinates":[-0.400877315446,47.2858487854]},"record_timestamp":"2016-05-09T15:17:00+02:00"},{"datasetid":"laposte_hexasmal","recordid":"abe570b71246e1613d22301b19920b62fea1e0c8","fields":{"nom_de_la_commune":"MARIGNE","libell_d_acheminement":"MARIGNE","code_postal":"49330","coordonnees_gps":[47.7139945801,-0.623422312974],"code_commune_insee":"49189"},"geometry":{"type":"Point","coordinates":[-0.623422312974,47.7139945801]},"record_timestamp":"2016-05-09T15:17:00+02:00"},{"datasetid":"laposte_hexasmal","recordid":"73cdc42d6dab749e1c1d20c939cfa3f2a7b839c8","fields":{"nom_de_la_commune":"MAULEVRIER","libell_d_acheminement":"MAULEVRIER","code_postal":"49360","coordonnees_gps":[47.0185766256,-0.768134737511],"code_commune_insee":"49192"},"geometry":{"type":"Point","coordinates":[-0.768134737511,47.0185766256]},"record_timestamp":"2016-05-09T15:17:00+02:00"},{"datasetid":"laposte_hexasmal","recordid":"540f03aea1f92b7f4977f59047dba13cc925c717","fields":{"nom_de_la_commune":"MEON","libell_d_acheminement":"MEON","code_postal":"49490","coordonnees_gps":[47.4730078794,0.113522965936],"code_commune_insee":"49202"},"geometry":{"type":"Point","coordinates":[0.113522965936,47.4730078794]},"record_timestamp":"2016-05-09T15:17:00+02:00"},{"datasetid":"laposte_hexasmal","recordid":"d049678e5c18b736f9c611a174d7379ab748854e","fields":{"nom_de_la_commune":"MIRE","libell_d_acheminement":"MIRE","code_postal":"49330","coordonnees_gps":[47.7620031933,-0.495000586199],"code_commune_insee":"49205"},"geometry":{"type":"Point","coordinates":[-0.495000586199,47.7620031933]},"record_timestamp":"2016-05-09T15:17:00+02:00"},{"datasetid":"laposte_hexasmal","recordid":"a58faaa590cc644ab0b1c7dbe67d2d576286fadb","fields":{"nom_de_la_commune":"MONTFORT","libell_d_acheminement":"MONTFORT","code_postal":"49700","coordonnees_gps":[47.1888469498,-0.215553855338],"code_commune_insee":"49207"},"geometry":{"type":"Point","coordinates":[-0.215553855338,47.1888469498]},"record_timestamp":"2016-05-09T15:17:00+02:00"},{"datasetid":"laposte_hexasmal","recordid":"c128ac83e7e39ab291149157f65610147432401d","fields":{"nom_de_la_commune":"MONTREUIL JUIGNE","libell_d_acheminement":"MONTREUIL JUIGNE","code_postal":"49460","coordonnees_gps":[47.5411858548,-0.616472796467],"code_commune_insee":"49214"},"geometry":{"type":"Point","coordinates":[-0.616472796467,47.5411858548]},"record_timestamp":"2016-05-09T15:17:00+02:00"},{"datasetid":"laposte_hexasmal","recordid":"a111170567496608a690910509b39a72e694231e","fields":{"code_postal":"49110","code_commune_insee":"49218","libell_d_acheminement":"MONTREVAULT SUR EVRE","ligne_5":"LA SALLE ET CHAPELLE AUBRY","nom_de_la_commune":"MONTREVAULT SUR EVRE","coordonnees_gps":[47.255395404,-1.05160971025]},"geometry":{"type":"Point","coordinates":[-1.05160971025,47.255395404]},"record_timestamp":"2016-05-09T15:17:00+02:00"},{"datasetid":"laposte_hexasmal","recordid":"364250f2e2075d9ab0bc7897bd645d36b0297daf","fields":{"code_postal":"49600","code_commune_insee":"49218","libell_d_acheminement":"MONTREVAULT SUR EVRE","ligne_5":"LE FIEF SAUVIN","nom_de_la_commune":"MONTREVAULT SUR EVRE","coordonnees_gps":[47.255395404,-1.05160971025]},"geometry":{"type":"Point","coordinates":[-1.05160971025,47.255395404]},"record_timestamp":"2016-05-09T15:17:00+02:00"},{"datasetid":"laposte_hexasmal","recordid":"828116b3e042d5ca164f9b9a2c57c0ff2cc44f35","fields":{"code_postal":"49600","code_commune_insee":"49218","libell_d_acheminement":"MONTREVAULT SUR EVRE","ligne_5":"LE PUISET DORE","nom_de_la_commune":"MONTREVAULT SUR EVRE","coordonnees_gps":[47.255395404,-1.05160971025]},"geometry":{"type":"Point","coordinates":[-1.05160971025,47.255395404]},"record_timestamp":"2016-05-09T15:17:00+02:00"},{"datasetid":"laposte_hexasmal","recordid":"54a4c964440d074359ac3661c94526f5567d13ee","fields":{"nom_de_la_commune":"MONTSOREAU","libell_d_acheminement":"MONTSOREAU","code_postal":"49730","coordonnees_gps":[47.2135013304,0.0519492185178],"code_commune_insee":"49219"},"geometry":{"type":"Point","coordinates":[0.0519492185178,47.2135013304]},"record_timestamp":"2016-05-09T15:17:00+02:00"},{"datasetid":"laposte_hexasmal","recordid":"42aacf85396f4dcdeadadfb5122216f28cf85ee5","fields":{"nom_de_la_commune":"MOZE SUR LOUET","libell_d_acheminement":"MOZE SUR LOUET","code_postal":"49610","coordonnees_gps":[47.3588616971,-0.568969169001],"code_commune_insee":"49222"},"geometry":{"type":"Point","coordinates":[-0.568969169001,47.3588616971]},"record_timestamp":"2016-05-09T15:17:00+02:00"},{"datasetid":"laposte_hexasmal","recordid":"f7b98ca33e1ee787f6a299788ba62096d15853ba","fields":{"nom_de_la_commune":"MURS ERIGNE","libell_d_acheminement":"MURS ERIGNE","code_postal":"49610","coordonnees_gps":[47.3952383531,-0.553551118702],"code_commune_insee":"49223"},"geometry":{"type":"Point","coordinates":[-0.553551118702,47.3952383531]},"record_timestamp":"2016-05-09T15:17:00+02:00"},{"datasetid":"laposte_hexasmal","recordid":"438b3fc2badec46634ff20f5677cececf0190ee9","fields":{"nom_de_la_commune":"PASSAVANT SUR LAYON","libell_d_acheminement":"PASSAVANT SUR LAYON","code_postal":"49560","coordonnees_gps":[47.1007325389,-0.383422642271],"code_commune_insee":"49236"},"geometry":{"type":"Point","coordinates":[-0.383422642271,47.1007325389]},"record_timestamp":"2016-05-09T15:17:00+02:00"},{"datasetid":"laposte_hexasmal","recordid":"9c00bf541bd0eff60dc162e9b9d78667a20902d4","fields":{"code_postal":"49110","code_commune_insee":"49244","libell_d_acheminement":"MAUGES SUR LOIRE","ligne_5":"BOTZ EN MAUGES","nom_de_la_commune":"MAUGES SUR LOIRE","coordonnees_gps":[47.3429800481,-0.869186945487]},"geometry":{"type":"Point","coordinates":[-0.869186945487,47.3429800481]},"record_timestamp":"2016-05-09T15:17:00+02:00"},{"datasetid":"laposte_hexasmal","recordid":"bc7a6c582dc16089ae9e8bf8f950e5600f96d27d","fields":{"nom_de_la_commune":"LA POSSONNIERE","libell_d_acheminement":"LA POSSONNIERE","code_postal":"49170","coordonnees_gps":[47.3814407983,-0.708738811093],"code_commune_insee":"49247"},"geometry":{"type":"Point","coordinates":[-0.708738811093,47.3814407983]},"record_timestamp":"2016-05-09T15:17:00+02:00"},{"datasetid":"laposte_hexasmal","recordid":"b5f9c130766ae6681016303279a27374c513bf4b","fields":{"nom_de_la_commune":"QUERRE","libell_d_acheminement":"QUERRE","code_postal":"49330","coordonnees_gps":[47.6744801615,-0.613825669743],"code_commune_insee":"49254"},"geometry":{"type":"Point","coordinates":[-0.613825669743,47.6744801615]},"record_timestamp":"2016-05-09T15:17:00+02:00"},{"datasetid":"laposte_hexasmal","recordid":"59758456b95f717e22377aa00e679184b3f246be","fields":{"nom_de_la_commune":"ST CHRISTOPHE DU BOIS","libell_d_acheminement":"ST CHRISTOPHE DU BOIS","code_postal":"49280","coordonnees_gps":[47.0291789736,-0.965837562307],"code_commune_insee":"49269"},"geometry":{"type":"Point","coordinates":[-0.965837562307,47.0291789736]},"record_timestamp":"2016-05-09T15:17:00+02:00"},{"datasetid":"laposte_hexasmal","recordid":"56b1df937c853302b8feb5d5b1a30c5fad0b2a72","fields":{"nom_de_la_commune":"ST CLEMENT DE LA PLACE","libell_d_acheminement":"ST CLEMENT DE LA PLACE","code_postal":"49370","coordonnees_gps":[47.5263429934,-0.734122843325],"code_commune_insee":"49271"},"geometry":{"type":"Point","coordinates":[-0.734122843325,47.5263429934]},"record_timestamp":"2016-05-09T15:17:00+02:00"},{"datasetid":"laposte_hexasmal","recordid":"4d031a0ba58dce5c0f3a327ae1ace555d56249c0","fields":{"nom_de_la_commune":"ST CYR EN BOURG","libell_d_acheminement":"ST CYR EN BOURG","code_postal":"49260","coordonnees_gps":[47.1946036975,-0.0504196154812],"code_commune_insee":"49274"},"geometry":{"type":"Point","coordinates":[-0.0504196154812,47.1946036975]},"record_timestamp":"2016-05-09T15:17:00+02:00"},{"datasetid":"laposte_hexasmal","recordid":"bf817bea2151ed135497bad9ee03e17e4997c2f7","fields":{"nom_de_la_commune":"ST JEAN DE LINIERES","libell_d_acheminement":"ST JEAN DE LINIERES","code_postal":"49070","coordonnees_gps":[47.4586878354,-0.674607472395],"code_commune_insee":"49289"},"geometry":{"type":"Point","coordinates":[-0.674607472395,47.4586878354]},"record_timestamp":"2016-05-09T15:17:00+02:00"},{"datasetid":"laposte_hexasmal","recordid":"d755f936694c04d78a8f323ae028f60153cc827d","fields":{"code_postal":"49750","code_commune_insee":"49292","libell_d_acheminement":"VAL DU LAYON","ligne_5":"ST LAMBERT DU LATTAY","nom_de_la_commune":"VAL DU LAYON","coordonnees_gps":[47.3002199454,-0.640314853216]},"geometry":{"type":"Point","coordinates":[-0.640314853216,47.3002199454]},"record_timestamp":"2016-05-09T15:17:00+02:00"},{"datasetid":"laposte_hexasmal","recordid":"3cb51284de3641a2734b0cd273552f04b63919ff","fields":{"code_postal":"49230","code_commune_insee":"49301","libell_d_acheminement":"SEVREMOINE","ligne_5":"MONTFAUCON MONTIGNE","nom_de_la_commune":"SEVREMOINE","coordonnees_gps":[47.1256560392,-0.998341815021]},"geometry":{"type":"Point","coordinates":[-0.998341815021,47.1256560392]},"record_timestamp":"2016-05-09T15:17:00+02:00"},{"datasetid":"laposte_hexasmal","recordid":"5956ce64cfca6837c5a4edcde0e89d123cb102f2","fields":{"code_postal":"49230","code_commune_insee":"49301","libell_d_acheminement":"SEVREMOINE","ligne_5":"MONTIGNE SUR MOINE","nom_de_la_commune":"SEVREMOINE","coordonnees_gps":[47.1256560392,-0.998341815021]},"geometry":{"type":"Point","coordinates":[-0.998341815021,47.1256560392]},"record_timestamp":"2016-05-09T15:17:00+02:00"},{"datasetid":"laposte_hexasmal","recordid":"9e24877531fa998a54f006c28cba7af5d4c4571d","fields":{"code_postal":"49710","code_commune_insee":"49301","libell_d_acheminement":"SEVREMOINE","ligne_5":"LE LONGERON","nom_de_la_commune":"SEVREMOINE","coordonnees_gps":[47.1256560392,-0.998341815021]},"geometry":{"type":"Point","coordinates":[-0.998341815021,47.1256560392]},"record_timestamp":"2016-05-09T15:17:00+02:00"},{"datasetid":"laposte_hexasmal","recordid":"eca66871d707791510d41f9fb0506b3ecef5ff1f","fields":{"nom_de_la_commune":"ST MACAIRE DU BOIS","libell_d_acheminement":"ST MACAIRE DU BOIS","code_postal":"49260","coordonnees_gps":[47.1133394452,-0.289626991067],"code_commune_insee":"49302"},"geometry":{"type":"Point","coordinates":[-0.289626991067,47.1133394452]},"record_timestamp":"2016-05-09T15:17:00+02:00"},{"datasetid":"laposte_hexasmal","recordid":"072dad5a33d2cae2053741975740115f8fa26166","fields":{"code_postal":"49250","code_commune_insee":"49307","libell_d_acheminement":"LOIRE AUTHION","ligne_5":"ST MATHURIN SUR LOIRE","nom_de_la_commune":"LOIRE AUTHION","coordonnees_gps":[47.4219645317,-0.319673646947]},"geometry":{"type":"Point","coordinates":[-0.319673646947,47.4219645317]},"record_timestamp":"2016-05-09T15:17:00+02:00"},{"datasetid":"laposte_hexasmal","recordid":"a670f8dce09459d0ed9a12c9d5dc5d811409fd94","fields":{"nom_de_la_commune":"ST SATURNIN SUR LOIRE","libell_d_acheminement":"ST SATURNIN SUR LOIRE","code_postal":"49320","coordonnees_gps":[47.3839004642,-0.429149450456],"code_commune_insee":"49318"},"geometry":{"type":"Point","coordinates":[-0.429149450456,47.3839004642]},"record_timestamp":"2016-05-09T15:17:00+02:00"},{"datasetid":"laposte_hexasmal","recordid":"c92ac4708ba4558ba8cb80031cf283781959d59a","fields":{"nom_de_la_commune":"ST SAUVEUR DE FLEE","libell_d_acheminement":"ST SAUVEUR DE FLEE","code_postal":"49500","coordonnees_gps":[47.7500623776,-0.807873128349],"code_commune_insee":"49319"},"geometry":{"type":"Point","coordinates":[-0.807873128349,47.7500623776]},"record_timestamp":"2016-05-09T15:17:00+02:00"},{"datasetid":"laposte_hexasmal","recordid":"d90f41debbe88e1f30cffb9be06c6bc466d1fd0a","fields":{"code_postal":"49112","code_commune_insee":"49323","libell_d_acheminement":"VERRIERES EN ANJOU","ligne_5":"PELLOUAILLES LES VIGNES","nom_de_la_commune":"VERRIERES EN ANJOU","coordonnees_gps":[47.5123317726,-0.475837998559]},"geometry":{"type":"Point","coordinates":[-0.475837998559,47.5123317726]},"record_timestamp":"2016-05-09T15:17:00+02:00"},{"datasetid":"laposte_hexasmal","recordid":"48610a4c499bd9a93a12325d02fb13c3f6185cca","fields":{"code_postal":"49480","code_commune_insee":"49323","libell_d_acheminement":"VERRIERES EN ANJOU","ligne_5":"ST SYLVAIN D ANJOU","nom_de_la_commune":"VERRIERES EN ANJOU","coordonnees_gps":[47.5123317726,-0.475837998559]},"geometry":{"type":"Point","coordinates":[-0.475837998559,47.5123317726]},"record_timestamp":"2016-05-09T15:17:00+02:00"},{"datasetid":"laposte_hexasmal","recordid":"32d5a0258c9a18477dde57eb5c6f6d862e6c3e91","fields":{"code_postal":"49400","code_commune_insee":"49328","libell_d_acheminement":"SAUMUR","ligne_5":"ST HILAIRE ST FLORENT","nom_de_la_commune":"SAUMUR","coordonnees_gps":[47.2673853525,-0.0830410591988]},"geometry":{"type":"Point","coordinates":[-0.0830410591988,47.2673853525]},"record_timestamp":"2016-05-09T15:17:00+02:00"},{"datasetid":"laposte_hexasmal","recordid":"3f6da75747d93051efb10ce3f437a7545b7c7727","fields":{"nom_de_la_commune":"SEGRE","libell_d_acheminement":"SEGRE","code_postal":"49500","coordonnees_gps":[47.7016654227,-0.863354104119],"code_commune_insee":"49331"},"geometry":{"type":"Point","coordinates":[-0.863354104119,47.7016654227]},"record_timestamp":"2016-05-09T15:17:00+02:00"},{"datasetid":"laposte_hexasmal","recordid":"2a1b5c9bfc24e88390f43fa0c5829f7bff3bbb42","fields":{"nom_de_la_commune":"LA SEGUINIERE","libell_d_acheminement":"LA SEGUINIERE","code_postal":"49280","coordonnees_gps":[47.0803772753,-0.957722131472],"code_commune_insee":"49332"},"geometry":{"type":"Point","coordinates":[-0.957722131472,47.0803772753]},"record_timestamp":"2016-05-09T15:17:00+02:00"},{"datasetid":"laposte_hexasmal","recordid":"d947df2d4161fbcc13334f9a662f94927e781cb6","fields":{"nom_de_la_commune":"SOULAINES SUR AUBANCE","libell_d_acheminement":"SOULAINES SUR AUBANCE","code_postal":"49610","coordonnees_gps":[47.3590850983,-0.519604593269],"code_commune_insee":"49338"},"geometry":{"type":"Point","coordinates":[-0.519604593269,47.3590850983]},"record_timestamp":"2016-05-09T15:17:00+02:00"},{"datasetid":"laposte_hexasmal","recordid":"5e69bd6a9b888965d9d7ff5c2e07eb16ff0c4c91","fields":{"nom_de_la_commune":"SOUZAY CHAMPIGNY","libell_d_acheminement":"SOUZAY CHAMPIGNY","code_postal":"49400","coordonnees_gps":[47.2170632945,-0.0207542806981],"code_commune_insee":"49341"},"geometry":{"type":"Point","coordinates":[-0.0207542806981,47.2170632945]},"record_timestamp":"2016-05-09T15:17:00+02:00"},{"datasetid":"laposte_hexasmal","recordid":"e72b8463a4a154297131c71fb52e51d88a6499f8","fields":{"nom_de_la_commune":"THORIGNE D ANJOU","libell_d_acheminement":"THORIGNE D ANJOU","code_postal":"49220","coordonnees_gps":[47.6350974159,-0.663556490698],"code_commune_insee":"49344"},"geometry":{"type":"Point","coordinates":[-0.663556490698,47.6350974159]},"record_timestamp":"2016-05-09T15:17:00+02:00"},{"datasetid":"laposte_hexasmal","recordid":"65e8451ec143ec42220c5fafa98d0e61faf29011","fields":{"nom_de_la_commune":"TIERCE","libell_d_acheminement":"TIERCE","code_postal":"49125","coordonnees_gps":[47.6245599519,-0.44344301136],"code_commune_insee":"49347"},"geometry":{"type":"Point","coordinates":[-0.44344301136,47.6245599519]},"record_timestamp":"2016-05-09T15:17:00+02:00"},{"datasetid":"laposte_hexasmal","recordid":"ea48d0bd65c9234876e06abb12545532cdcf6220","fields":{"nom_de_la_commune":"TOUTLEMONDE","libell_d_acheminement":"TOUTLEMONDE","code_postal":"49360","coordonnees_gps":[47.0574145416,-0.75844602531],"code_commune_insee":"49352"},"geometry":{"type":"Point","coordinates":[-0.75844602531,47.0574145416]},"record_timestamp":"2016-05-09T15:17:00+02:00"},{"datasetid":"laposte_hexasmal","recordid":"e448c1dec14e0365e3f68abe3e18f480d820b6d4","fields":{"nom_de_la_commune":"VAUDELNAY","libell_d_acheminement":"VAUDELNAY","code_postal":"49260","coordonnees_gps":[47.1411198846,-0.212881943742],"code_commune_insee":"49364"},"geometry":{"type":"Point","coordinates":[-0.212881943742,47.1411198846]},"record_timestamp":"2016-05-09T15:17:00+02:00"},{"datasetid":"laposte_hexasmal","recordid":"af9f376456e712dd269f3d456d7afb5d08b64934","fields":{"code_postal":"49310","code_commune_insee":"49373","libell_d_acheminement":"LYS HAUT LAYON","ligne_5":"LE VOIDE","nom_de_la_commune":"LYS HAUT LAYON","coordonnees_gps":[47.1373301524,-0.559450064005]},"geometry":{"type":"Point","coordinates":[-0.559450064005,47.1373301524]},"record_timestamp":"2016-05-09T15:17:00+02:00"},{"datasetid":"laposte_hexasmal","recordid":"1c5bac6d5836dc46de40ffd67967ac02c0ed0635","fields":{"code_postal":"49310","code_commune_insee":"49373","libell_d_acheminement":"LYS HAUT LAYON","ligne_5":"LES CERQUEUX SOUS PASSAVANT","nom_de_la_commune":"LYS HAUT LAYON","coordonnees_gps":[47.1373301524,-0.559450064005]},"geometry":{"type":"Point","coordinates":[-0.559450064005,47.1373301524]},"record_timestamp":"2016-05-09T15:17:00+02:00"},{"datasetid":"laposte_hexasmal","recordid":"7fa1557f890f8af66ab7ff2c4e20faa4e711e77c","fields":{"code_postal":"49310","code_commune_insee":"49373","libell_d_acheminement":"LYS HAUT LAYON","ligne_5":"ST HILAIRE DU BOIS","nom_de_la_commune":"LYS HAUT LAYON","coordonnees_gps":[47.1373301524,-0.559450064005]},"geometry":{"type":"Point","coordinates":[-0.559450064005,47.1373301524]},"record_timestamp":"2016-05-09T15:17:00+02:00"},{"datasetid":"laposte_hexasmal","recordid":"4d27b4f6d7b09b86bd9d97d4989b5e5fae789506","fields":{"code_postal":"49310","code_commune_insee":"49373","libell_d_acheminement":"LYS HAUT LAYON","ligne_5":"TREMONT","nom_de_la_commune":"LYS HAUT LAYON","coordonnees_gps":[47.1373301524,-0.559450064005]},"geometry":{"type":"Point","coordinates":[-0.559450064005,47.1373301524]},"record_timestamp":"2016-05-09T15:17:00+02:00"},{"datasetid":"laposte_hexasmal","recordid":"7ddd91bdc02567cbb7faf8a4cba218f2e5510e73","fields":{"code_postal":"49540","code_commune_insee":"49373","libell_d_acheminement":"LYS HAUT LAYON","ligne_5":"TIGNE","nom_de_la_commune":"LYS HAUT LAYON","coordonnees_gps":[47.1373301524,-0.559450064005]},"geometry":{"type":"Point","coordinates":[-0.559450064005,47.1373301524]},"record_timestamp":"2016-05-09T15:17:00+02:00"},{"datasetid":"laposte_hexasmal","recordid":"7dada38f80c57aa01db1ea58c0b1a02c4b185a7a","fields":{"code_postal":"49560","code_commune_insee":"49373","libell_d_acheminement":"LYS HAUT LAYON","ligne_5":"NUEIL SUR LAYON","nom_de_la_commune":"LYS HAUT LAYON","coordonnees_gps":[47.1373301524,-0.559450064005]},"geometry":{"type":"Point","coordinates":[-0.559450064005,47.1373301524]},"record_timestamp":"2016-05-09T15:17:00+02:00"},{"datasetid":"laposte_hexasmal","recordid":"5e98de931a02417ce32928ff27518db7a01ec0f5","fields":{"nom_de_la_commune":"YZERNAY","libell_d_acheminement":"YZERNAY","code_postal":"49360","coordonnees_gps":[47.0344970546,-0.696855883888],"code_commune_insee":"49381"},"geometry":{"type":"Point","coordinates":[-0.696855883888,47.0344970546]},"record_timestamp":"2016-05-09T15:17:00+02:00"},{"datasetid":"laposte_hexasmal","recordid":"f53679e9eb1c17d168660891772f314b31563525","fields":{"nom_de_la_commune":"AUBIGNE SUR LAYON","libell_d_acheminement":"AUBIGNE SUR LAYON","code_postal":"49540","coordonnees_gps":[47.2124010372,-0.472931660445],"code_commune_insee":"49012"},"geometry":{"type":"Point","coordinates":[-0.472931660445,47.2124010372]},"record_timestamp":"2016-05-09T15:17:00+02:00"},{"datasetid":"laposte_hexasmal","recordid":"ff7922197579e6f377452efd1045aefadfdaf172","fields":{"nom_de_la_commune":"AVIRE","libell_d_acheminement":"AVIRE","code_postal":"49500","coordonnees_gps":[47.7118822608,-0.791626507041],"code_commune_insee":"49014"},"geometry":{"type":"Point","coordinates":[-0.791626507041,47.7118822608]},"record_timestamp":"2016-05-09T15:17:00+02:00"},{"datasetid":"laposte_hexasmal","recordid":"1b02616aeda9403743a8a1e88233cb115d5ecb05","fields":{"code_postal":"49150","code_commune_insee":"49018","libell_d_acheminement":"BAUGE EN ANJOU","ligne_5":"BOCE","nom_de_la_commune":"BAUGE EN ANJOU","coordonnees_gps":[47.5466894738,-0.109021794815]},"geometry":{"type":"Point","coordinates":[-0.109021794815,47.5466894738]},"record_timestamp":"2016-05-09T15:17:00+02:00"},{"datasetid":"laposte_hexasmal","recordid":"ad3be484cb54831e3cdbaa683e899d354debccc3","fields":{"code_postal":"49700","code_commune_insee":"49003","libell_d_acheminement":"TUFFALUN","ligne_5":"AMBILLOU CHATEAU","nom_de_la_commune":"TUFFALUN","coordonnees_gps":[47.2573828474,-0.337427788842]},"geometry":{"type":"Point","coordinates":[-0.337427788842,47.2573828474]},"record_timestamp":"2016-05-09T15:17:00+02:00"},{"datasetid":"laposte_hexasmal","recordid":"919e02e9fe3c19937c70ad52abae46817242a486","fields":{"nom_de_la_commune":"ANGRIE","libell_d_acheminement":"ANGRIE","code_postal":"49440","coordonnees_gps":[47.5778407482,-0.968142946141],"code_commune_insee":"49008"},"geometry":{"type":"Point","coordinates":[-0.968142946141,47.5778407482]},"record_timestamp":"2016-05-09T15:17:00+02:00"},{"datasetid":"laposte_hexasmal","recordid":"3234d9ea88638af698b2108ba4e2735a7a244381","fields":{"nom_de_la_commune":"ARMAILLE","libell_d_acheminement":"ARMAILLE","code_postal":"49420","coordonnees_gps":[47.7134820734,-1.137864787],"code_commune_insee":"49010"},"geometry":{"type":"Point","coordinates":[-1.137864787,47.7134820734]},"record_timestamp":"2016-05-09T15:17:00+02:00"},{"datasetid":"laposte_hexasmal","recordid":"f321d3bb305f1d1084e2a4fe01b5acab5950a0cd","fields":{"nom_de_la_commune":"ARTANNES SUR THOUET","libell_d_acheminement":"ARTANNES SUR THOUET","code_postal":"49260","coordonnees_gps":[47.2019406008,-0.0969244084187],"code_commune_insee":"49011"},"geometry":{"type":"Point","coordinates":[-0.0969244084187,47.2019406008]},"record_timestamp":"2016-05-09T15:17:00+02:00"},{"datasetid":"laposte_hexasmal","recordid":"5cd61e2d948566075d8cea4fbf67114bec1d3eee","fields":{"code_postal":"49150","code_commune_insee":"49018","libell_d_acheminement":"BAUGE EN ANJOU","ligne_5":"ECHEMIRE","nom_de_la_commune":"BAUGE EN ANJOU","coordonnees_gps":[47.5466894738,-0.109021794815]},"geometry":{"type":"Point","coordinates":[-0.109021794815,47.5466894738]},"record_timestamp":"2016-05-09T15:17:00+02:00"},{"datasetid":"laposte_hexasmal","recordid":"b64a39ab1df29ef224b50c7669b840b9dc71c5a7","fields":{"code_postal":"49150","code_commune_insee":"49018","libell_d_acheminement":"BAUGE EN ANJOU","ligne_5":"PONTIGNE","nom_de_la_commune":"BAUGE EN ANJOU","coordonnees_gps":[47.5466894738,-0.109021794815]},"geometry":{"type":"Point","coordinates":[-0.109021794815,47.5466894738]},"record_timestamp":"2016-05-09T15:17:00+02:00"},{"datasetid":"laposte_hexasmal","recordid":"7a3e09549e6d2cb62516708643567e9f87b9ce52","fields":{"code_postal":"49150","code_commune_insee":"49018","libell_d_acheminement":"BAUGE EN ANJOU","ligne_5":"VAULANDRY","nom_de_la_commune":"BAUGE EN ANJOU","coordonnees_gps":[47.5466894738,-0.109021794815]},"geometry":{"type":"Point","coordinates":[-0.109021794815,47.5466894738]},"record_timestamp":"2016-05-09T15:17:00+02:00"},{"datasetid":"laposte_hexasmal","recordid":"f9547732e15c91f9d169180aa6c8a4f6bf1be83d","fields":{"nom_de_la_commune":"BEAULIEU SUR LAYON","libell_d_acheminement":"BEAULIEU SUR LAYON","code_postal":"49750","coordonnees_gps":[47.3187109536,-0.600035399851],"code_commune_insee":"49022"},"geometry":{"type":"Point","coordinates":[-0.600035399851,47.3187109536]},"record_timestamp":"2016-05-09T15:17:00+02:00"},{"datasetid":"laposte_hexasmal","recordid":"c2b3658cfdbc79ea74d2dbde8253e9f98de155a4","fields":{"nom_de_la_commune":"BEAUPREAU EN MAUGES","libell_d_acheminement":"BEAUPREAU EN MAUGES","code_postal":"49600","coordonnees_gps":[47.2125984545,-0.983619028639],"code_commune_insee":"49023"},"geometry":{"type":"Point","coordinates":[-0.983619028639,47.2125984545]},"record_timestamp":"2016-05-09T15:17:00+02:00"},{"datasetid":"laposte_hexasmal","recordid":"173abeee9afcca830904ea4ad73c8b7ea1280220","fields":{"code_postal":"49320","code_commune_insee":"49029","libell_d_acheminement":"BLAISON ST SULPICE","ligne_5":"GOHIER","nom_de_la_commune":"BLAISON ST SULPICE","coordonnees_gps":[47.3908187654,-0.380019189582]},"geometry":{"type":"Point","coordinates":[-0.380019189582,47.3908187654]},"record_timestamp":"2016-05-09T15:17:00+02:00"},{"datasetid":"laposte_hexasmal","recordid":"7747aa9281d4bd7b5240dcb6c5df1c2ebceab841","fields":{"nom_de_la_commune":"LE BOURG D IRE","libell_d_acheminement":"LE BOURG D IRE","code_postal":"49520","coordonnees_gps":[47.6705697053,-0.969128489378],"code_commune_insee":"49037"},"geometry":{"type":"Point","coordinates":[-0.969128489378,47.6705697053]},"record_timestamp":"2016-05-09T15:17:00+02:00"},{"datasetid":"laposte_hexasmal","recordid":"20fb1d813801da1a87b75f30561d67339ac48fa0","fields":{"nom_de_la_commune":"LA BREILLE LES PINS","libell_d_acheminement":"LA BREILLE LES PINS","code_postal":"49390","coordonnees_gps":[47.3510849572,0.0835955334414],"code_commune_insee":"49045"},"geometry":{"type":"Point","coordinates":[0.0835955334414,47.3510849572]},"record_timestamp":"2016-05-09T15:17:00+02:00"},{"datasetid":"laposte_hexasmal","recordid":"3e521134267c97ce9c98dcddb040d694a6e794d2","fields":{"nom_de_la_commune":"BROSSAY","libell_d_acheminement":"BROSSAY","code_postal":"49700","coordonnees_gps":[47.1680323936,-0.216255821188],"code_commune_insee":"49053"},"geometry":{"type":"Point","coordinates":[-0.216255821188,47.1680323936]},"record_timestamp":"2016-05-09T15:17:00+02:00"},{"datasetid":"laposte_hexasmal","recordid":"a780dff763bcb24a0710a6572d5bd091e2ddb2a4","fields":{"code_postal":"49270","code_commune_insee":"49069","libell_d_acheminement":"OREE D ANJOU","ligne_5":"CHAMPTOCEAUX","nom_de_la_commune":"OREE D ANJOU","coordonnees_gps":[47.3218941947,-1.26053581871]},"geometry":{"type":"Point","coordinates":[-1.26053581871,47.3218941947]},"record_timestamp":"2016-05-09T15:17:00+02:00"},{"datasetid":"laposte_hexasmal","recordid":"cb3c499250573a93e0a7ddfc65b5f1fd9760e0e2","fields":{"code_postal":"49530","code_commune_insee":"49069","libell_d_acheminement":"OREE D ANJOU","ligne_5":"LIRE","nom_de_la_commune":"OREE D ANJOU","coordonnees_gps":[47.3218941947,-1.26053581871]},"geometry":{"type":"Point","coordinates":[-1.26053581871,47.3218941947]},"record_timestamp":"2016-05-09T15:17:00+02:00"},{"datasetid":"laposte_hexasmal","recordid":"f63fd3967b211fea7667dbfd50e5c64eb0dab2da","fields":{"nom_de_la_commune":"CHANTELOUP LES BOIS","libell_d_acheminement":"CHANTELOUP LES BOIS","code_postal":"49340","coordonnees_gps":[47.084888395,-0.691577840535],"code_commune_insee":"49070"},"geometry":{"type":"Point","coordinates":[-0.691577840535,47.084888395]},"record_timestamp":"2016-05-09T15:17:00+02:00"},{"datasetid":"laposte_hexasmal","recordid":"3c9627c436f30f554f98603c556587cb27059f95","fields":{"nom_de_la_commune":"LA CHAPELLE HULLIN","libell_d_acheminement":"LA CHAPELLE HULLIN","code_postal":"49420","coordonnees_gps":[47.7577299396,-1.06746334675],"code_commune_insee":"49073"},"geometry":{"type":"Point","coordinates":[-1.06746334675,47.7577299396]},"record_timestamp":"2016-05-09T15:17:00+02:00"},{"datasetid":"laposte_hexasmal","recordid":"d9dbcbad9cf7b2017b698aad7a9b7b9d1b2e4422","fields":{"nom_de_la_commune":"LA CHAPELLE SUR OUDON","libell_d_acheminement":"LA CHAPELLE SUR OUDON","code_postal":"49500","coordonnees_gps":[47.6665870157,-0.829317480119],"code_commune_insee":"49077"},"geometry":{"type":"Point","coordinates":[-0.829317480119,47.6665870157]},"record_timestamp":"2016-05-09T15:17:00+02:00"},{"datasetid":"laposte_hexasmal","recordid":"0f15907cd2501ac5bd2a26b0cfb993c4c71b5ebe","fields":{"nom_de_la_commune":"CHARCE ST ELLIER SUR AUBANCE","libell_d_acheminement":"CHARCE ST ELLIER SUR AUBANCE","code_postal":"49320","coordonnees_gps":[47.3522114874,-0.403200268067],"code_commune_insee":"49078"},"geometry":{"type":"Point","coordinates":[-0.403200268067,47.3522114874]},"record_timestamp":"2016-05-09T15:17:00+02:00"},{"datasetid":"laposte_hexasmal","recordid":"1a8842f8cf61b9b4621669eca19ff82ef34a05cd","fields":{"nom_de_la_commune":"CHAVAGNES","libell_d_acheminement":"CHAVAGNES","code_postal":"49380","coordonnees_gps":[47.274007949,-0.439804383087],"code_commune_insee":"49086"},"geometry":{"type":"Point","coordinates":[-0.439804383087,47.274007949]},"record_timestamp":"2016-05-09T15:17:00+02:00"},{"datasetid":"laposte_hexasmal","recordid":"69a1ef49852db6983b4fad8c331bceabfe169918","fields":{"nom_de_la_commune":"CHAVAIGNES","libell_d_acheminement":"CHAVAIGNES","code_postal":"49490","coordonnees_gps":[47.5440518472,0.0423849749559],"code_commune_insee":"49087"},"geometry":{"type":"Point","coordinates":[0.0423849749559,47.5440518472]},"record_timestamp":"2016-05-09T15:17:00+02:00"},{"datasetid":"laposte_hexasmal","recordid":"bdd1f3f672012a6481a3bdb51fc6d3170340cb1e","fields":{"nom_de_la_commune":"CHAZE HENRY","libell_d_acheminement":"CHAZE HENRY","code_postal":"49420","coordonnees_gps":[47.7595620628,-1.11116254411],"code_commune_insee":"49088"},"geometry":{"type":"Point","coordinates":[-1.11116254411,47.7595620628]},"record_timestamp":"2016-05-09T15:17:00+02:00"},{"datasetid":"laposte_hexasmal","recordid":"682bb11be164089950ed3f3b78617b410c457323","fields":{"nom_de_la_commune":"CHEMELLIER","libell_d_acheminement":"CHEMELLIER","code_postal":"49320","coordonnees_gps":[47.3369696045,-0.358947664736],"code_commune_insee":"49091"},"geometry":{"type":"Point","coordinates":[-0.358947664736,47.3369696045]},"record_timestamp":"2016-05-09T15:17:00+02:00"},{"datasetid":"laposte_hexasmal","recordid":"81599f0096dccbb1ad635033b9c6525bde1b509b","fields":{"code_postal":"49120","code_commune_insee":"49092","libell_d_acheminement":"CHEMILLE EN ANJOU","ligne_5":"ST GEORGES DES GARDES","nom_de_la_commune":"CHEMILLE EN ANJOU","coordonnees_gps":[47.2272268469,-0.730188160448]},"geometry":{"type":"Point","coordinates":[-0.730188160448,47.2272268469]},"record_timestamp":"2016-05-09T15:17:00+02:00"},{"datasetid":"laposte_hexasmal","recordid":"1b10fd50173acfdb5787a58db148da115645f85f","fields":{"nom_de_la_commune":"CLERE SUR LAYON","libell_d_acheminement":"CLERE SUR LAYON","code_postal":"49560","coordonnees_gps":[47.0857328909,-0.430334621535],"code_commune_insee":"49102"},"geometry":{"type":"Point","coordinates":[-0.430334621535,47.0857328909]},"record_timestamp":"2016-05-09T15:17:00+02:00"},{"datasetid":"laposte_hexasmal","recordid":"ea0afd3d22266a23a987434bd60c9c23c279473a","fields":{"nom_de_la_commune":"CONCOURSON SUR LAYON","libell_d_acheminement":"CONCOURSON SUR LAYON","code_postal":"49700","coordonnees_gps":[47.1738115578,-0.350573208793],"code_commune_insee":"49104"},"geometry":{"type":"Point","coordinates":[-0.350573208793,47.1738115578]},"record_timestamp":"2016-05-09T15:17:00+02:00"},{"datasetid":"laposte_hexasmal","recordid":"d73fdd5b9a80c62ad206b9ca341a39cd07e64064","fields":{"nom_de_la_commune":"CORNILLE LES CAVES","libell_d_acheminement":"CORNILLE LES CAVES","code_postal":"49140","coordonnees_gps":[47.4923319626,-0.303632794526],"code_commune_insee":"49107"},"geometry":{"type":"Point","coordinates":[-0.303632794526,47.4923319626]},"record_timestamp":"2016-05-09T15:17:00+02:00"},{"datasetid":"laposte_hexasmal","recordid":"2374fe9b0c8e6cba76d4a52a9d77546fef6288ea","fields":{"nom_de_la_commune":"LE COUDRAY MACOUARD","libell_d_acheminement":"LE COUDRAY MACOUARD","code_postal":"49260","coordonnees_gps":[47.1825767187,-0.129426451927],"code_commune_insee":"49112"},"geometry":{"type":"Point","coordinates":[-0.129426451927,47.1825767187]},"record_timestamp":"2016-05-09T15:17:00+02:00"},{"datasetid":"laposte_hexasmal","recordid":"b6cea585a09b5c353e3fe537a74b5ffe98667616","fields":{"nom_de_la_commune":"COUTURES","libell_d_acheminement":"COUTURES","code_postal":"49320","coordonnees_gps":[47.3723458994,-0.352088357358],"code_commune_insee":"49115"},"geometry":{"type":"Point","coordinates":[-0.352088357358,47.3723458994]},"record_timestamp":"2016-05-09T15:17:00+02:00"},{"datasetid":"laposte_hexasmal","recordid":"d32b797d2c1e9628cb17adfb0e8fba7ee2269b45","fields":{"nom_de_la_commune":"DENEE","libell_d_acheminement":"DENEE","code_postal":"49190","coordonnees_gps":[47.3777256876,-0.609937724094],"code_commune_insee":"49120"},"geometry":{"type":"Point","coordinates":[-0.609937724094,47.3777256876]},"record_timestamp":"2016-05-09T15:17:00+02:00"},{"datasetid":"laposte_hexasmal","recordid":"89d664b8ebe05ab5e0c357436912e67d9a554cd3","fields":{"code_postal":"49250","code_commune_insee":"49138","libell_d_acheminement":"LES BOIS D ANJOU","ligne_5":"BRION","nom_de_la_commune":"LES BOIS D ANJOU","coordonnees_gps":[47.4829167789,-0.174198642479]},"geometry":{"type":"Point","coordinates":[-0.174198642479,47.4829167789]},"record_timestamp":"2016-05-09T15:17:00+02:00"},{"datasetid":"laposte_hexasmal","recordid":"6293aad5931a6d1a87187139395a3f2c46619ee2","fields":{"nom_de_la_commune":"HUILLE","libell_d_acheminement":"HUILLE","code_postal":"49430","coordonnees_gps":[47.6551436907,-0.309834884442],"code_commune_insee":"49159"},"geometry":{"type":"Point","coordinates":[-0.309834884442,47.6551436907]},"record_timestamp":"2016-05-09T15:17:00+02:00"},{"datasetid":"laposte_hexasmal","recordid":"06033e8d98e0d3e10f9ada087e2f10fac662f397","fields":{"code_postal":"49140","code_commune_insee":"49163","libell_d_acheminement":"JARZE VILLAGES","ligne_5":"BEAUVAU","nom_de_la_commune":"JARZE VILLAGES","coordonnees_gps":[47.5576434301,-0.24007574412]},"geometry":{"type":"Point","coordinates":[-0.24007574412,47.5576434301]},"record_timestamp":"2016-05-09T15:17:00+02:00"},{"datasetid":"laposte_hexasmal","recordid":"8c312bb9658fb0976dd6903685930c310e992716","fields":{"nom_de_la_commune":"LASSE","libell_d_acheminement":"LASSE","code_postal":"49490","coordonnees_gps":[47.5442138366,0.00592216216308],"code_commune_insee":"49173"},"geometry":{"type":"Point","coordinates":[0.00592216216308,47.5442138366]},"record_timestamp":"2016-05-09T15:17:00+02:00"},{"datasetid":"laposte_hexasmal","recordid":"6fe888c95bd3e17c99251589763166e57310cf8d","fields":{"nom_de_la_commune":"LINIERES BOUTON","libell_d_acheminement":"LINIERES BOUTON","code_postal":"49490","coordonnees_gps":[47.4501636334,0.0666355358883],"code_commune_insee":"49175"},"geometry":{"type":"Point","coordinates":[0.0666355358883,47.4501636334]},"record_timestamp":"2016-05-09T15:17:00+02:00"},{"datasetid":"laposte_hexasmal","recordid":"6ab1c93a6d4a8c24dd93f5f9e7f5b4d3db0ec68d","fields":{"nom_de_la_commune":"MARCE","libell_d_acheminement":"MARCE","code_postal":"49140","coordonnees_gps":[47.5822974995,-0.300211738642],"code_commune_insee":"49188"},"geometry":{"type":"Point","coordinates":[-0.300211738642,47.5822974995]},"record_timestamp":"2016-05-09T15:17:00+02:00"},{"datasetid":"laposte_hexasmal","recordid":"8f6f2166d1f96ca4b886678d802cbb1e5dc894f3","fields":{"code_postal":"49140","code_commune_insee":"49194","libell_d_acheminement":"MAZE MILON","ligne_5":"FONTAINE MILON","nom_de_la_commune":"MAZE MILON","coordonnees_gps":[47.4603950447,-0.284298744303]},"geometry":{"type":"Point","coordinates":[-0.284298744303,47.4603950447]},"record_timestamp":"2016-05-09T15:17:00+02:00"},{"datasetid":"laposte_hexasmal","recordid":"922b81fda2c8dcbafd07cb6357c087bcbd45d8ed","fields":{"nom_de_la_commune":"MAZIERES EN MAUGES","libell_d_acheminement":"MAZIERES EN MAUGES","code_postal":"49280","coordonnees_gps":[47.05980143,-0.795548412055],"code_commune_insee":"49195"},"geometry":{"type":"Point","coordinates":[-0.795548412055,47.05980143]},"record_timestamp":"2016-05-09T15:17:00+02:00"},{"datasetid":"laposte_hexasmal","recordid":"5e9264c18d00ae059108d1e0ae7ddcbd3dba0bfe","fields":{"nom_de_la_commune":"MEIGNE","libell_d_acheminement":"MEIGNE","code_postal":"49700","coordonnees_gps":[47.2424461374,-0.21562378954],"code_commune_insee":"49198"},"geometry":{"type":"Point","coordinates":[-0.21562378954,47.2424461374]},"record_timestamp":"2016-05-09T15:17:00+02:00"},{"datasetid":"laposte_hexasmal","recordid":"0b2cb65d87dda5a2bc5a42584c0bd90eb6b30967","fields":{"code_postal":"49770","code_commune_insee":"49200","libell_d_acheminement":"LONGUENEE EN ANJOU","ligne_5":"LA MEIGNANNE","nom_de_la_commune":"LONGUENEE EN ANJOU","coordonnees_gps":[47.5607664036,-0.683468497352]},"geometry":{"type":"Point","coordinates":[-0.683468497352,47.5607664036]},"record_timestamp":"2016-05-09T15:17:00+02:00"},{"datasetid":"laposte_hexasmal","recordid":"7f039e82930687fb370ac13ac843e24ea46b635f","fields":{"nom_de_la_commune":"MONTILLIERS","libell_d_acheminement":"MONTILLIERS","code_postal":"49310","coordonnees_gps":[47.1873187077,-0.516413041747],"code_commune_insee":"49211"},"geometry":{"type":"Point","coordinates":[-0.516413041747,47.1873187077]},"record_timestamp":"2016-05-09T15:17:00+02:00"},{"datasetid":"laposte_hexasmal","recordid":"2c1e63eccc745af7719a88321ab7e451e6d8f458","fields":{"code_postal":"49260","code_commune_insee":"49215","libell_d_acheminement":"MONTREUIL BELLAY","ligne_5":"MERON","nom_de_la_commune":"MONTREUIL BELLAY","coordonnees_gps":[47.1287547622,-0.125278817925]},"geometry":{"type":"Point","coordinates":[-0.125278817925,47.1287547622]},"record_timestamp":"2016-05-09T15:17:00+02:00"},{"datasetid":"laposte_hexasmal","recordid":"c7c325f19f001c7d7f152d0016595782f88bea69","fields":{"nom_de_la_commune":"MONTREUIL SUR LOIR","libell_d_acheminement":"MONTREUIL SUR LOIR","code_postal":"49140","coordonnees_gps":[47.5935379468,-0.391603731287],"code_commune_insee":"49216"},"geometry":{"type":"Point","coordinates":[-0.391603731287,47.5935379468]},"record_timestamp":"2016-05-09T15:17:00+02:00"},{"datasetid":"laposte_hexasmal","recordid":"6883544d1dae5f3e0afaf6d90eb9874e24b535f1","fields":{"code_postal":"49110","code_commune_insee":"49218","libell_d_acheminement":"MONTREVAULT SUR EVRE","ligne_5":"ST PIERRE MONTLIMART","nom_de_la_commune":"MONTREVAULT SUR EVRE","coordonnees_gps":[47.255395404,-1.05160971025]},"geometry":{"type":"Point","coordinates":[-1.05160971025,47.255395404]},"record_timestamp":"2016-05-09T15:17:00+02:00"},{"datasetid":"laposte_hexasmal","recordid":"eca4cfc8880992fe36016a173d3a5499d2a04daa","fields":{"code_postal":"49110","code_commune_insee":"49218","libell_d_acheminement":"MONTREVAULT SUR EVRE","ligne_5":"ST REMY EN MAUGES","nom_de_la_commune":"MONTREVAULT SUR EVRE","coordonnees_gps":[47.255395404,-1.05160971025]},"geometry":{"type":"Point","coordinates":[-1.05160971025,47.255395404]},"record_timestamp":"2016-05-09T15:17:00+02:00"},{"datasetid":"laposte_hexasmal","recordid":"45f593a7020fe7538dc71fcda72801b8f2e1c003","fields":{"code_postal":"49600","code_commune_insee":"49218","libell_d_acheminement":"MONTREVAULT SUR EVRE","ligne_5":"LA CHAUSSAIRE","nom_de_la_commune":"MONTREVAULT SUR EVRE","coordonnees_gps":[47.255395404,-1.05160971025]},"geometry":{"type":"Point","coordinates":[-1.05160971025,47.255395404]},"record_timestamp":"2016-05-09T15:17:00+02:00"},{"datasetid":"laposte_hexasmal","recordid":"7c360be0cfc7c8a1ec354654bd25e053fd4f1546","fields":{"nom_de_la_commune":"NOYANT","libell_d_acheminement":"NOYANT","code_postal":"49490","coordonnees_gps":[47.5070164198,0.109706678066],"code_commune_insee":"49228"},"geometry":{"type":"Point","coordinates":[0.109706678066,47.5070164198]},"record_timestamp":"2016-05-09T15:17:00+02:00"},{"datasetid":"laposte_hexasmal","recordid":"34231224ee4df1846a8d3bd3804678d53182148e","fields":{"nom_de_la_commune":"NYOISEAU","libell_d_acheminement":"NYOISEAU","code_postal":"49500","coordonnees_gps":[47.7107860625,-0.907508451549],"code_commune_insee":"49233"},"geometry":{"type":"Point","coordinates":[-0.907508451549,47.7107860625]},"record_timestamp":"2016-05-09T15:17:00+02:00"},{"datasetid":"laposte_hexasmal","recordid":"736caf2f8858cc9b4cff736c1eecbb7e38c968b9","fields":{"nom_de_la_commune":"PARCAY LES PINS","libell_d_acheminement":"PARCAY LES PINS","code_postal":"49390","coordonnees_gps":[47.4314188846,0.14445317827],"code_commune_insee":"49234"},"geometry":{"type":"Point","coordinates":[0.14445317827,47.4314188846]},"record_timestamp":"2016-05-09T15:17:00+02:00"},{"datasetid":"laposte_hexasmal","recordid":"949ac2ba4f3dedaf46d0f9edd478d31186810c2b","fields":{"nom_de_la_commune":"LA PLAINE","libell_d_acheminement":"LA PLAINE","code_postal":"49360","coordonnees_gps":[47.0673907245,-0.628869263252],"code_commune_insee":"49240"},"geometry":{"type":"Point","coordinates":[-0.628869263252,47.0673907245]},"record_timestamp":"2016-05-09T15:17:00+02:00"},{"datasetid":"laposte_hexasmal","recordid":"12427cddd10ca1d816138e67f9469fe5fbb6baea","fields":{"code_postal":"49410","code_commune_insee":"49244","libell_d_acheminement":"MAUGES SUR LOIRE","ligne_5":"LA CHAPELLE ST FLORENT","nom_de_la_commune":"MAUGES SUR LOIRE","coordonnees_gps":[47.3429800481,-0.869186945487]},"geometry":{"type":"Point","coordinates":[-0.869186945487,47.3429800481]},"record_timestamp":"2016-05-09T15:17:00+02:00"},{"datasetid":"laposte_hexasmal","recordid":"549b712d115cc58aa8312bcf1632477ed612176e","fields":{"code_postal":"49570","code_commune_insee":"49244","libell_d_acheminement":"MAUGES SUR LOIRE","ligne_5":"MONTJEAN SUR LOIRE","nom_de_la_commune":"MAUGES SUR LOIRE","coordonnees_gps":[47.3429800481,-0.869186945487]},"geometry":{"type":"Point","coordinates":[-0.869186945487,47.3429800481]},"record_timestamp":"2016-05-09T15:17:00+02:00"},{"datasetid":"laposte_hexasmal","recordid":"a6f2dd9f81ef9df6ea4b94da5217113235d45187","fields":{"code_postal":"49130","code_commune_insee":"49246","libell_d_acheminement":"LES PONTS DE CE","ligne_5":"SORGES","nom_de_la_commune":"LES PONTS DE CE","coordonnees_gps":[47.4272536106,-0.512677371617]},"geometry":{"type":"Point","coordinates":[-0.512677371617,47.4272536106]},"record_timestamp":"2016-05-09T15:17:00+02:00"},{"datasetid":"laposte_hexasmal","recordid":"687677d658a36ac35535d80bf0edb63f813307af","fields":{"nom_de_la_commune":"LA PREVIERE","libell_d_acheminement":"LA PREVIERE","code_postal":"49420","coordonnees_gps":[47.7196258054,-1.17847184047],"code_commune_insee":"49250"},"geometry":{"type":"Point","coordinates":[-1.17847184047,47.7196258054]},"record_timestamp":"2016-05-09T15:17:00+02:00"},{"datasetid":"laposte_hexasmal","recordid":"690a102a81b65f4dc9676ef6c48c12869cfd1d12","fields":{"nom_de_la_commune":"ROCHEFORT SUR LOIRE","libell_d_acheminement":"ROCHEFORT SUR LOIRE","code_postal":"49190","coordonnees_gps":[47.3508366008,-0.65047354418],"code_commune_insee":"49259"},"geometry":{"type":"Point","coordinates":[-0.65047354418,47.3508366008]},"record_timestamp":"2016-05-09T15:17:00+02:00"},{"datasetid":"laposte_hexasmal","recordid":"5d4cb7d1dc37d4405ee8eb3bfaed3d974bea5ad0","fields":{"nom_de_la_commune":"ST CLEMENT DES LEVEES","libell_d_acheminement":"ST CLEMENT DES LEVEES","code_postal":"49350","coordonnees_gps":[47.3443059131,-0.182503440633],"code_commune_insee":"49272"},"geometry":{"type":"Point","coordinates":[-0.182503440633,47.3443059131]},"record_timestamp":"2016-05-09T15:17:00+02:00"},{"datasetid":"laposte_hexasmal","recordid":"d9ac11b003d6097746dbf4ed1464e99ac17ed75b","fields":{"nom_de_la_commune":"ST GEORGES SUR LAYON","libell_d_acheminement":"ST GEORGES SUR LAYON","code_postal":"49700","coordonnees_gps":[47.195832374,-0.382785659282],"code_commune_insee":"49282"},"geometry":{"type":"Point","coordinates":[-0.382785659282,47.195832374]},"record_timestamp":"2016-05-09T15:17:00+02:00"},{"datasetid":"laposte_hexasmal","recordid":"338939465d59b8a7e8da25dc22adc748b03cc71c","fields":{"nom_de_la_commune":"ST GEORGES SUR LOIRE","libell_d_acheminement":"ST GEORGES SUR LOIRE","code_postal":"49170","coordonnees_gps":[47.4024678993,-0.756078071904],"code_commune_insee":"49283"},"geometry":{"type":"Point","coordinates":[-0.756078071904,47.4024678993]},"record_timestamp":"2016-05-09T15:17:00+02:00"},{"datasetid":"laposte_hexasmal","recordid":"ea86c675bafb9cea486ad2d51ae9712729bfb151","fields":{"nom_de_la_commune":"ST JEAN DE LA CROIX","libell_d_acheminement":"ST JEAN DE LA CROIX","code_postal":"49130","coordonnees_gps":[47.4108613803,-0.588351617749],"code_commune_insee":"49288"},"geometry":{"type":"Point","coordinates":[-0.588351617749,47.4108613803]},"record_timestamp":"2016-05-09T15:17:00+02:00"},{"datasetid":"laposte_hexasmal","recordid":"ff9a20851b3bc2c2e583a005ca562a1f18ef95cd","fields":{"code_postal":"49190","code_commune_insee":"49292","libell_d_acheminement":"VAL DU LAYON","ligne_5":"ST AUBIN DE LUIGNE","nom_de_la_commune":"VAL DU LAYON","coordonnees_gps":[47.3002199454,-0.640314853216]},"geometry":{"type":"Point","coordinates":[-0.640314853216,47.3002199454]},"record_timestamp":"2016-05-09T15:17:00+02:00"},{"datasetid":"laposte_hexasmal","recordid":"05d0174236dd1a2c407df7fd9bdda8f592112719","fields":{"nom_de_la_commune":"ST LAMBERT LA POTHERIE","libell_d_acheminement":"ST LAMBERT LA POTHERIE","code_postal":"49070","coordonnees_gps":[47.4862725971,-0.690818663562],"code_commune_insee":"49294"},"geometry":{"type":"Point","coordinates":[-0.690818663562,47.4862725971]},"record_timestamp":"2016-05-09T15:17:00+02:00"},{"datasetid":"laposte_hexasmal","recordid":"5d375522c6a64265306205b8e4bfed5a3eb16c98","fields":{"code_postal":"49230","code_commune_insee":"49301","libell_d_acheminement":"SEVREMOINE","ligne_5":"ST GERMAIN SUR MOINE","nom_de_la_commune":"SEVREMOINE","coordonnees_gps":[47.1256560392,-0.998341815021]},"geometry":{"type":"Point","coordinates":[-0.998341815021,47.1256560392]},"record_timestamp":"2016-05-09T15:17:00+02:00"},{"datasetid":"laposte_hexasmal","recordid":"5ce0d67941c1d4befd298d4ea9495aa78cca65eb","fields":{"code_postal":"49450","code_commune_insee":"49301","libell_d_acheminement":"SEVREMOINE","ligne_5":"ST MACAIRE EN MAUGES","nom_de_la_commune":"SEVREMOINE","coordonnees_gps":[47.1256560392,-0.998341815021]},"geometry":{"type":"Point","coordinates":[-0.998341815021,47.1256560392]},"record_timestamp":"2016-05-09T15:17:00+02:00"},{"datasetid":"laposte_hexasmal","recordid":"1461ed94596b2a6831bb3427f12d9d35ba35b774","fields":{"nom_de_la_commune":"ST MARTIN DE LA PLACE","libell_d_acheminement":"ST MARTIN DE LA PLACE","code_postal":"49160","coordonnees_gps":[47.3188388032,-0.137613576826],"code_commune_insee":"49304"},"geometry":{"type":"Point","coordinates":[-0.137613576826,47.3188388032]},"record_timestamp":"2016-05-09T15:17:00+02:00"},{"datasetid":"laposte_hexasmal","recordid":"2efd053256e30d666ab5f1de3bf4d6844a558b15","fields":{"nom_de_la_commune":"ST SIGISMOND","libell_d_acheminement":"ST SIGISMOND","code_postal":"49123","coordonnees_gps":[47.4512573953,-0.942796446768],"code_commune_insee":"49321"},"geometry":{"type":"Point","coordinates":[-0.942796446768,47.4512573953]},"record_timestamp":"2016-05-09T15:17:00+02:00"},{"datasetid":"laposte_hexasmal","recordid":"7202b762f8bc35783054d7e3a7bb0d9fdff4b874","fields":{"nom_de_la_commune":"SAUMUR","libell_d_acheminement":"SAUMUR","code_postal":"49400","coordonnees_gps":[47.2673853525,-0.0830410591988],"code_commune_insee":"49328"},"geometry":{"type":"Point","coordinates":[-0.0830410591988,47.2673853525]},"record_timestamp":"2016-05-09T15:17:00+02:00"},{"datasetid":"laposte_hexasmal","recordid":"877d82fdf7853976cb4fa5eb675e14029fd83bef","fields":{"nom_de_la_commune":"SERMAISE","libell_d_acheminement":"SERMAISE","code_postal":"49140","coordonnees_gps":[47.522658847,-0.215904161416],"code_commune_insee":"49334"},"geometry":{"type":"Point","coordinates":[-0.215904161416,47.522658847]},"record_timestamp":"2016-05-09T15:17:00+02:00"},{"datasetid":"laposte_hexasmal","recordid":"3fa04c32674a13cb2ef130300550f2fb9e4a00bd","fields":{"code_postal":"49380","code_commune_insee":"49345","libell_d_acheminement":"BELLEVIGNE EN LAYON","ligne_5":"FAVERAYE MACHELLES","nom_de_la_commune":"BELLEVIGNE EN LAYON","coordonnees_gps":[47.2592682331,-0.517923916545]},"geometry":{"type":"Point","coordinates":[-0.517923916545,47.2592682331]},"record_timestamp":"2016-05-09T15:17:00+02:00"},{"datasetid":"laposte_hexasmal","recordid":"c1ee21cdc2bbc2cff6a9f4edb654aaa237433d5b","fields":{"code_postal":"49380","code_commune_insee":"49345","libell_d_acheminement":"BELLEVIGNE EN LAYON","ligne_5":"THOUARCE","nom_de_la_commune":"BELLEVIGNE EN LAYON","coordonnees_gps":[47.2592682331,-0.517923916545]},"geometry":{"type":"Point","coordinates":[-0.517923916545,47.2592682331]},"record_timestamp":"2016-05-09T15:17:00+02:00"},{"datasetid":"laposte_hexasmal","recordid":"ba433e9dac58ff0e4777f2c3909629ca4960d0bf","fields":{"nom_de_la_commune":"LE TREMBLAY","libell_d_acheminement":"LE TREMBLAY","code_postal":"49520","coordonnees_gps":[47.6704965475,-1.04359451042],"code_commune_insee":"49354"},"geometry":{"type":"Point","coordinates":[-1.04359451042,47.6704965475]},"record_timestamp":"2016-05-09T15:17:00+02:00"},{"datasetid":"laposte_hexasmal","recordid":"4045782fdffa51ace8240ff400c7fef8ab9c8755","fields":{"nom_de_la_commune":"TURQUANT","libell_d_acheminement":"TURQUANT","code_postal":"49730","coordonnees_gps":[47.2114118968,0.0218791736623],"code_commune_insee":"49358"},"geometry":{"type":"Point","coordinates":[0.0218791736623,47.2114118968]},"record_timestamp":"2016-05-09T15:17:00+02:00"},{"datasetid":"laposte_hexasmal","recordid":"66269eb927ef17641766f5a7b45ba55aa3d0c81e","fields":{"nom_de_la_commune":"VERGONNES","libell_d_acheminement":"VERGONNES","code_postal":"49420","coordonnees_gps":[47.7250972893,-1.07837805923],"code_commune_insee":"49366"},"geometry":{"type":"Point","coordinates":[-1.07837805923,47.7250972893]},"record_timestamp":"2016-05-09T15:17:00+02:00"},{"datasetid":"laposte_hexasmal","recordid":"352ce8b37f0f51c187b2b6c30b4cf7cb4590e75d","fields":{"nom_de_la_commune":"VILLEMOISAN","libell_d_acheminement":"VILLEMOISAN","code_postal":"49370","coordonnees_gps":[47.4710319772,-0.890055215604],"code_commune_insee":"49376"},"geometry":{"type":"Point","coordinates":[-0.890055215604,47.4710319772]},"record_timestamp":"2016-05-09T15:17:00+02:00"},{"datasetid":"laposte_hexasmal","recordid":"93a7b176b4035ef25766f1019552b21ecafbcf92","fields":{"code_postal":"49150","code_commune_insee":"49018","libell_d_acheminement":"BAUGE EN ANJOU","ligne_5":"FOUGERE","nom_de_la_commune":"BAUGE EN ANJOU","coordonnees_gps":[47.5466894738,-0.109021794815]},"geometry":{"type":"Point","coordinates":[-0.109021794815,47.5466894738]},"record_timestamp":"2016-05-09T15:17:00+02:00"},{"datasetid":"laposte_hexasmal","recordid":"70c41eb1b7202d44b098ba990523aaf41a40e069","fields":{"code_postal":"49150","code_commune_insee":"49018","libell_d_acheminement":"BAUGE EN ANJOU","ligne_5":"MONTPOLLIN","nom_de_la_commune":"BAUGE EN ANJOU","coordonnees_gps":[47.5466894738,-0.109021794815]},"geometry":{"type":"Point","coordinates":[-0.109021794815,47.5466894738]},"record_timestamp":"2016-05-09T15:17:00+02:00"},{"datasetid":"laposte_hexasmal","recordid":"77992083f531d341d6bef4120270ccebd0d3ed06","fields":{"code_postal":"49600","code_commune_insee":"49023","libell_d_acheminement":"BEAUPREAU EN MAUGES","ligne_5":"ST PHILBERT EN MAUGES","nom_de_la_commune":"BEAUPREAU EN MAUGES","coordonnees_gps":[47.2125984545,-0.983619028639]},"geometry":{"type":"Point","coordinates":[-0.983619028639,47.2125984545]},"record_timestamp":"2016-05-09T15:17:00+02:00"},{"datasetid":"laposte_hexasmal","recordid":"bf46e7439ef3fad4e49f3392d88717ed7dbc374d","fields":{"nom_de_la_commune":"BEHUARD","libell_d_acheminement":"BEHUARD","code_postal":"49170","coordonnees_gps":[47.376691016,-0.653915821734],"code_commune_insee":"49028"},"geometry":{"type":"Point","coordinates":[-0.653915821734,47.376691016]},"record_timestamp":"2016-05-09T15:17:00+02:00"},{"datasetid":"laposte_hexasmal","recordid":"f43e33c1368d69c8e9fa81d2964957445e547fcd","fields":{"nom_de_la_commune":"BLAISON ST SULPICE","libell_d_acheminement":"BLAISON ST SULPICE","code_postal":"49320","coordonnees_gps":[47.3908187654,-0.380019189582],"code_commune_insee":"49029"},"geometry":{"type":"Point","coordinates":[-0.380019189582,47.3908187654]},"record_timestamp":"2016-05-09T15:17:00+02:00"},{"datasetid":"laposte_hexasmal","recordid":"a49d1d4aca704d5e49953cda646b0bd79a25697f","fields":{"nom_de_la_commune":"BLOU","libell_d_acheminement":"BLOU","code_postal":"49160","coordonnees_gps":[47.3630441484,-0.0536103057427],"code_commune_insee":"49030"},"geometry":{"type":"Point","coordinates":[-0.0536103057427,47.3630441484]},"record_timestamp":"2016-05-09T15:17:00+02:00"},{"datasetid":"laposte_hexasmal","recordid":"d186b0aedee329f74a660a58f60490d597cd2549","fields":{"nom_de_la_commune":"BOURG L EVEQUE","libell_d_acheminement":"BOURG L EVEQUE","code_postal":"49520","coordonnees_gps":[47.7329044493,-1.01480048811],"code_commune_insee":"49038"},"geometry":{"type":"Point","coordinates":[-1.01480048811,47.7329044493]},"record_timestamp":"2016-05-09T15:17:00+02:00"},{"datasetid":"laposte_hexasmal","recordid":"60d0e4b49fb7f0b91c79a3e2435a88ca6d3bd9c0","fields":{"nom_de_la_commune":"BREIL","libell_d_acheminement":"BREIL","code_postal":"49490","coordonnees_gps":[47.473768222,0.167566733068],"code_commune_insee":"49044"},"geometry":{"type":"Point","coordinates":[0.167566733068,47.473768222]},"record_timestamp":"2016-05-09T15:17:00+02:00"},{"datasetid":"laposte_hexasmal","recordid":"03778a781638523e144b620e0479e8635cf4a139","fields":{"nom_de_la_commune":"BRIGNE","libell_d_acheminement":"BRIGNE","code_postal":"49700","coordonnees_gps":[47.2441365877,-0.378451731955],"code_commune_insee":"49047"},"geometry":{"type":"Point","coordinates":[-0.378451731955,47.2441365877]},"record_timestamp":"2016-05-09T15:17:00+02:00"},{"datasetid":"laposte_hexasmal","recordid":"87575d9adc1c9d528b6c265c63940331dbd99b0f","fields":{"nom_de_la_commune":"CANTENAY EPINARD","libell_d_acheminement":"CANTENAY EPINARD","code_postal":"49460","coordonnees_gps":[47.5380581206,-0.566473143041],"code_commune_insee":"49055"},"geometry":{"type":"Point","coordinates":[-0.566473143041,47.5380581206]},"record_timestamp":"2016-05-09T15:17:00+02:00"},{"datasetid":"laposte_hexasmal","recordid":"de4efe5f07dd5f7544211d0835fd98c413bc0dcf","fields":{"nom_de_la_commune":"LES CERQUEUX","libell_d_acheminement":"LES CERQUEUX","code_postal":"49360","coordonnees_gps":[47.0057486644,-0.641214387414],"code_commune_insee":"49058"},"geometry":{"type":"Point","coordinates":[-0.641214387414,47.0057486644]},"record_timestamp":"2016-05-09T15:17:00+02:00"},{"datasetid":"laposte_hexasmal","recordid":"2ef909814ee71fb7318c3b08e1f7ba9002457189","fields":{"nom_de_la_commune":"CHACE","libell_d_acheminement":"CHACE","code_postal":"49400","coordonnees_gps":[47.2066359278,-0.0708098589193],"code_commune_insee":"49060"},"geometry":{"type":"Point","coordinates":[-0.0708098589193,47.2066359278]},"record_timestamp":"2016-05-09T15:17:00+02:00"},{"datasetid":"laposte_hexasmal","recordid":"e320f12a2d0710c530176faad6d3ceecbea7aae6","fields":{"nom_de_la_commune":"CHAMPTOCE SUR LOIRE","libell_d_acheminement":"CHAMPTOCE SUR LOIRE","code_postal":"49123","coordonnees_gps":[47.4299165836,-0.874606992873],"code_commune_insee":"49068"},"geometry":{"type":"Point","coordinates":[-0.874606992873,47.4299165836]},"record_timestamp":"2016-05-09T15:17:00+02:00"},{"datasetid":"laposte_hexasmal","recordid":"1c1637c3967e00bb696c0e87386a8f03e94fa751","fields":{"nom_de_la_commune":"CHAUDEFONDS SUR LAYON","libell_d_acheminement":"CHAUDEFONDS SUR LAYON","code_postal":"49290","coordonnees_gps":[47.3253239782,-0.721782727229],"code_commune_insee":"49082"},"geometry":{"type":"Point","coordinates":[-0.721782727229,47.3253239782]},"record_timestamp":"2016-05-09T15:17:00+02:00"},{"datasetid":"laposte_hexasmal","recordid":"85997626f4d3ee0fd5be1a0256d338a449d45fb5","fields":{"nom_de_la_commune":"CHAZE SUR ARGOS","libell_d_acheminement":"CHAZE SUR ARGOS","code_postal":"49500","coordonnees_gps":[47.6147680187,-0.897982444715],"code_commune_insee":"49089"},"geometry":{"type":"Point","coordinates":[-0.897982444715,47.6147680187]},"record_timestamp":"2016-05-09T15:17:00+02:00"},{"datasetid":"laposte_hexasmal","recordid":"b795a0ef326c2c7f5c1642d4e461ac73bcc76756","fields":{"code_postal":"49120","code_commune_insee":"49092","libell_d_acheminement":"CHEMILLE EN ANJOU","ligne_5":"LA CHAPELLE ROUSSELIN","nom_de_la_commune":"CHEMILLE EN ANJOU","coordonnees_gps":[47.2272268469,-0.730188160448]},"geometry":{"type":"Point","coordinates":[-0.730188160448,47.2272268469]},"record_timestamp":"2016-05-09T15:17:00+02:00"},{"datasetid":"laposte_hexasmal","recordid":"c331e5d22094d6825bbee2bf60868aeff85fe07b","fields":{"code_postal":"49120","code_commune_insee":"49092","libell_d_acheminement":"CHEMILLE EN ANJOU","ligne_5":"ST LEZIN","nom_de_la_commune":"CHEMILLE EN ANJOU","coordonnees_gps":[47.2272268469,-0.730188160448]},"geometry":{"type":"Point","coordinates":[-0.730188160448,47.2272268469]},"record_timestamp":"2016-05-09T15:17:00+02:00"},{"datasetid":"laposte_hexasmal","recordid":"501ea3450458930422c260c6f0df770b131d633b","fields":{"code_postal":"49670","code_commune_insee":"49092","libell_d_acheminement":"CHEMILLE EN ANJOU","ligne_5":"VALANJOU","nom_de_la_commune":"CHEMILLE EN ANJOU","coordonnees_gps":[47.2272268469,-0.730188160448]},"geometry":{"type":"Point","coordinates":[-0.730188160448,47.2272268469]},"record_timestamp":"2016-05-09T15:17:00+02:00"},{"datasetid":"laposte_hexasmal","recordid":"4a629456c8a74d35ca71f6d8ec096c6516e4f775","fields":{"nom_de_la_commune":"CHOLET","libell_d_acheminement":"CHOLET","code_postal":"49300","coordonnees_gps":[47.0454402992,-0.877886189605],"code_commune_insee":"49099"},"geometry":{"type":"Point","coordinates":[-0.877886189605,47.0454402992]},"record_timestamp":"2016-05-09T15:17:00+02:00"},{"datasetid":"laposte_hexasmal","recordid":"749b7aaa2fd2abc7b89a3fff11567c53c588d4e9","fields":{"nom_de_la_commune":"COMBREE","libell_d_acheminement":"COMBREE","code_postal":"49520","coordonnees_gps":[47.7071628659,-1.02070109736],"code_commune_insee":"49103"},"geometry":{"type":"Point","coordinates":[-1.02070109736,47.7071628659]},"record_timestamp":"2016-05-09T15:17:00+02:00"},{"datasetid":"laposte_hexasmal","recordid":"853285c52a9b366913631d2cb4505566c3431798","fields":{"nom_de_la_commune":"CORON","libell_d_acheminement":"CORON","code_postal":"49690","coordonnees_gps":[47.1203026416,-0.63636371367],"code_commune_insee":"49109"},