[{"datasetid":"laposte_hexasmal","recordid":"4b6c5fcfaf0c3bc274b5891f25ed9ddc7877a628","fields":{"nom_de_la_commune":"AAST","libell_d_acheminement":"AAST","code_postal":"64460","coordonnees_gps":[43.2908772184,-0.0817726913902],"code_commune_insee":"64001"},"geometry":{"type":"Point","coordinates":[-0.0817726913902,43.2908772184]},"record_timestamp":"2016-05-09T15:17:00+02:00"},{"datasetid":"laposte_hexasmal","recordid":"fb910d1f9d5085c1d91f577d547c329ebdc8b258","fields":{"nom_de_la_commune":"ABOS","libell_d_acheminement":"ABOS","code_postal":"64360","coordonnees_gps":[43.3538742135,-0.550692004112],"code_commune_insee":"64005"},"geometry":{"type":"Point","coordinates":[-0.550692004112,43.3538742135]},"record_timestamp":"2016-05-09T15:17:00+02:00"},{"datasetid":"laposte_hexasmal","recordid":"8451cb5a4175e76daeb125b3385eb4bc2969b7cf","fields":{"nom_de_la_commune":"ALDUDES","libell_d_acheminement":"ALDUDES","code_postal":"64430","coordonnees_gps":[43.0920329311,-1.43472285971],"code_commune_insee":"64016"},"geometry":{"type":"Point","coordinates":[-1.43472285971,43.0920329311]},"record_timestamp":"2016-05-09T15:17:00+02:00"},{"datasetid":"laposte_hexasmal","recordid":"0c7afe3bd82850fb8c597c86285d7629919a8286","fields":{"nom_de_la_commune":"AMENDEUIX ONEIX","libell_d_acheminement":"AMENDEUIX ONEIX","code_postal":"64120","coordonnees_gps":[43.3445045858,-1.04369537456],"code_commune_insee":"64018"},"geometry":{"type":"Point","coordinates":[-1.04369537456,43.3445045858]},"record_timestamp":"2016-05-09T15:17:00+02:00"},{"datasetid":"laposte_hexasmal","recordid":"dc40cb8ad9454b37537aa0cc497b8ecfdf1250cd","fields":{"nom_de_la_commune":"ANGAIS","libell_d_acheminement":"ANGAIS","code_postal":"64510","coordonnees_gps":[43.2387006623,-0.247297469008],"code_commune_insee":"64023"},"geometry":{"type":"Point","coordinates":[-0.247297469008,43.2387006623]},"record_timestamp":"2016-05-09T15:17:00+02:00"},{"datasetid":"laposte_hexasmal","recordid":"c49c6a5191486c06408fa16545f616687dc94fdb","fields":{"nom_de_la_commune":"ANGLET","libell_d_acheminement":"ANGLET","code_postal":"64600","coordonnees_gps":[43.4917846595,-1.51623373371],"code_commune_insee":"64024"},"geometry":{"type":"Point","coordinates":[-1.51623373371,43.4917846595]},"record_timestamp":"2016-05-09T15:17:00+02:00"},{"datasetid":"laposte_hexasmal","recordid":"bd31be949938a813d6bcba3e09ea6cb6b4fdd1f7","fields":{"nom_de_la_commune":"ARBERATS SILLEGUE","libell_d_acheminement":"ARBERATS SILLEGUE","code_postal":"64120","coordonnees_gps":[43.340809615,-0.991760283648],"code_commune_insee":"64034"},"geometry":{"type":"Point","coordinates":[-0.991760283648,43.340809615]},"record_timestamp":"2016-05-09T15:17:00+02:00"},{"datasetid":"laposte_hexasmal","recordid":"3ed48796ecfab3abd7bcb8eadd1429e97986e4d6","fields":{"nom_de_la_commune":"ARCANGUES","libell_d_acheminement":"ARCANGUES","code_postal":"64200","coordonnees_gps":[43.4260778242,-1.51681726621],"code_commune_insee":"64038"},"geometry":{"type":"Point","coordinates":[-1.51681726621,43.4260778242]},"record_timestamp":"2016-05-09T15:17:00+02:00"},{"datasetid":"laposte_hexasmal","recordid":"cb8d6aabdc9ede108d8a7dd14b4e3961e0ddd765","fields":{"nom_de_la_commune":"ARETTE","libell_d_acheminement":"ARETTE","code_postal":"64570","coordonnees_gps":[43.0398698092,-0.735693683266],"code_commune_insee":"64040"},"geometry":{"type":"Point","coordinates":[-0.735693683266,43.0398698092]},"record_timestamp":"2016-05-09T15:17:00+02:00"},{"datasetid":"laposte_hexasmal","recordid":"a12c224a68a365a85f1852ba91482c955861d6d1","fields":{"nom_de_la_commune":"ARESSY","libell_d_acheminement":"ARESSY","code_postal":"64320","coordonnees_gps":[43.2780475519,-0.328128024391],"code_commune_insee":"64041"},"geometry":{"type":"Point","coordinates":[-0.328128024391,43.2780475519]},"record_timestamp":"2016-05-09T15:17:00+02:00"},{"datasetid":"laposte_hexasmal","recordid":"66811c4a47601ca47e72ce9d0ec4ad406a9d961c","fields":{"nom_de_la_commune":"ARNOS","libell_d_acheminement":"ARNOS","code_postal":"64370","coordonnees_gps":[43.4587702004,-0.533290212033],"code_commune_insee":"64048"},"geometry":{"type":"Point","coordinates":[-0.533290212033,43.4587702004]},"record_timestamp":"2016-05-09T15:17:00+02:00"},{"datasetid":"laposte_hexasmal","recordid":"6d4e97c2c15e79459a2b91e5cee3e3798b319ad7","fields":{"nom_de_la_commune":"ARRAST LARREBIEU","libell_d_acheminement":"ARRAST LARREBIEU","code_postal":"64130","coordonnees_gps":[43.2856672915,-0.850375454846],"code_commune_insee":"64050"},"geometry":{"type":"Point","coordinates":[-0.850375454846,43.2856672915]},"record_timestamp":"2016-05-09T15:17:00+02:00"},{"datasetid":"laposte_hexasmal","recordid":"8fc5ee3d496a84a4ffeff43e9ddf52ac2911bbf7","fields":{"nom_de_la_commune":"AUBERTIN","libell_d_acheminement":"AUBERTIN","code_postal":"64290","coordonnees_gps":[43.2716852677,-0.480982579779],"code_commune_insee":"64072"},"geometry":{"type":"Point","coordinates":[-0.480982579779,43.2716852677]},"record_timestamp":"2016-05-09T15:17:00+02:00"},{"datasetid":"laposte_hexasmal","recordid":"f7529651c2ba66ba481c9be7ba3ad916fea10697","fields":{"nom_de_la_commune":"AUBIN","libell_d_acheminement":"AUBIN","code_postal":"64230","coordonnees_gps":[43.4356805812,-0.421465763214],"code_commune_insee":"64073"},"geometry":{"type":"Point","coordinates":[-0.421465763214,43.4356805812]},"record_timestamp":"2016-05-09T15:17:00+02:00"},{"datasetid":"laposte_hexasmal","recordid":"529ff2cb7c2f85685abe74dc828fd04fa75685eb","fields":{"nom_de_la_commune":"AUTEVIELLE ST MARTIN BIDEREN","libell_d_acheminement":"AUTEVIELLE ST MARTIN BIDEREN","code_postal":"64390","coordonnees_gps":[43.3956392905,-0.977749738282],"code_commune_insee":"64083"},"geometry":{"type":"Point","coordinates":[-0.977749738282,43.3956392905]},"record_timestamp":"2016-05-09T15:17:00+02:00"},{"datasetid":"laposte_hexasmal","recordid":"838660f6e5c159c4851de40f6dabd07dc873808f","fields":{"nom_de_la_commune":"AYDIE","libell_d_acheminement":"AYDIE","code_postal":"64330","coordonnees_gps":[43.5707613227,-0.113447741678],"code_commune_insee":"64084"},"geometry":{"type":"Point","coordinates":[-0.113447741678,43.5707613227]},"record_timestamp":"2016-05-09T15:17:00+02:00"},{"datasetid":"laposte_hexasmal","recordid":"13f27bccebdb4b88cffa46881679e2f0a635d0bc","fields":{"nom_de_la_commune":"BALIROS","libell_d_acheminement":"BALIROS","code_postal":"64510","coordonnees_gps":[43.2285177341,-0.308318533909],"code_commune_insee":"64091"},"geometry":{"type":"Point","coordinates":[-0.308318533909,43.2285177341]},"record_timestamp":"2016-05-09T15:17:00+02:00"},{"datasetid":"laposte_hexasmal","recordid":"bf24a4d9a3e1d2395a718686f37730026af5757f","fields":{"nom_de_la_commune":"BARCUS","libell_d_acheminement":"BARCUS","code_postal":"64130","coordonnees_gps":[43.1772515324,-0.794679831418],"code_commune_insee":"64093"},"geometry":{"type":"Point","coordinates":[-0.794679831418,43.1772515324]},"record_timestamp":"2016-05-09T15:17:00+02:00"},{"datasetid":"laposte_hexasmal","recordid":"994ce4cdf83797e8c134da8ff7f4947550235c90","fields":{"nom_de_la_commune":"BERGOUEY VIELLENAVE","libell_d_acheminement":"BERGOUEY VIELLENAVE","code_postal":"64270","coordonnees_gps":[43.4248305248,-1.06247099125],"code_commune_insee":"64113"},"geometry":{"type":"Point","coordinates":[-1.06247099125,43.4248305248]},"record_timestamp":"2016-05-09T15:17:00+02:00"},{"datasetid":"laposte_hexasmal","recordid":"f188c4c96624a6f5ffa732e589617637d6f1d254","fields":{"nom_de_la_commune":"BETRACQ","libell_d_acheminement":"BETRACQ","code_postal":"64350","coordonnees_gps":[43.5180487775,-0.0544692925119],"code_commune_insee":"64118"},"geometry":{"type":"Point","coordinates":[-0.0544692925119,43.5180487775]},"record_timestamp":"2016-05-09T15:17:00+02:00"},{"datasetid":"laposte_hexasmal","recordid":"75a7501505ed335e56243f7a459ff29159a8d1fc","fields":{"nom_de_la_commune":"BEYRIE SUR JOYEUSE","libell_d_acheminement":"BEYRIE SUR JOYEUSE","code_postal":"64120","coordonnees_gps":[43.3108779849,-1.09656956349],"code_commune_insee":"64120"},"geometry":{"type":"Point","coordinates":[-1.09656956349,43.3108779849]},"record_timestamp":"2016-05-09T15:17:00+02:00"},{"datasetid":"laposte_hexasmal","recordid":"b64d16365e6b866d1a8e129a01cdc9f808630274","fields":{"nom_de_la_commune":"BIELLE","libell_d_acheminement":"BIELLE","code_postal":"64260","coordonnees_gps":[43.0445386527,-0.467140466364],"code_commune_insee":"64127"},"geometry":{"type":"Point","coordinates":[-0.467140466364,43.0445386527]},"record_timestamp":"2016-05-09T15:17:00+02:00"},{"datasetid":"laposte_hexasmal","recordid":"90d7749b2ba986623f351299c397b99c7ad78f0f","fields":{"nom_de_la_commune":"BORCE","libell_d_acheminement":"BORCE","code_postal":"64490","coordonnees_gps":[42.8583801271,-0.587747470754],"code_commune_insee":"64136"},"geometry":{"type":"Point","coordinates":[-0.587747470754,42.8583801271]},"record_timestamp":"2016-05-09T15:17:00+02:00"},{"datasetid":"laposte_hexasmal","recordid":"8176c4f0de7841ab23af6fda980bf4ae2ff3b759","fields":{"nom_de_la_commune":"BORDES","libell_d_acheminement":"BORDES","code_postal":"64510","coordonnees_gps":[43.2436324189,-0.272861349005],"code_commune_insee":"64138"},"geometry":{"type":"Point","coordinates":[-0.272861349005,43.2436324189]},"record_timestamp":"2016-05-09T15:17:00+02:00"},{"datasetid":"laposte_hexasmal","recordid":"66ea6bcbd884df57352da6a9d68c61d826f16cc5","fields":{"nom_de_la_commune":"BOUCAU","libell_d_acheminement":"BOUCAU","code_postal":"64340","coordonnees_gps":[43.52540846,-1.48001541381],"code_commune_insee":"64140"},"geometry":{"type":"Point","coordinates":[-1.48001541381,43.52540846]},"record_timestamp":"2016-05-09T15:17:00+02:00"},{"datasetid":"laposte_hexasmal","recordid":"a0beb22680a7f19983922acfb8b38054c0e26700","fields":{"nom_de_la_commune":"BRISCOUS","libell_d_acheminement":"BRISCOUS","code_postal":"64240","coordonnees_gps":[43.4564293033,-1.32475876534],"code_commune_insee":"64147"},"geometry":{"type":"Point","coordinates":[-1.32475876534,43.4564293033]},"record_timestamp":"2016-05-09T15:17:00+02:00"},{"datasetid":"laposte_hexasmal","recordid":"5219997efef1190be514d3dc0cc4d8b346ae6e62","fields":{"nom_de_la_commune":"BUNUS","libell_d_acheminement":"BUNUS","code_postal":"64120","coordonnees_gps":[43.2072970793,-1.06452656523],"code_commune_insee":"64150"},"geometry":{"type":"Point","coordinates":[-1.06452656523,43.2072970793]},"record_timestamp":"2016-05-09T15:17:00+02:00"},{"datasetid":"laposte_hexasmal","recordid":"65b401feec299bf67a5f711d4c047f675000b703","fields":{"nom_de_la_commune":"BUROS","libell_d_acheminement":"BUROS","code_postal":"64160","coordonnees_gps":[43.3463641258,-0.315857247807],"code_commune_insee":"64152"},"geometry":{"type":"Point","coordinates":[-0.315857247807,43.3463641258]},"record_timestamp":"2016-05-09T15:17:00+02:00"},{"datasetid":"laposte_hexasmal","recordid":"52e7e77f543a7b4d89ac23c7e726b726e83574be","fields":{"nom_de_la_commune":"BUROSSE MENDOUSSE","libell_d_acheminement":"BUROSSE MENDOUSSE","code_postal":"64330","coordonnees_gps":[43.5133919734,-0.209328142304],"code_commune_insee":"64153"},"geometry":{"type":"Point","coordinates":[-0.209328142304,43.5133919734]},"record_timestamp":"2016-05-09T15:17:00+02:00"},{"datasetid":"laposte_hexasmal","recordid":"03eef946280df7a9fbf10a804e7b56a81427dafc","fields":{"nom_de_la_commune":"BUSSUNARITS SARRASQUETTE","libell_d_acheminement":"BUSSUNARITS SARRASQUETTE","code_postal":"64220","coordonnees_gps":[43.1692531272,-1.14700332707],"code_commune_insee":"64154"},"geometry":{"type":"Point","coordinates":[-1.14700332707,43.1692531272]},"record_timestamp":"2016-05-09T15:17:00+02:00"},{"datasetid":"laposte_hexasmal","recordid":"dc51485bf4d1961bc3539823c3977328ff58502d","fields":{"nom_de_la_commune":"CARDESSE","libell_d_acheminement":"CARDESSE","code_postal":"64360","coordonnees_gps":[43.2634335383,-0.592748076501],"code_commune_insee":"64165"},"geometry":{"type":"Point","coordinates":[-0.592748076501,43.2634335383]},"record_timestamp":"2016-05-09T15:17:00+02:00"},{"datasetid":"laposte_hexasmal","recordid":"a6434f88375858f35bbe7d0a6dafe7bffea988e7","fields":{"nom_de_la_commune":"CARRESSE CASSABER","libell_d_acheminement":"CARRESSE CASSABER","code_postal":"64270","coordonnees_gps":[43.4867092033,-0.999430077721],"code_commune_insee":"64168"},"geometry":{"type":"Point","coordinates":[-0.999430077721,43.4867092033]},"record_timestamp":"2016-05-09T15:17:00+02:00"},{"datasetid":"laposte_hexasmal","recordid":"b918577ca2b76fc68d4f61b4674b67494e966bd6","fields":{"nom_de_la_commune":"CASTETBON","libell_d_acheminement":"CASTETBON","code_postal":"64190","coordonnees_gps":[43.3972591089,-0.792417128449],"code_commune_insee":"64176"},"geometry":{"type":"Point","coordinates":[-0.792417128449,43.3972591089]},"record_timestamp":"2016-05-09T15:17:00+02:00"},{"datasetid":"laposte_hexasmal","recordid":"c5e8498a174dbc00ac61612555c29e655c786b14","fields":{"nom_de_la_commune":"CASTETNER","libell_d_acheminement":"CASTETNER","code_postal":"64300","coordonnees_gps":[43.4401622593,-0.729783827554],"code_commune_insee":"64179"},"geometry":{"type":"Point","coordinates":[-0.729783827554,43.4401622593]},"record_timestamp":"2016-05-09T15:17:00+02:00"},{"datasetid":"laposte_hexasmal","recordid":"5f6b7880132ef3d76a54054d4b4905372e921ffe","fields":{"nom_de_la_commune":"CAUBIOS LOOS","libell_d_acheminement":"CAUBIOS LOOS","code_postal":"64230","coordonnees_gps":[43.4184546974,-0.403179073959],"code_commune_insee":"64183"},"geometry":{"type":"Point","coordinates":[-0.403179073959,43.4184546974]},"record_timestamp":"2016-05-09T15:17:00+02:00"},{"datasetid":"laposte_hexasmal","recordid":"208a5ba961100bf0edaedb73678ad8ae2ef8887c","fields":{"nom_de_la_commune":"CHARRE","libell_d_acheminement":"CHARRE","code_postal":"64190","coordonnees_gps":[43.3109705377,-0.854949348438],"code_commune_insee":"64186"},"geometry":{"type":"Point","coordinates":[-0.854949348438,43.3109705377]},"record_timestamp":"2016-05-09T15:17:00+02:00"},{"datasetid":"laposte_hexasmal","recordid":"2af72e3f683e4c0c24bcd9a159f8d06d142587a1","fields":{"nom_de_la_commune":"DENGUIN","libell_d_acheminement":"DENGUIN","code_postal":"64230","coordonnees_gps":[43.3708216546,-0.500350227226],"code_commune_insee":"64198"},"geometry":{"type":"Point","coordinates":[-0.500350227226,43.3708216546]},"record_timestamp":"2016-05-09T15:17:00+02:00"},{"datasetid":"laposte_hexasmal","recordid":"58ae8690f8c0561ed2e00c4bdda7909b0ae7bb38","fields":{"nom_de_la_commune":"DOUMY","libell_d_acheminement":"DOUMY","code_postal":"64450","coordonnees_gps":[43.4451222979,-0.377112446292],"code_commune_insee":"64203"},"geometry":{"type":"Point","coordinates":[-0.377112446292,43.4451222979]},"record_timestamp":"2016-05-09T15:17:00+02:00"},{"datasetid":"laposte_hexasmal","recordid":"2deb04b5ce0d50bb8f4d06cf7c395a18c2944b33","fields":{"nom_de_la_commune":"ESLOURENTIES DABAN","libell_d_acheminement":"ESLOURENTIES DABAN","code_postal":"64420","coordonnees_gps":[43.2999541228,-0.14066779788],"code_commune_insee":"64211"},"geometry":{"type":"Point","coordinates":[-0.14066779788,43.2999541228]},"record_timestamp":"2016-05-09T15:17:00+02:00"},{"datasetid":"laposte_hexasmal","recordid":"bcbbfce88cfad2150fec9275c9350a698dee8540","fields":{"nom_de_la_commune":"ESPES UNDUREIN","libell_d_acheminement":"ESPES UNDUREIN","code_postal":"64130","coordonnees_gps":[43.2745536511,-0.89014755808],"code_commune_insee":"64214"},"geometry":{"type":"Point","coordinates":[-0.89014755808,43.2745536511]},"record_timestamp":"2016-05-09T15:17:00+02:00"},{"datasetid":"laposte_hexasmal","recordid":"6ced966e29d66d471358d32c8686352a66d323d8","fields":{"nom_de_la_commune":"ETCHARRY","libell_d_acheminement":"ETCHARRY","code_postal":"64120","coordonnees_gps":[43.3321625989,-0.927792287342],"code_commune_insee":"64221"},"geometry":{"type":"Point","coordinates":[-0.927792287342,43.3321625989]},"record_timestamp":"2016-05-09T15:17:00+02:00"},{"datasetid":"laposte_hexasmal","recordid":"2a477688fb4616869d5c2e0ae2aa2bc22eab0f13","fields":{"nom_de_la_commune":"ETSAUT","libell_d_acheminement":"ETSAUT","code_postal":"64490","coordonnees_gps":[42.8973131851,-0.528220911971],"code_commune_insee":"64223"},"geometry":{"type":"Point","coordinates":[-0.528220911971,42.8973131851]},"record_timestamp":"2016-05-09T15:17:00+02:00"},{"datasetid":"laposte_hexasmal","recordid":"ca97e3de76f895036231886f9289bef04035cb70","fields":{"nom_de_la_commune":"GARRIS","libell_d_acheminement":"GARRIS","code_postal":"64120","coordonnees_gps":[43.3394050155,-1.05898897013],"code_commune_insee":"64235"},"geometry":{"type":"Point","coordinates":[-1.05898897013,43.3394050155]},"record_timestamp":"2016-05-09T15:17:00+02:00"},{"datasetid":"laposte_hexasmal","recordid":"81a91e456205ee1fd23c8f98a74edf65168553f0","fields":{"nom_de_la_commune":"GER","libell_d_acheminement":"GER","code_postal":"64530","coordonnees_gps":[43.2540907071,-0.0593210180343],"code_commune_insee":"64238"},"geometry":{"type":"Point","coordinates":[-0.0593210180343,43.2540907071]},"record_timestamp":"2016-05-09T15:17:00+02:00"},{"datasetid":"laposte_hexasmal","recordid":"b9ee59c0b5c841d62a7b589c6060ea2534233ff5","fields":{"nom_de_la_commune":"GESTAS","libell_d_acheminement":"GESTAS","code_postal":"64190","coordonnees_gps":[43.3529290484,-0.881977356619],"code_commune_insee":"64242"},"geometry":{"type":"Point","coordinates":[-0.881977356619,43.3529290484]},"record_timestamp":"2016-05-09T15:17:00+02:00"},{"datasetid":"laposte_hexasmal","recordid":"6525926b760badc29b5fbf24c31a4bb4d14acd01","fields":{"nom_de_la_commune":"GEUS D ARZACQ","libell_d_acheminement":"GEUS D ARZACQ","code_postal":"64370","coordonnees_gps":[43.4810420798,-0.522965041639],"code_commune_insee":"64243"},"geometry":{"type":"Point","coordinates":[-0.522965041639,43.4810420798]},"record_timestamp":"2016-05-09T15:17:00+02:00"},{"datasetid":"laposte_hexasmal","recordid":"5b6d389a3a0b08694a1c6a1ee4c734e2a6ffe0a8","fields":{"nom_de_la_commune":"GOES","libell_d_acheminement":"GOES","code_postal":"64400","coordonnees_gps":[43.2174962375,-0.575780625501],"code_commune_insee":"64245"},"geometry":{"type":"Point","coordinates":[-0.575780625501,43.2174962375]},"record_timestamp":"2016-05-09T15:17:00+02:00"},{"datasetid":"laposte_hexasmal","recordid":"a4c75d5cbdd5156e40a13b767e58c9e0c4a04309","fields":{"nom_de_la_commune":"HALSOU","libell_d_acheminement":"HALSOU","code_postal":"64480","coordonnees_gps":[43.3851722831,-1.41123002191],"code_commune_insee":"64255"},"geometry":{"type":"Point","coordinates":[-1.41123002191,43.3851722831]},"record_timestamp":"2016-05-09T15:17:00+02:00"},{"datasetid":"laposte_hexasmal","recordid":"60e04e599061e9632075fb21045db2cc55c15f46","fields":{"nom_de_la_commune":"HASPARREN","libell_d_acheminement":"HASPARREN","code_postal":"64240","coordonnees_gps":[43.3982982364,-1.32563611071],"code_commune_insee":"64256"},"geometry":{"type":"Point","coordinates":[-1.32563611071,43.3982982364]},"record_timestamp":"2016-05-09T15:17:00+02:00"},{"datasetid":"laposte_hexasmal","recordid":"8f0eeff2fc15c3c6bb342a944a68b28a036c6642","fields":{"nom_de_la_commune":"HERRERE","libell_d_acheminement":"HERRERE","code_postal":"64680","coordonnees_gps":[43.1595542922,-0.545488112075],"code_commune_insee":"64261"},"geometry":{"type":"Point","coordinates":[-0.545488112075,43.1595542922]},"record_timestamp":"2016-05-09T15:17:00+02:00"},{"datasetid":"laposte_hexasmal","recordid":"21a8f9f7fb68f8ffa38e0ed44c79a14d0fd09483","fields":{"nom_de_la_commune":"HIGUERES SOUYE","libell_d_acheminement":"HIGUERES SOUYE","code_postal":"64160","coordonnees_gps":[43.3790480363,-0.250616143806],"code_commune_insee":"64262"},"geometry":{"type":"Point","coordinates":[-0.250616143806,43.3790480363]},"record_timestamp":"2016-05-09T15:17:00+02:00"},{"datasetid":"laposte_hexasmal","recordid":"ff60679f4cb5cc6c5f9e143e549a2e2bc58d8c9a","fields":{"nom_de_la_commune":"L HOPITAL ST BLAISE","libell_d_acheminement":"L HOPITAL ST BLAISE","code_postal":"64130","coordonnees_gps":[43.2555611144,-0.770264601126],"code_commune_insee":"64264"},"geometry":{"type":"Point","coordinates":[-0.770264601126,43.2555611144]},"record_timestamp":"2016-05-09T15:17:00+02:00"},{"datasetid":"laposte_hexasmal","recordid":"2011a70fd9cbb05d4327a080cc4dba6a281b07b9","fields":{"nom_de_la_commune":"IGON","libell_d_acheminement":"IGON","code_postal":"64800","coordonnees_gps":[43.153240594,-0.232545768454],"code_commune_insee":"64270"},"geometry":{"type":"Point","coordinates":[-0.232545768454,43.153240594]},"record_timestamp":"2016-05-09T15:17:00+02:00"},{"datasetid":"laposte_hexasmal","recordid":"e78f316a053024419089e55dde42c6396716a9ed","fields":{"nom_de_la_commune":"JATXOU","libell_d_acheminement":"JATXOU","code_postal":"64480","coordonnees_gps":[43.4070870725,-1.41179120283],"code_commune_insee":"64282"},"geometry":{"type":"Point","coordinates":[-1.41179120283,43.4070870725]},"record_timestamp":"2016-05-09T15:17:00+02:00"},{"datasetid":"laposte_hexasmal","recordid":"afd4c2ce3987cd5bc824f12ca8ee86de8a23ce6a","fields":{"nom_de_la_commune":"JAXU","libell_d_acheminement":"JAXU","code_postal":"64220","coordonnees_gps":[43.2043840286,-1.20784344564],"code_commune_insee":"64283"},"geometry":{"type":"Point","coordinates":[-1.20784344564,43.2043840286]},"record_timestamp":"2016-05-09T15:17:00+02:00"},{"datasetid":"laposte_hexasmal","recordid":"24e52616c2531fede3f2fcd4d52309049741a28f","fields":{"nom_de_la_commune":"LABASTIDE VILLEFRANCHE","libell_d_acheminement":"LABASTIDE VILLEFRANCHE","code_postal":"64270","coordonnees_gps":[43.4542845438,-1.03617926766],"code_commune_insee":"64291"},"geometry":{"type":"Point","coordinates":[-1.03617926766,43.4542845438]},"record_timestamp":"2016-05-09T15:17:00+02:00"},{"datasetid":"laposte_hexasmal","recordid":"9102065f9de300dafaa5c30fb43f9305ae5fcbc7","fields":{"nom_de_la_commune":"LABATMALE","libell_d_acheminement":"LABATMALE","code_postal":"64530","coordonnees_gps":[43.1829361776,-0.150153111393],"code_commune_insee":"64292"},"geometry":{"type":"Point","coordinates":[-0.150153111393,43.1829361776]},"record_timestamp":"2016-05-09T15:17:00+02:00"},{"datasetid":"laposte_hexasmal","recordid":"9bc44f7193670eed1535c2b5132b7270d00a1e7b","fields":{"nom_de_la_commune":"LABETS BISCAY","libell_d_acheminement":"LABETS BISCAY","code_postal":"64120","coordonnees_gps":[43.3901052681,-1.06356701774],"code_commune_insee":"64294"},"geometry":{"type":"Point","coordinates":[-1.06356701774,43.3901052681]},"record_timestamp":"2016-05-09T15:17:00+02:00"},{"datasetid":"laposte_hexasmal","recordid":"5c98d861faf68201ab2703a713871327be6cf12e","fields":{"nom_de_la_commune":"LAHONCE","libell_d_acheminement":"LAHONCE","code_postal":"64990","coordonnees_gps":[43.4844685694,-1.39601479811],"code_commune_insee":"64304"},"geometry":{"type":"Point","coordinates":[-1.39601479811,43.4844685694]},"record_timestamp":"2016-05-09T15:17:00+02:00"},{"datasetid":"laposte_hexasmal","recordid":"e3a44a038173dc8da297b98e84aeab334fa6a907","fields":{"nom_de_la_commune":"LALONQUETTE","libell_d_acheminement":"LALONQUETTE","code_postal":"64450","coordonnees_gps":[43.4892855567,-0.316695658071],"code_commune_insee":"64308"},"geometry":{"type":"Point","coordinates":[-0.316695658071,43.4892855567]},"record_timestamp":"2016-05-09T15:17:00+02:00"},{"datasetid":"laposte_hexasmal","recordid":"88dc801cca3f57ec9092eb117f7a5f9db0802b3a","fields":{"nom_de_la_commune":"LANNE EN BARETOUS","libell_d_acheminement":"LANNE EN BARETOUS","code_postal":"64570","coordonnees_gps":[43.0731187091,-0.784065423581],"code_commune_insee":"64310"},"geometry":{"type":"Point","coordinates":[-0.784065423581,43.0731187091]},"record_timestamp":"2016-05-09T15:17:00+02:00"},{"datasetid":"laposte_hexasmal","recordid":"0ceaecbee1e228214f005cba7d1e8656e780f9a9","fields":{"nom_de_la_commune":"LANNECAUBE","libell_d_acheminement":"LANNECAUBE","code_postal":"64350","coordonnees_gps":[43.4823827586,-0.216562157908],"code_commune_insee":"64311"},"geometry":{"type":"Point","coordinates":[-0.216562157908,43.4823827586]},"record_timestamp":"2016-05-09T15:17:00+02:00"},{"datasetid":"laposte_hexasmal","recordid":"118f1eb6e7631311f989c5b5c1f1ed2d8c52e8af","fields":{"nom_de_la_commune":"LANNEPLAA","libell_d_acheminement":"LANNEPLAA","code_postal":"64300","coordonnees_gps":[43.4601794735,-0.827975616705],"code_commune_insee":"64312"},"geometry":{"type":"Point","coordinates":[-0.827975616705,43.4601794735]},"record_timestamp":"2016-05-09T15:17:00+02:00"},{"datasetid":"laposte_hexasmal","recordid":"45ebdd42d8bfa306480d6f2c6ecf934e8f8e07dc","fields":{"nom_de_la_commune":"LANTABAT","libell_d_acheminement":"LANTABAT","code_postal":"64640","coordonnees_gps":[43.2575328584,-1.12843928405],"code_commune_insee":"64313"},"geometry":{"type":"Point","coordinates":[-1.12843928405,43.2575328584]},"record_timestamp":"2016-05-09T15:17:00+02:00"},{"datasetid":"laposte_hexasmal","recordid":"77844acf991de06c56c6a3b1b619115502276652","fields":{"nom_de_la_commune":"LARCEVEAU ARROS CIBITS","libell_d_acheminement":"LARCEVEAU ARROS CIBITS","code_postal":"64120","coordonnees_gps":[43.2252198933,-1.09885079256],"code_commune_insee":"64314"},"geometry":{"type":"Point","coordinates":[-1.09885079256,43.2252198933]},"record_timestamp":"2016-05-09T15:17:00+02:00"},{"datasetid":"laposte_hexasmal","recordid":"a5c5bb35fb9d81de6c4e158031cd6603207bcd51","fields":{"nom_de_la_commune":"LAROIN","libell_d_acheminement":"LAROIN","code_postal":"64110","coordonnees_gps":[43.2974492378,-0.436584051431],"code_commune_insee":"64315"},"geometry":{"type":"Point","coordinates":[-0.436584051431,43.2974492378]},"record_timestamp":"2016-05-09T15:17:00+02:00"},{"datasetid":"laposte_hexasmal","recordid":"1d71be115b936c248898f0454691ec694a21e340","fields":{"nom_de_la_commune":"LARRESSORE","libell_d_acheminement":"LARRESSORE","code_postal":"64480","coordonnees_gps":[43.3695046276,-1.44321557321],"code_commune_insee":"64317"},"geometry":{"type":"Point","coordinates":[-1.44321557321,43.3695046276]},"record_timestamp":"2016-05-09T15:17:00+02:00"},{"datasetid":"laposte_hexasmal","recordid":"22442a052ebbc47c7fa779ea1eeaaa34babb8407","fields":{"nom_de_la_commune":"LARUNS","libell_d_acheminement":"LARUNS","code_postal":"64440","coordonnees_gps":[42.8923840962,-0.419704380499],"code_commune_insee":"64320"},"geometry":{"type":"Point","coordinates":[-0.419704380499,42.8923840962]},"record_timestamp":"2016-05-09T15:17:00+02:00"},{"datasetid":"laposte_hexasmal","recordid":"e0646afbdd604b2e3315f6049c910a1484cfd544","fields":{"nom_de_la_commune":"LASSE","libell_d_acheminement":"LASSE","code_postal":"64220","coordonnees_gps":[43.1357291149,-1.28300542031],"code_commune_insee":"64322"},"geometry":{"type":"Point","coordinates":[-1.28300542031,43.1357291149]},"record_timestamp":"2016-05-09T15:17:00+02:00"},{"datasetid":"laposte_hexasmal","recordid":"a043f7ba11ab53e2c3f5b432b41fcb4552c29960","fields":{"nom_de_la_commune":"LEES ATHAS","libell_d_acheminement":"LEES ATHAS","code_postal":"64490","coordonnees_gps":[42.9710540613,-0.668398814857],"code_commune_insee":"64330"},"geometry":{"type":"Point","coordinates":[-0.668398814857,42.9710540613]},"record_timestamp":"2016-05-09T15:17:00+02:00"},{"datasetid":"laposte_hexasmal","recordid":"270d662f2645b29d485524354918de7ecab1919c","fields":{"nom_de_la_commune":"LEMBEYE","libell_d_acheminement":"LEMBEYE","code_postal":"64350","coordonnees_gps":[43.4517373745,-0.104621641637],"code_commune_insee":"64331"},"geometry":{"type":"Point","coordinates":[-0.104621641637,43.4517373745]},"record_timestamp":"2016-05-09T15:17:00+02:00"},{"datasetid":"laposte_hexasmal","recordid":"ccaecbb1f0a680fcb849ec17a019952363015055","fields":{"nom_de_la_commune":"LEREN","libell_d_acheminement":"LEREN","code_postal":"64270","coordonnees_gps":[43.503711716,-1.0502356112],"code_commune_insee":"64334"},"geometry":{"type":"Point","coordinates":[-1.0502356112,43.503711716]},"record_timestamp":"2016-05-09T15:17:00+02:00"},{"datasetid":"laposte_hexasmal","recordid":"16c0c50713b87d545465ea838488c34bf1ced634","fields":{"nom_de_la_commune":"LESTELLE BETHARRAM","libell_d_acheminement":"LESTELLE BETHARRAM","code_postal":"64800","coordonnees_gps":[43.1218161618,-0.213848358539],"code_commune_insee":"64339"},"geometry":{"type":"Point","coordinates":[-0.213848358539,43.1218161618]},"record_timestamp":"2016-05-09T15:17:00+02:00"},{"datasetid":"laposte_hexasmal","recordid":"ae0b97bad025ff97e33e5cd3f05d5feae5250f44","fields":{"nom_de_la_commune":"LICHOS","libell_d_acheminement":"LICHOS","code_postal":"64130","coordonnees_gps":[43.3089314168,-0.881172413258],"code_commune_insee":"64341"},"geometry":{"type":"Point","coordinates":[-0.881172413258,43.3089314168]},"record_timestamp":"2016-05-09T15:17:00+02:00"},{"datasetid":"laposte_hexasmal","recordid":"0518546f91db9cac5b673d8aa6da465a871bfda5","fields":{"nom_de_la_commune":"LIVRON","libell_d_acheminement":"LIVRON","code_postal":"64530","coordonnees_gps":[43.2327692583,-0.127683079228],"code_commune_insee":"64344"},"geometry":{"type":"Point","coordinates":[-0.127683079228,43.2327692583]},"record_timestamp":"2016-05-09T15:17:00+02:00"},{"datasetid":"laposte_hexasmal","recordid":"da1e07aaf8a2e32f39395ed0ff824c804ece7272","fields":{"nom_de_la_commune":"LOUHOSSOA","libell_d_acheminement":"LOUHOSSOA","code_postal":"64250","coordonnees_gps":[43.3122720751,-1.34791351208],"code_commune_insee":"64350"},"geometry":{"type":"Point","coordinates":[-1.34791351208,43.3122720751]},"record_timestamp":"2016-05-09T15:17:00+02:00"},{"datasetid":"laposte_hexasmal","recordid":"d56a4fb1c66f53180b2942f623c9bd334d9962d1","fields":{"nom_de_la_commune":"LOUVIGNY","libell_d_acheminement":"LOUVIGNY","code_postal":"64410","coordonnees_gps":[43.5050422971,-0.445140263297],"code_commune_insee":"64355"},"geometry":{"type":"Point","coordinates":[-0.445140263297,43.5050422971]},"record_timestamp":"2016-05-09T15:17:00+02:00"},{"datasetid":"laposte_hexasmal","recordid":"987dce5d13e7b2696c8d94e1c4587125304fdc2b","fields":{"nom_de_la_commune":"LUC ARMAU","libell_d_acheminement":"LUC ARMAU","code_postal":"64350","coordonnees_gps":[43.4265649374,-0.0728344787144],"code_commune_insee":"64356"},"geometry":{"type":"Point","coordinates":[-0.0728344787144,43.4265649374]},"record_timestamp":"2016-05-09T15:17:00+02:00"},{"datasetid":"laposte_hexasmal","recordid":"fd680e90cdc3dbb50a0e68f1d3d432fe89e19248","fields":{"nom_de_la_commune":"MACAYE","libell_d_acheminement":"MACAYE","code_postal":"64240","coordonnees_gps":[43.3223278424,-1.32403472047],"code_commune_insee":"64364"},"geometry":{"type":"Point","coordinates":[-1.32403472047,43.3223278424]},"record_timestamp":"2016-05-09T15:17:00+02:00"},{"datasetid":"laposte_hexasmal","recordid":"b5fd06ebd06a0e0be1622318e72594d36bb2f455","fields":{"nom_de_la_commune":"MASLACQ","libell_d_acheminement":"MASLACQ","code_postal":"64300","coordonnees_gps":[43.42655357,-0.698940013436],"code_commune_insee":"64367"},"geometry":{"type":"Point","coordinates":[-0.698940013436,43.42655357]},"record_timestamp":"2016-05-09T15:17:00+02:00"},{"datasetid":"laposte_hexasmal","recordid":"8f14b90eae903c9343b322bfdae1b8b058105fe8","fields":{"nom_de_la_commune":"MAZERES LEZONS","libell_d_acheminement":"MAZERES LEZONS","code_postal":"64110","coordonnees_gps":[43.2732972829,-0.35479385766],"code_commune_insee":"64373"},"geometry":{"type":"Point","coordinates":[-0.35479385766,43.2732972829]},"record_timestamp":"2016-05-09T15:17:00+02:00"},{"datasetid":"laposte_hexasmal","recordid":"0fe19f2de6010b8bec281fcf944237f9b60880f2","fields":{"nom_de_la_commune":"MEHARIN","libell_d_acheminement":"MEHARIN","code_postal":"64120","coordonnees_gps":[43.3311255336,-1.15068722067],"code_commune_insee":"64375"},"geometry":{"type":"Point","coordinates":[-1.15068722067,43.3311255336]},"record_timestamp":"2016-05-09T15:17:00+02:00"},{"datasetid":"laposte_hexasmal","recordid":"ac3fb687abe997135e939d5e87abf8bbd4160291","fields":{"nom_de_la_commune":"MEILLON","libell_d_acheminement":"MEILLON","code_postal":"64510","coordonnees_gps":[43.2702297083,-0.307769641145],"code_commune_insee":"64376"},"geometry":{"type":"Point","coordinates":[-0.307769641145,43.2702297083]},"record_timestamp":"2016-05-09T15:17:00+02:00"},{"datasetid":"laposte_hexasmal","recordid":"5daa3b43d9bce24ec5846b24201c85ac5a3de870","fields":{"nom_de_la_commune":"MERACQ","libell_d_acheminement":"MERACQ","code_postal":"64410","coordonnees_gps":[43.5116461311,-0.383432750249],"code_commune_insee":"64380"},"geometry":{"type":"Point","coordinates":[-0.383432750249,43.5116461311]},"record_timestamp":"2016-05-09T15:17:00+02:00"},{"datasetid":"laposte_hexasmal","recordid":"eeb4e115f34065c73962aa4d6eee0b79f13f5fe3","fields":{"nom_de_la_commune":"MERITEIN","libell_d_acheminement":"MERITEIN","code_postal":"64190","coordonnees_gps":[43.3386651984,-0.750086761557],"code_commune_insee":"64381"},"geometry":{"type":"Point","coordinates":[-0.750086761557,43.3386651984]},"record_timestamp":"2016-05-09T15:17:00+02:00"},{"datasetid":"laposte_hexasmal","recordid":"6099a2cd3c2bed9c518074a2e65b3f189dc96f1b","fields":{"nom_de_la_commune":"MIREPEIX","libell_d_acheminement":"MIREPEIX","code_postal":"64800","coordonnees_gps":[43.1933700705,-0.250922042302],"code_commune_insee":"64386"},"geometry":{"type":"Point","coordinates":[-0.250922042302,43.1933700705]},"record_timestamp":"2016-05-09T15:17:00+02:00"},{"datasetid":"laposte_hexasmal","recordid":"a02b6eeba7a216d246cfd33bda45a21295e29868","fields":{"code_postal":"64300","code_commune_insee":"64396","libell_d_acheminement":"MONT","ligne_5":"LENDRESSE","nom_de_la_commune":"MONT","coordonnees_gps":[43.4270216184,-0.659420644515]},"geometry":{"type":"Point","coordinates":[-0.659420644515,43.4270216184]},"record_timestamp":"2016-05-09T15:17:00+02:00"},{"datasetid":"laposte_hexasmal","recordid":"3796f10a8e1d6fba1805db932f7866dedb419b4b","fields":{"nom_de_la_commune":"MONTARDON","libell_d_acheminement":"MONTARDON","code_postal":"64121","coordonnees_gps":[43.3651274671,-0.35046748696],"code_commune_insee":"64399"},"geometry":{"type":"Point","coordinates":[-0.35046748696,43.3651274671]},"record_timestamp":"2016-05-09T15:17:00+02:00"},{"datasetid":"laposte_hexasmal","recordid":"5adc7dd8c294572b1990214dcf5166caf332efce","fields":{"nom_de_la_commune":"MORLAAS","libell_d_acheminement":"MORLAAS","code_postal":"64160","coordonnees_gps":[43.3345842802,-0.268321408256],"code_commune_insee":"64405"},"geometry":{"type":"Point","coordinates":[-0.268321408256,43.3345842802]},"record_timestamp":"2016-05-09T15:17:00+02:00"},{"datasetid":"laposte_hexasmal","recordid":"486b914f5e8463d05c84b9d36000c2e838d52b14","fields":{"nom_de_la_commune":"MOUMOUR","libell_d_acheminement":"MOUMOUR","code_postal":"64400","coordonnees_gps":[43.2105912463,-0.661946566242],"code_commune_insee":"64409"},"geometry":{"type":"Point","coordinates":[-0.661946566242,43.2105912463]},"record_timestamp":"2016-05-09T15:17:00+02:00"},{"datasetid":"laposte_hexasmal","recordid":"9e63f4f4aa8be8229f0735fbc92dffe356c47a7b","fields":{"nom_de_la_commune":"NABAS","libell_d_acheminement":"NABAS","code_postal":"64190","coordonnees_gps":[43.3317101736,-0.888663049804],"code_commune_insee":"64412"},"geometry":{"type":"Point","coordinates":[-0.888663049804,43.3317101736]},"record_timestamp":"2016-05-09T15:17:00+02:00"},{"datasetid":"laposte_hexasmal","recordid":"82f56bd976ec76e9c13c629a908249a62deed0ea","fields":{"nom_de_la_commune":"NARP","libell_d_acheminement":"NARP","code_postal":"64190","coordonnees_gps":[43.3839548451,-0.825430886901],"code_commune_insee":"64414"},"geometry":{"type":"Point","coordinates":[-0.825430886901,43.3839548451]},"record_timestamp":"2016-05-09T15:17:00+02:00"},{"datasetid":"laposte_hexasmal","recordid":"e55a95f0e8ae460884f79f9e57a170b9f0c7c049","fields":{"nom_de_la_commune":"NAVARRENX","libell_d_acheminement":"NAVARRENX","code_postal":"64190","coordonnees_gps":[43.3288673351,-0.736425017112],"code_commune_insee":"64416"},"geometry":{"type":"Point","coordinates":[-0.736425017112,43.3288673351]},"record_timestamp":"2016-05-09T15:17:00+02:00"},{"datasetid":"laposte_hexasmal","recordid":"a51fd64ab9a37e1735041d1b2cac4522c90d8fcb","fields":{"nom_de_la_commune":"OLORON STE MARIE","libell_d_acheminement":"OLORON STE MARIE","code_postal":"64400","coordonnees_gps":[43.1560871189,-0.587546244432],"code_commune_insee":"64422"},"geometry":{"type":"Point","coordinates":[-0.587546244432,43.1560871189]},"record_timestamp":"2016-05-09T15:17:00+02:00"},{"datasetid":"laposte_hexasmal","recordid":"96bb1eb9e504c05ea60fcf200265ddb6f6937dca","fields":{"nom_de_la_commune":"ORDIARP","libell_d_acheminement":"ORDIARP","code_postal":"64130","coordonnees_gps":[43.1898726884,-0.963886517377],"code_commune_insee":"64424"},"geometry":{"type":"Point","coordinates":[-0.963886517377,43.1898726884]},"record_timestamp":"2016-05-09T15:17:00+02:00"},{"datasetid":"laposte_hexasmal","recordid":"81d53587b82eb059ea346e4ed1d3bee72f2c811e","fields":{"nom_de_la_commune":"ORIN","libell_d_acheminement":"ORIN","code_postal":"64400","coordonnees_gps":[43.2264680608,-0.675557185765],"code_commune_insee":"64426"},"geometry":{"type":"Point","coordinates":[-0.675557185765,43.2264680608]},"record_timestamp":"2016-05-09T15:17:00+02:00"},{"datasetid":"laposte_hexasmal","recordid":"6ee1d320b2c41b59c405ce03f61cb77992a5901f","fields":{"nom_de_la_commune":"OSSAS SUHARE","libell_d_acheminement":"OSSAS SUHARE","code_postal":"64470","coordonnees_gps":[43.138521728,-0.907399706648],"code_commune_insee":"64432"},"geometry":{"type":"Point","coordinates":[-0.907399706648,43.138521728]},"record_timestamp":"2016-05-09T15:17:00+02:00"},{"datasetid":"laposte_hexasmal","recordid":"af1e33e97dc75f76991b1b6fc9047eeeb35b8167","fields":{"nom_de_la_commune":"OSSE EN ASPE","libell_d_acheminement":"OSSE EN ASPE","code_postal":"64490","coordonnees_gps":[43.0104152948,-0.669602106566],"code_commune_insee":"64433"},"geometry":{"type":"Point","coordinates":[-0.669602106566,43.0104152948]},"record_timestamp":"2016-05-09T15:17:00+02:00"},{"datasetid":"laposte_hexasmal","recordid":"b29ac70460908b589d5db74d6aa1e08e03567ff6","fields":{"nom_de_la_commune":"PONTIACQ VIELLEPINTE","libell_d_acheminement":"PONTIACQ VIELLEPINTE","code_postal":"64460","coordonnees_gps":[43.3632011271,-0.0568079986553],"code_commune_insee":"64454"},"geometry":{"type":"Point","coordinates":[-0.0568079986553,43.3632011271]},"record_timestamp":"2016-05-09T15:17:00+02:00"},{"datasetid":"laposte_hexasmal","recordid":"0580a915539f00206194441fb2f8cfcc32c2738b","fields":{"nom_de_la_commune":"RAMOUS","libell_d_acheminement":"RAMOUS","code_postal":"64270","coordonnees_gps":[43.5249836797,-0.880069037681],"code_commune_insee":"64462"},"geometry":{"type":"Point","coordinates":[-0.880069037681,43.5249836797]},"record_timestamp":"2016-05-09T15:17:00+02:00"},{"datasetid":"laposte_hexasmal","recordid":"487602af679d9387a54b3a22a6fa9a179da58ac1","fields":{"nom_de_la_commune":"ST ABIT","libell_d_acheminement":"ST ABIT","code_postal":"64800","coordonnees_gps":[43.2039364358,-0.300077200774],"code_commune_insee":"64469"},"geometry":{"type":"Point","coordinates":[-0.300077200774,43.2039364358]},"record_timestamp":"2016-05-09T15:17:00+02:00"},{"datasetid":"laposte_hexasmal","recordid":"1686a4356872df3f04d3cac0904edb2e9c765a59","fields":{"nom_de_la_commune":"ST JEAN PIED DE PORT","libell_d_acheminement":"ST JEAN PIED DE PORT","code_postal":"64220","coordonnees_gps":[43.1590812269,-1.23540759617],"code_commune_insee":"64485"},"geometry":{"type":"Point","coordinates":[-1.23540759617,43.1590812269]},"record_timestamp":"2016-05-09T15:17:00+02:00"},{"datasetid":"laposte_hexasmal","recordid":"5f89b06be4e10f8e340290a04045f7445529b372","fields":{"nom_de_la_commune":"ST MICHEL","libell_d_acheminement":"ST MICHEL","code_postal":"64220","coordonnees_gps":[43.0893274033,-1.23447352127],"code_commune_insee":"64492"},"geometry":{"type":"Point","coordinates":[-1.23447352127,43.0893274033]},"record_timestamp":"2016-05-09T15:17:00+02:00"},{"datasetid":"laposte_hexasmal","recordid":"2ebaff6e873a478f4d8bee72fa6773b97ff0428b","fields":{"nom_de_la_commune":"ST PALAIS","libell_d_acheminement":"ST PALAIS","code_postal":"64120","coordonnees_gps":[43.3153764046,-1.0377471932],"code_commune_insee":"64493"},"geometry":{"type":"Point","coordinates":[-1.0377471932,43.3153764046]},"record_timestamp":"2016-05-09T15:17:00+02:00"},{"datasetid":"laposte_hexasmal","recordid":"6863dc47117cbff69b15575e4485db0dfb128c13","fields":{"nom_de_la_commune":"SARPOURENX","libell_d_acheminement":"SARPOURENX","code_postal":"64300","coordonnees_gps":[43.4547704018,-0.715454998778],"code_commune_insee":"64505"},"geometry":{"type":"Point","coordinates":[-0.715454998778,43.4547704018]},"record_timestamp":"2016-05-09T15:17:00+02:00"},{"datasetid":"laposte_hexasmal","recordid":"a14c4ad20893cb690a118addba57d6d1e42e4b1b","fields":{"nom_de_la_commune":"SAULT DE NAVAILLES","libell_d_acheminement":"SAULT DE NAVAILLES","code_postal":"64300","coordonnees_gps":[43.5406415198,-0.676491082021],"code_commune_insee":"64510"},"geometry":{"type":"Point","coordinates":[-0.676491082021,43.5406415198]},"record_timestamp":"2016-05-09T15:17:00+02:00"},{"datasetid":"laposte_hexasmal","recordid":"58824065708da5754ac651642804c33f0b89b7bf","fields":{"nom_de_la_commune":"SEBY","libell_d_acheminement":"SEBY","code_postal":"64410","coordonnees_gps":[43.479615245,-0.397462262821],"code_commune_insee":"64514"},"geometry":{"type":"Point","coordinates":[-0.397462262821,43.479615245]},"record_timestamp":"2016-05-09T15:17:00+02:00"},{"datasetid":"laposte_hexasmal","recordid":"e5d26ca4f8f0ccf3966c44fb28449ab24b5066d2","fields":{"nom_de_la_commune":"SERRES CASTET","libell_d_acheminement":"SERRES CASTET","code_postal":"64121","coordonnees_gps":[43.3796823116,-0.366642676872],"code_commune_insee":"64519"},"geometry":{"type":"Point","coordinates":[-0.366642676872,43.3796823116]},"record_timestamp":"2016-05-09T15:17:00+02:00"},{"datasetid":"laposte_hexasmal","recordid":"8234176dea3a0e4b46c8a1af3dfc1b6f5390fb2d","fields":{"nom_de_la_commune":"SERRES MORLAAS","libell_d_acheminement":"SERRES MORLAAS","code_postal":"64160","coordonnees_gps":[43.32289558,-0.261497500044],"code_commune_insee":"64520"},"geometry":{"type":"Point","coordinates":[-0.261497500044,43.32289558]},"record_timestamp":"2016-05-09T15:17:00+02:00"},{"datasetid":"laposte_hexasmal","recordid":"8a8812f8367181ddec4330a39e5ff9a8a78f7f29","fields":{"nom_de_la_commune":"SIROS","libell_d_acheminement":"SIROS","code_postal":"64230","coordonnees_gps":[43.3431539318,-0.489701963125],"code_commune_insee":"64525"},"geometry":{"type":"Point","coordinates":[-0.489701963125,43.3431539318]},"record_timestamp":"2016-05-09T15:17:00+02:00"},{"datasetid":"laposte_hexasmal","recordid":"eeaaed733797cb210cb239d14d3930e332e67be9","fields":{"nom_de_la_commune":"URRUGNE","libell_d_acheminement":"URRUGNE","code_postal":"64122","coordonnees_gps":[43.3497136026,-1.69722838309],"code_commune_insee":"64545"},"geometry":{"type":"Point","coordinates":[-1.69722838309,43.3497136026]},"record_timestamp":"2016-05-09T15:17:00+02:00"},{"datasetid":"laposte_hexasmal","recordid":"a405144d9ed9880f0c6ea3367dc8e8688a193a35","fields":{"nom_de_la_commune":"URT","libell_d_acheminement":"URT","code_postal":"64240","coordonnees_gps":[43.4830789659,-1.28285405213],"code_commune_insee":"64546"},"geometry":{"type":"Point","coordinates":[-1.28285405213,43.4830789659]},"record_timestamp":"2016-05-09T15:17:00+02:00"},{"datasetid":"laposte_hexasmal","recordid":"58303201c228e75f2701aace0a5a506f77b9d78c","fields":{"nom_de_la_commune":"VIELLENAVE DE NAVARRENX","libell_d_acheminement":"VIELLENAVE DE NAVARRENX","code_postal":"64190","coordonnees_gps":[43.3365594073,-0.807320933148],"code_commune_insee":"64555"},"geometry":{"type":"Point","coordinates":[-0.807320933148,43.3365594073]},"record_timestamp":"2016-05-09T15:17:00+02:00"},{"datasetid":"laposte_hexasmal","recordid":"d65f7d5b37795f2280ae636fedd684d18321bc0e","fields":{"nom_de_la_commune":"VIGNES","libell_d_acheminement":"VIGNES","code_postal":"64410","coordonnees_gps":[43.5230729966,-0.410534963551],"code_commune_insee":"64557"},"geometry":{"type":"Point","coordinates":[-0.410534963551,43.5230729966]},"record_timestamp":"2016-05-09T15:17:00+02:00"},{"datasetid":"laposte_hexasmal","recordid":"bd8384733d9d4002f8d0ffa349c408f37bdb1c70","fields":{"nom_de_la_commune":"VIODOS ABENSE DE BAS","libell_d_acheminement":"VIODOS ABENSE DE BAS","code_postal":"64130","coordonnees_gps":[43.2476033104,-0.896806531762],"code_commune_insee":"64559"},"geometry":{"type":"Point","coordinates":[-0.896806531762,43.2476033104]},"record_timestamp":"2016-05-09T15:17:00+02:00"},{"datasetid":"laposte_hexasmal","recordid":"83e3b3a807ca26b99b56172c43938e2365bafe58","fields":{"nom_de_la_commune":"ABITAIN","libell_d_acheminement":"ABITAIN","code_postal":"64390","coordonnees_gps":[43.4173386214,-0.99809023231],"code_commune_insee":"64004"},"geometry":{"type":"Point","coordinates":[-0.99809023231,43.4173386214]},"record_timestamp":"2016-05-09T15:17:00+02:00"},{"datasetid":"laposte_hexasmal","recordid":"188ce0e3631f222c3504152d27616760dcc1174b","fields":{"nom_de_la_commune":"AHAXE ALCIETTE BASCASSAN","libell_d_acheminement":"AHAXE ALCIETTE BASCASSAN","code_postal":"64220","coordonnees_gps":[43.1439687884,-1.16379898273],"code_commune_insee":"64008"},"geometry":{"type":"Point","coordinates":[-1.16379898273,43.1439687884]},"record_timestamp":"2016-05-09T15:17:00+02:00"},{"datasetid":"laposte_hexasmal","recordid":"2fec606d47dd801798fb84556477f246ad8ce693","fields":{"nom_de_la_commune":"AHETZE","libell_d_acheminement":"AHETZE","code_postal":"64210","coordonnees_gps":[43.4042762685,-1.57067985884],"code_commune_insee":"64009"},"geometry":{"type":"Point","coordinates":[-1.57067985884,43.4042762685]},"record_timestamp":"2016-05-09T15:17:00+02:00"},{"datasetid":"laposte_hexasmal","recordid":"6d79e696ed4b71db6af6a46bd48495bff63796a4","fields":{"nom_de_la_commune":"AINHOA","libell_d_acheminement":"AINHOA","code_postal":"64250","coordonnees_gps":[43.2973870708,-1.48514354363],"code_commune_insee":"64014"},"geometry":{"type":"Point","coordinates":[-1.48514354363,43.2973870708]},"record_timestamp":"2016-05-09T15:17:00+02:00"},{"datasetid":"laposte_hexasmal","recordid":"e9abdf935db663e4c79cbb4a09b49dcde9d46088","fields":{"nom_de_la_commune":"ALCAY ALCABEHETY SUNHARETTE","libell_d_acheminement":"ALCAY ALCABEHETY SUNHARETTE","code_postal":"64470","coordonnees_gps":[43.0865933129,-0.975830876097],"code_commune_insee":"64015"},"geometry":{"type":"Point","coordinates":[-0.975830876097,43.0865933129]},"record_timestamp":"2016-05-09T15:17:00+02:00"},{"datasetid":"laposte_hexasmal","recordid":"3fdcb1f223183b78f22e5cd56b2fa5fbb0183a0d","fields":{"nom_de_la_commune":"AMOROTS SUCCOS","libell_d_acheminement":"AMOROTS SUCCOS","code_postal":"64120","coordonnees_gps":[43.3625512592,-1.12435569273],"code_commune_insee":"64019"},"geometry":{"type":"Point","coordinates":[-1.12435569273,43.3625512592]},"record_timestamp":"2016-05-09T15:17:00+02:00"},{"datasetid":"laposte_hexasmal","recordid":"76704ed5061c33c99f43c6d782954c76aca5c60a","fields":{"nom_de_la_commune":"ANCE","libell_d_acheminement":"ANCE","code_postal":"64570","coordonnees_gps":[43.1445987386,-0.687615665018],"code_commune_insee":"64020"},"geometry":{"type":"Point","coordinates":[-0.687615665018,43.1445987386]},"record_timestamp":"2016-05-09T15:17:00+02:00"},{"datasetid":"laposte_hexasmal","recordid":"f32fa3f8d56d676bf0c3ce51a38c424a95b253a3","fields":{"nom_de_la_commune":"ANGOUS","libell_d_acheminement":"ANGOUS","code_postal":"64190","coordonnees_gps":[43.2928389811,-0.812536653193],"code_commune_insee":"64025"},"geometry":{"type":"Point","coordinates":[-0.812536653193,43.2928389811]},"record_timestamp":"2016-05-09T15:17:00+02:00"},{"datasetid":"laposte_hexasmal","recordid":"e4a4d1ce571d5521a30e141048ffeb1263201cac","fields":{"nom_de_la_commune":"ARBONNE","libell_d_acheminement":"ARBONNE","code_postal":"64210","coordonnees_gps":[43.4221190537,-1.54906516427],"code_commune_insee":"64035"},"geometry":{"type":"Point","coordinates":[-1.54906516427,43.4221190537]},"record_timestamp":"2016-05-09T15:17:00+02:00"},{"datasetid":"laposte_hexasmal","recordid":"08d100c137242b105a2988d74ced3a5a48668c78","fields":{"nom_de_la_commune":"ARHANSUS","libell_d_acheminement":"ARHANSUS","code_postal":"64120","coordonnees_gps":[43.2548502906,-1.02446609378],"code_commune_insee":"64045"},"geometry":{"type":"Point","coordinates":[-1.02446609378,43.2548502906]},"record_timestamp":"2016-05-09T15:17:00+02:00"},{"datasetid":"laposte_hexasmal","recordid":"9adb3f39a34aec36d38b064175e5790341544da0","fields":{"nom_de_la_commune":"ARMENDARITS","libell_d_acheminement":"ARMENDARITS","code_postal":"64640","coordonnees_gps":[43.2995874286,-1.16163775322],"code_commune_insee":"64046"},"geometry":{"type":"Point","coordinates":[-1.16163775322,43.2995874286]},"record_timestamp":"2016-05-09T15:17:00+02:00"},{"datasetid":"laposte_hexasmal","recordid":"8f8422f3555e4300d9c97fa1eb48a5b817a33b68","fields":{"nom_de_la_commune":"ARTIGUELOUTAN","libell_d_acheminement":"ARTIGUELOUTAN","code_postal":"64420","coordonnees_gps":[43.2722949713,-0.243925717191],"code_commune_insee":"64059"},"geometry":{"type":"Point","coordinates":[-0.243925717191,43.2722949713]},"record_timestamp":"2016-05-09T15:17:00+02:00"},{"datasetid":"laposte_hexasmal","recordid":"ba7cd32b0d9e9efe7d6191f5d19281118bcb70a0","fields":{"code_postal":"64660","code_commune_insee":"64064","libell_d_acheminement":"ASASP ARROS","ligne_5":"ARROS D OLORON","nom_de_la_commune":"ASASP ARROS","coordonnees_gps":[43.1179115359,-0.629962098599]},"geometry":{"type":"Point","coordinates":[-0.629962098599,43.1179115359]},"record_timestamp":"2016-05-09T15:17:00+02:00"},{"datasetid":"laposte_hexasmal","recordid":"0574f53ff8bb980734c63e040625aa14b23124c1","fields":{"nom_de_la_commune":"ATHOS ASPIS","libell_d_acheminement":"ATHOS ASPIS","code_postal":"64390","coordonnees_gps":[43.4126325632,-0.964931757196],"code_commune_insee":"64071"},"geometry":{"type":"Point","coordinates":[-0.964931757196,43.4126325632]},"record_timestamp":"2016-05-09T15:17:00+02:00"},{"datasetid":"laposte_hexasmal","recordid":"9b35ad310db0a54062af77026ac4eb7e106defcc","fields":{"nom_de_la_commune":"AYHERRE","libell_d_acheminement":"AYHERRE","code_postal":"64240","coordonnees_gps":[43.3787620748,-1.245267479],"code_commune_insee":"64086"},"geometry":{"type":"Point","coordinates":[-1.245267479,43.3787620748]},"record_timestamp":"2016-05-09T15:17:00+02:00"},{"datasetid":"laposte_hexasmal","recordid":"1e6bcccdf4324d1545f74bbe3231e75e2017f86d","fields":{"nom_de_la_commune":"BALANSUN","libell_d_acheminement":"BALANSUN","code_postal":"64300","coordonnees_gps":[43.4912109435,-0.693259422836],"code_commune_insee":"64088"},"geometry":{"type":"Point","coordinates":[-0.693259422836,43.4912109435]},"record_timestamp":"2016-05-09T15:17:00+02:00"},{"datasetid":"laposte_hexasmal","recordid":"0f776cf84c0a0424a14a87a17306fddd7857b918","fields":{"nom_de_la_commune":"BANCA","libell_d_acheminement":"BANCA","code_postal":"64430","coordonnees_gps":[43.1001307168,-1.37160784191],"code_commune_insee":"64092"},"geometry":{"type":"Point","coordinates":[-1.37160784191,43.1001307168]},"record_timestamp":"2016-05-09T15:17:00+02:00"},{"datasetid":"laposte_hexasmal","recordid":"3d57a4092fd62f04702293b4827cbff777ce85a0","fields":{"nom_de_la_commune":"BARDOS","libell_d_acheminement":"BARDOS","code_postal":"64520","coordonnees_gps":[43.4681224323,-1.22301840969],"code_commune_insee":"64094"},"geometry":{"type":"Point","coordinates":[-1.22301840969,43.4681224323]},"record_timestamp":"2016-05-09T15:17:00+02:00"},{"datasetid":"laposte_hexasmal","recordid":"ae604fe5747538f7a1b196a2f07bb3662bc4565f","fields":{"nom_de_la_commune":"BARRAUTE CAMU","libell_d_acheminement":"BARRAUTE CAMU","code_postal":"64390","coordonnees_gps":[43.3831583364,-0.900945944724],"code_commune_insee":"64096"},"geometry":{"type":"Point","coordinates":[-0.900945944724,43.3831583364]},"record_timestamp":"2016-05-09T15:17:00+02:00"},{"datasetid":"laposte_hexasmal","recordid":"ac21cecd5d5c148a372a9bdd3a497d81f30fbe4b","fields":{"nom_de_la_commune":"BEDEILLE","libell_d_acheminement":"BEDEILLE","code_postal":"64460","coordonnees_gps":[43.3464176542,-0.0975638445243],"code_commune_insee":"64103"},"geometry":{"type":"Point","coordinates":[-0.0975638445243,43.3464176542]},"record_timestamp":"2016-05-09T15:17:00+02:00"},{"datasetid":"laposte_hexasmal","recordid":"a31eee65b12cdc873a4860f43432532029e00ee6","fields":{"nom_de_la_commune":"BELLOCQ","libell_d_acheminement":"BELLOCQ","code_postal":"64270","coordonnees_gps":[43.5092272402,-0.921264118611],"code_commune_insee":"64108"},"geometry":{"type":"Point","coordinates":[-0.921264118611,43.5092272402]},"record_timestamp":"2016-05-09T15:17:00+02:00"},{"datasetid":"laposte_hexasmal","recordid":"e3a18279bc2a63461074348db46ba4d2b7d757ff","fields":{"nom_de_la_commune":"BENEJACQ","libell_d_acheminement":"BENEJACQ","code_postal":"64800","coordonnees_gps":[43.1946371974,-0.190128875721],"code_commune_insee":"64109"},"geometry":{"type":"Point","coordinates":[-0.190128875721,43.1946371974]},"record_timestamp":"2016-05-09T15:17:00+02:00"},{"datasetid":"laposte_hexasmal","recordid":"e33be8bcf0b5c1ca6be5fa8840e1ff299901bf48","fields":{"code_postal":"64270","code_commune_insee":"64113","libell_d_acheminement":"BERGOUEY VIELLENAVE","ligne_5":"VIELLENAVE SUR BIDOUZE","nom_de_la_commune":"BERGOUEY VIELLENAVE","coordonnees_gps":[43.4248305248,-1.06247099125]},"geometry":{"type":"Point","coordinates":[-1.06247099125,43.4248305248]},"record_timestamp":"2016-05-09T15:17:00+02:00"},{"datasetid":"laposte_hexasmal","recordid":"258105ddc1af1b37a7ff2751fa4babadf99e6805","fields":{"nom_de_la_commune":"BESCAT","libell_d_acheminement":"BESCAT","code_postal":"64260","coordonnees_gps":[43.129651934,-0.423887128976],"code_commune_insee":"64116"},"geometry":{"type":"Point","coordinates":[-0.423887128976,43.129651934]},"record_timestamp":"2016-05-09T15:17:00+02:00"},{"datasetid":"laposte_hexasmal","recordid":"8914468a9d3cbb3bf8cf7f6cb6d16acdf6f5d871","fields":{"nom_de_la_commune":"BOSDARROS","libell_d_acheminement":"BOSDARROS","code_postal":"64290","coordonnees_gps":[43.2013292234,-0.35837984121],"code_commune_insee":"64139"},"geometry":{"type":"Point","coordinates":[-0.35837984121,43.2013292234]},"record_timestamp":"2016-05-09T15:17:00+02:00"},{"datasetid":"laposte_hexasmal","recordid":"621d2107da7ea3b59df9c4552d42fe839f5372c8","fields":{"nom_de_la_commune":"BOURNOS","libell_d_acheminement":"BOURNOS","code_postal":"64450","coordonnees_gps":[43.4388278116,-0.395430501786],"code_commune_insee":"64146"},"geometry":{"type":"Point","coordinates":[-0.395430501786,43.4388278116]},"record_timestamp":"2016-05-09T15:17:00+02:00"},{"datasetid":"laposte_hexasmal","recordid":"f55db0bc7198419802479d3a86812b4d00cc5772","fields":{"nom_de_la_commune":"BUGNEIN","libell_d_acheminement":"BUGNEIN","code_postal":"64190","coordonnees_gps":[43.3686766215,-0.754427090491],"code_commune_insee":"64149"},"geometry":{"type":"Point","coordinates":[-0.754427090491,43.3686766215]},"record_timestamp":"2016-05-09T15:17:00+02:00"},{"datasetid":"laposte_hexasmal","recordid":"300cd51df35e1bb2bad9ab0c926202b790c4ad31","fields":{"nom_de_la_commune":"BURGARONNE","libell_d_acheminement":"BURGARONNE","code_postal":"64390","coordonnees_gps":[43.4177713373,-0.906845978602],"code_commune_insee":"64151"},"geometry":{"type":"Point","coordinates":[-0.906845978602,43.4177713373]},"record_timestamp":"2016-05-09T15:17:00+02:00"},{"datasetid":"laposte_hexasmal","recordid":"0e6b71775002fb272fa18d97ae351acdd458296a","fields":{"nom_de_la_commune":"CABIDOS","libell_d_acheminement":"CABIDOS","code_postal":"64410","coordonnees_gps":[43.5396790369,-0.463748067374],"code_commune_insee":"64158"},"geometry":{"type":"Point","coordinates":[-0.463748067374,43.5396790369]},"record_timestamp":"2016-05-09T15:17:00+02:00"},{"datasetid":"laposte_hexasmal","recordid":"17a64db6cc4a8ad144b162a4758be4ad7c1d7859","fields":{"nom_de_la_commune":"CADILLON","libell_d_acheminement":"CADILLON","code_postal":"64330","coordonnees_gps":[43.5242735908,-0.154852094311],"code_commune_insee":"64159"},"geometry":{"type":"Point","coordinates":[-0.154852094311,43.5242735908]},"record_timestamp":"2016-05-09T15:17:00+02:00"},{"datasetid":"laposte_hexasmal","recordid":"61f2cc0a76293c5a9ab35ef734cd3ca19788ab71","fields":{"nom_de_la_commune":"CASTAGNEDE","libell_d_acheminement":"CASTAGNEDE","code_postal":"64270","coordonnees_gps":[43.4556389583,-0.974073017031],"code_commune_insee":"64170"},"geometry":{"type":"Point","coordinates":[-0.974073017031,43.4556389583]},"record_timestamp":"2016-05-09T15:17:00+02:00"},{"datasetid":"laposte_hexasmal","recordid":"2c78ad730d5298fec9ea46706e7a29b960995f6e","fields":{"nom_de_la_commune":"CESCAU","libell_d_acheminement":"CESCAU","code_postal":"64170","coordonnees_gps":[43.4123325253,-0.503690665578],"code_commune_insee":"64184"},"geometry":{"type":"Point","coordinates":[-0.503690665578,43.4123325253]},"record_timestamp":"2016-05-09T15:17:00+02:00"},{"datasetid":"laposte_hexasmal","recordid":"001f4f8340a73be7f4eebbc9431fb89d55b01a22","fields":{"nom_de_la_commune":"DIUSSE","libell_d_acheminement":"DIUSSE","code_postal":"64330","coordonnees_gps":[43.5668688531,-0.171440879545],"code_commune_insee":"64199"},"geometry":{"type":"Point","coordinates":[-0.171440879545,43.5668688531]},"record_timestamp":"2016-05-09T15:17:00+02:00"},{"datasetid":"laposte_hexasmal","recordid":"b574ecb24a1e319b855dd5dc9da526f3288ec3a6","fields":{"nom_de_la_commune":"DOAZON","libell_d_acheminement":"DOAZON","code_postal":"64370","coordonnees_gps":[43.4553885972,-0.553044979993],"code_commune_insee":"64200"},"geometry":{"type":"Point","coordinates":[-0.553044979993,43.4553885972]},"record_timestamp":"2016-05-09T15:17:00+02:00"},{"datasetid":"laposte_hexasmal","recordid":"0d8faa1ed32ac888a2edf028cf447301c9f5868e","fields":{"nom_de_la_commune":"DOMEZAIN BERRAUTE","libell_d_acheminement":"DOMEZAIN BERRAUTE","code_postal":"64120","coordonnees_gps":[43.3266580674,-0.966401773594],"code_commune_insee":"64202"},"geometry":{"type":"Point","coordinates":[-0.966401773594,43.3266580674]},"record_timestamp":"2016-05-09T15:17:00+02:00"},{"datasetid":"laposte_hexasmal","recordid":"b04b5f4b4d0b62a3706b8e8156ae1a99a0836dcf","fields":{"nom_de_la_commune":"ESCOT","libell_d_acheminement":"ESCOT","code_postal":"64490","coordonnees_gps":[43.0782488645,-0.565384866739],"code_commune_insee":"64206"},"geometry":{"type":"Point","coordinates":[-0.565384866739,43.0782488645]},"record_timestamp":"2016-05-09T15:17:00+02:00"},{"datasetid":"laposte_hexasmal","recordid":"3b1abd8fac7f60b4dd9da543d84b8eb98febbf8a","fields":{"nom_de_la_commune":"FICHOUS RIUMAYOU","libell_d_acheminement":"FICHOUS RIUMAYOU","code_postal":"64410","coordonnees_gps":[43.4864503765,-0.438799385567],"code_commune_insee":"64226"},"geometry":{"type":"Point","coordinates":[-0.438799385567,43.4864503765]},"record_timestamp":"2016-05-09T15:17:00+02:00"},{"datasetid":"laposte_hexasmal","recordid":"45f23eff28001d56d91d7e42f7c7ff04776b1410","fields":{"nom_de_la_commune":"GABASTON","libell_d_acheminement":"GABASTON","code_postal":"64160","coordonnees_gps":[43.3574296466,-0.215532898213],"code_commune_insee":"64227"},"geometry":{"type":"Point","coordinates":[-0.215532898213,43.3574296466]},"record_timestamp":"2016-05-09T15:17:00+02:00"},{"datasetid":"laposte_hexasmal","recordid":"bf98b103c517c0c3e575e8ad65b2fd1b426124ca","fields":{"nom_de_la_commune":"GERE BELESTEN","libell_d_acheminement":"GERE BELESTEN","code_postal":"64260","coordonnees_gps":[43.0216111241,-0.446673264564],"code_commune_insee":"64240"},"geometry":{"type":"Point","coordinates":[-0.446673264564,43.0216111241]},"record_timestamp":"2016-05-09T15:17:00+02:00"},{"datasetid":"laposte_hexasmal","recordid":"be3a8d86f1ef4ca6dc8ad7327899914b7c3cbaff","fields":{"nom_de_la_commune":"GURMENCON","libell_d_acheminement":"GURMENCON","code_postal":"64400","coordonnees_gps":[43.1583407209,-0.599376287501],"code_commune_insee":"64252"},"geometry":{"type":"Point","coordinates":[-0.599376287501,43.1583407209]},"record_timestamp":"2016-05-09T15:17:00+02:00"},{"datasetid":"laposte_hexasmal","recordid":"6b80d63d6d0d36e9977bd8628956e8163791e1c9","fields":{"nom_de_la_commune":"HAUX","libell_d_acheminement":"HAUX","code_postal":"64470","coordonnees_gps":[43.0614133334,-0.837865590402],"code_commune_insee":"64258"},"geometry":{"type":"Point","coordinates":[-0.837865590402,43.0614133334]},"record_timestamp":"2016-05-09T15:17:00+02:00"},{"datasetid":"laposte_hexasmal","recordid":"4cfc517a74e7c5dcf434c45b091a7ebbbde9093b","fields":{"nom_de_la_commune":"HOSTA","libell_d_acheminement":"HOSTA","code_postal":"64120","coordonnees_gps":[43.1484603704,-1.07534418075],"code_commune_insee":"64265"},"geometry":{"type":"Point","coordinates":[-1.07534418075,43.1484603704]},"record_timestamp":"2016-05-09T15:17:00+02:00"},{"datasetid":"laposte_hexasmal","recordid":"8e872ca759ffdeb295e3bfb65d30207fab9f0439","fields":{"nom_de_la_commune":"IBARROLLE","libell_d_acheminement":"IBARROLLE","code_postal":"64120","coordonnees_gps":[43.1926783014,-1.09837639291],"code_commune_insee":"64267"},"geometry":{"type":"Point","coordinates":[-1.09837639291,43.1926783014]},"record_timestamp":"2016-05-09T15:17:00+02:00"},{"datasetid":"laposte_hexasmal","recordid":"fa1928d000d180c2209132cbbfb6569c9fc82d4c","fields":{"nom_de_la_commune":"IDRON","libell_d_acheminement":"IDRON","code_postal":"64320","coordonnees_gps":[43.2983178945,-0.306106204673],"code_commune_insee":"64269"},"geometry":{"type":"Point","coordinates":[-0.306106204673,43.2983178945]},"record_timestamp":"2016-05-09T15:17:00+02:00"},{"datasetid":"laposte_hexasmal","recordid":"53f6887e450ef73bde8a6311dc0ae3a9a93f088f","fields":{"nom_de_la_commune":"ILHARRE","libell_d_acheminement":"ILHARRE","code_postal":"64120","coordonnees_gps":[43.4021965208,-1.03242626315],"code_commune_insee":"64272"},"geometry":{"type":"Point","coordinates":[-1.03242626315,43.4021965208]},"record_timestamp":"2016-05-09T15:17:00+02:00"},{"datasetid":"laposte_hexasmal","recordid":"0e7e641b0c7b58d11eb5897a3e23ee23084aede9","fields":{"nom_de_la_commune":"IROULEGUY","libell_d_acheminement":"IROULEGUY","code_postal":"64220","coordonnees_gps":[43.185106673,-1.28878634847],"code_commune_insee":"64274"},"geometry":{"type":"Point","coordinates":[-1.28878634847,43.185106673]},"record_timestamp":"2016-05-09T15:17:00+02:00"},{"datasetid":"laposte_hexasmal","recordid":"8bb72a302e2668c54768b1f5d39055cfe5ca9604","fields":{"nom_de_la_commune":"ISPOURE","libell_d_acheminement":"ISPOURE","code_postal":"64220","coordonnees_gps":[43.1832686174,-1.23994963712],"code_commune_insee":"64275"},"geometry":{"type":"Point","coordinates":[-1.23994963712,43.1832686174]},"record_timestamp":"2016-05-09T15:17:00+02:00"},{"datasetid":"laposte_hexasmal","recordid":"1e256990e24c0a6875e0f3916fb6f8449b680819","fields":{"nom_de_la_commune":"LAAS","libell_d_acheminement":"LAAS","code_postal":"64390","coordonnees_gps":[43.3863780665,-0.854028010814],"code_commune_insee":"64287"},"geometry":{"type":"Point","coordinates":[-0.854028010814,43.3863780665]},"record_timestamp":"2016-05-09T15:17:00+02:00"},{"datasetid":"laposte_hexasmal","recordid":"0062810aa368ed1bf68b8c97e7ce7b0d7898ade7","fields":{"nom_de_la_commune":"LABATUT","libell_d_acheminement":"LABATUT","code_postal":"64460","coordonnees_gps":[43.4165864025,-0.0134728274425],"code_commune_insee":"64293"},"geometry":{"type":"Point","coordinates":[-0.0134728274425,43.4165864025]},"record_timestamp":"2016-05-09T15:17:00+02:00"},{"datasetid":"laposte_hexasmal","recordid":"0371b6504fc2d5645887a4e94db62c04c4ec3056","fields":{"nom_de_la_commune":"LACQ","libell_d_acheminement":"LACQ","code_postal":"64170","coordonnees_gps":[43.4215600876,-0.612163653339],"code_commune_insee":"64300"},"geometry":{"type":"Point","coordinates":[-0.612163653339,43.4215600876]},"record_timestamp":"2016-05-09T15:17:00+02:00"},{"datasetid":"laposte_hexasmal","recordid":"1c8ec4d81762a76ef11f3cd1a96e6007afd01012","fields":{"nom_de_la_commune":"LAGOS","libell_d_acheminement":"LAGOS","code_postal":"64800","coordonnees_gps":[43.2122827806,-0.220943768634],"code_commune_insee":"64302"},"geometry":{"type":"Point","coordinates":[-0.220943768634,43.2122827806]},"record_timestamp":"2016-05-09T15:17:00+02:00"},{"datasetid":"laposte_hexasmal","recordid":"d6c9a84b63e34ce04d221b637d54b14d673379b7","fields":{"nom_de_la_commune":"LAHONTAN","libell_d_acheminement":"LAHONTAN","code_postal":"64270","coordonnees_gps":[43.5208233379,-0.968131907041],"code_commune_insee":"64305"},"geometry":{"type":"Point","coordinates":[-0.968131907041,43.5208233379]},"record_timestamp":"2016-05-09T15:17:00+02:00"},{"datasetid":"laposte_hexasmal","recordid":"bcd3147e8c71a1df1f216a55a491ce89f68ef9a5","fields":{"nom_de_la_commune":"LALONGUE","libell_d_acheminement":"LALONGUE","code_postal":"64350","coordonnees_gps":[43.4812762295,-0.188843126276],"code_commune_insee":"64307"},"geometry":{"type":"Point","coordinates":[-0.188843126276,43.4812762295]},"record_timestamp":"2016-05-09T15:17:00+02:00"},{"datasetid":"laposte_hexasmal","recordid":"a1ca3139fcf896168b885db7fc2a34e69f644fa0","fields":{"nom_de_la_commune":"LASCLAVERIES","libell_d_acheminement":"LASCLAVERIES","code_postal":"64450","coordonnees_gps":[43.4339584385,-0.291563063654],"code_commune_insee":"64321"},"geometry":{"type":"Point","coordinates":[-0.291563063654,43.4339584385]},"record_timestamp":"2016-05-09T15:17:00+02:00"},{"datasetid":"laposte_hexasmal","recordid":"29b27fcd484c8ba6e281aa8a098cd86c372f498b","fields":{"nom_de_la_commune":"LASSEUBETAT","libell_d_acheminement":"LASSEUBETAT","code_postal":"64290","coordonnees_gps":[43.1830063532,-0.448422921821],"code_commune_insee":"64325"},"geometry":{"type":"Point","coordinates":[-0.448422921821,43.1830063532]},"record_timestamp":"2016-05-09T15:17:00+02:00"},{"datasetid":"laposte_hexasmal","recordid":"1bcddbd3e4fbed8e793832de13e1f1993fe4ff11","fields":{"nom_de_la_commune":"LESPIELLE","libell_d_acheminement":"LESPIELLE","code_postal":"64350","coordonnees_gps":[43.4688456772,-0.154777907241],"code_commune_insee":"64337"},"geometry":{"type":"Point","coordinates":[-0.154777907241,43.4688456772]},"record_timestamp":"2016-05-09T15:17:00+02:00"},{"datasetid":"laposte_hexasmal","recordid":"47a270faee28b1d323859e547cab891ce6b4dedb","fields":{"nom_de_la_commune":"LOHITZUN OYHERCQ","libell_d_acheminement":"LOHITZUN OYHERCQ","code_postal":"64120","coordonnees_gps":[43.271181894,-0.966424793959],"code_commune_insee":"64345"},"geometry":{"type":"Point","coordinates":[-0.966424793959,43.271181894]},"record_timestamp":"2016-05-09T15:17:00+02:00"},{"datasetid":"laposte_hexasmal","recordid":"48a5be8ea07294f1a87225f1e187ef5713963fd6","fields":{"nom_de_la_commune":"LONCON","libell_d_acheminement":"LONCON","code_postal":"64410","coordonnees_gps":[43.4709402635,-0.419531707158],"code_commune_insee":"64347"},"geometry":{"type":"Point","coordinates":[-0.419531707158,43.4709402635]},"record_timestamp":"2016-05-09T15:17:00+02:00"},{"datasetid":"laposte_hexasmal","recordid":"3f698e870b33fa351518132ac05374ae153e9e66","fields":{"nom_de_la_commune":"LOURENTIES","libell_d_acheminement":"LOURENTIES","code_postal":"64420","coordonnees_gps":[43.2864004571,-0.159610916229],"code_commune_insee":"64352"},"geometry":{"type":"Point","coordinates":[-0.159610916229,43.2864004571]},"record_timestamp":"2016-05-09T15:17:00+02:00"},{"datasetid":"laposte_hexasmal","recordid":"6c9a6e0c5d11ddf1c8b9832287309f9caa686a8f","fields":{"nom_de_la_commune":"LUCARRE","libell_d_acheminement":"LUCARRE","code_postal":"64350","coordonnees_gps":[43.4036827051,-0.0849144725176],"code_commune_insee":"64357"},"geometry":{"type":"Point","coordinates":[-0.0849144725176,43.4036827051]},"record_timestamp":"2016-05-09T15:17:00+02:00"},{"datasetid":"laposte_hexasmal","recordid":"a6056a88ab3d589d33335e707b0f5251ca46f0fa","fields":{"nom_de_la_commune":"LUCQ DE BEARN","libell_d_acheminement":"LUCQ DE BEARN","code_postal":"64360","coordonnees_gps":[43.2979508598,-0.647527637305],"code_commune_insee":"64359"},"geometry":{"type":"Point","coordinates":[-0.647527637305,43.2979508598]},"record_timestamp":"2016-05-09T15:17:00+02:00"},{"datasetid":"laposte_hexasmal","recordid":"372ee7741c2468f3e50811b611364004a5f6c36b","fields":{"nom_de_la_commune":"LUSSAGNET LUSSON","libell_d_acheminement":"LUSSAGNET LUSSON","code_postal":"64160","coordonnees_gps":[43.4423563274,-0.199025557867],"code_commune_insee":"64361"},"geometry":{"type":"Point","coordinates":[-0.199025557867,43.4423563274]},"record_timestamp":"2016-05-09T15:17:00+02:00"},{"datasetid":"laposte_hexasmal","recordid":"8299f3ab29b74ae713c041b5bddad2ddff9b6612","fields":{"nom_de_la_commune":"MASCARAAS HARON","libell_d_acheminement":"MASCARAAS HARON","code_postal":"64330","coordonnees_gps":[43.5399650569,-0.217995397037],"code_commune_insee":"64366"},"geometry":{"type":"Point","coordinates":[-0.217995397037,43.5399650569]},"record_timestamp":"2016-05-09T15:17:00+02:00"},{"datasetid":"laposte_hexasmal","recordid":"4a9f14146af4de2a973c65f4cc138b198bb68327","fields":{"nom_de_la_commune":"MASPARRAUTE","libell_d_acheminement":"MASPARRAUTE","code_postal":"64120","coordonnees_gps":[43.3919071747,-1.08723243847],"code_commune_insee":"64368"},"geometry":{"type":"Point","coordinates":[-1.08723243847,43.3919071747]},"record_timestamp":"2016-05-09T15:17:00+02:00"},{"datasetid":"laposte_hexasmal","recordid":"868d7a4bdf7fdb4d163ec177bdf9c1eda27ab3cf","fields":{"nom_de_la_commune":"MAUCOR","libell_d_acheminement":"MAUCOR","code_postal":"64160","coordonnees_gps":[43.3565898582,-0.284966466044],"code_commune_insee":"64370"},"geometry":{"type":"Point","coordinates":[-0.284966466044,43.3565898582]},"record_timestamp":"2016-05-09T15:17:00+02:00"},{"datasetid":"laposte_hexasmal","recordid":"531209269613fdee7b347f89155e6412841e42a2","fields":{"nom_de_la_commune":"MAURE","libell_d_acheminement":"MAURE","code_postal":"64460","coordonnees_gps":[43.3777021697,-0.078138626285],"code_commune_insee":"64372"},"geometry":{"type":"Point","coordinates":[-0.078138626285,43.3777021697]},"record_timestamp":"2016-05-09T15:17:00+02:00"},{"datasetid":"laposte_hexasmal","recordid":"9b23ddba17318fb656444189117bac54022183b1","fields":{"nom_de_la_commune":"MESPLEDE","libell_d_acheminement":"MESPLEDE","code_postal":"64370","coordonnees_gps":[43.494020254,-0.652404668429],"code_commune_insee":"64382"},"geometry":{"type":"Point","coordinates":[-0.652404668429,43.494020254]},"record_timestamp":"2016-05-09T15:17:00+02:00"},{"datasetid":"laposte_hexasmal","recordid":"5213183d22c589eb2c6d0910dee3b66ea6b0cc3b","fields":{"nom_de_la_commune":"MIALOS","libell_d_acheminement":"MIALOS","code_postal":"64410","coordonnees_gps":[43.4995726122,-0.409362300931],"code_commune_insee":"64383"},"geometry":{"type":"Point","coordinates":[-0.409362300931,43.4995726122]},"record_timestamp":"2016-05-09T15:17:00+02:00"},{"datasetid":"laposte_hexasmal","recordid":"080c5e934f0b225840eb03f425c2f56e455ac48a","fields":{"nom_de_la_commune":"MONCAUP","libell_d_acheminement":"MONCAUP","code_postal":"64350","coordonnees_gps":[43.4798319005,-0.0536135830947],"code_commune_insee":"64390"},"geometry":{"type":"Point","coordinates":[-0.0536135830947,43.4798319005]},"record_timestamp":"2016-05-09T15:17:00+02:00"},{"datasetid":"laposte_hexasmal","recordid":"02799ff4005801a8bfd9ecf312a66c65d1617d77","fields":{"nom_de_la_commune":"MONCLA","libell_d_acheminement":"MONCLA","code_postal":"64330","coordonnees_gps":[43.5813150725,-0.222857074215],"code_commune_insee":"64392"},"geometry":{"type":"Point","coordinates":[-0.222857074215,43.5813150725]},"record_timestamp":"2016-05-09T15:17:00+02:00"},{"datasetid":"laposte_hexasmal","recordid":"82400f4b2676e9edbd350d495211811bd7dc8b6f","fields":{"code_postal":"64300","code_commune_insee":"64396","libell_d_acheminement":"MONT","ligne_5":"GOUZE","nom_de_la_commune":"MONT","coordonnees_gps":[43.4270216184,-0.659420644515]},"geometry":{"type":"Point","coordinates":[-0.659420644515,43.4270216184]},"record_timestamp":"2016-05-09T15:17:00+02:00"},{"datasetid":"laposte_hexasmal","recordid":"5cd6fa35f1539bade9a0cdaf8289d30ac0fc7680","fields":{"nom_de_la_commune":"MONTFORT","libell_d_acheminement":"MONTFORT","code_postal":"64190","coordonnees_gps":[43.368781372,-0.864438809018],"code_commune_insee":"64403"},"geometry":{"type":"Point","coordinates":[-0.864438809018,43.368781372]},"record_timestamp":"2016-05-09T15:17:00+02:00"},{"datasetid":"laposte_hexasmal","recordid":"e8180253183d72f31df57e8d8c1b059b27d965dc","fields":{"nom_de_la_commune":"NOGUERES","libell_d_acheminement":"NOGUERES","code_postal":"64150","coordonnees_gps":[43.3707949043,-0.600380518459],"code_commune_insee":"64418"},"geometry":{"type":"Point","coordinates":[-0.600380518459,43.3707949043]},"record_timestamp":"2016-05-09T15:17:00+02:00"},{"datasetid":"laposte_hexasmal","recordid":"6a27b0c5008b3366f5ff67c301be74815285478a","fields":{"nom_de_la_commune":"OREGUE","libell_d_acheminement":"OREGUE","code_postal":"64120","coordonnees_gps":[43.4048811444,-1.16532813582],"code_commune_insee":"64425"},"geometry":{"type":"Point","coordinates":[-1.16532813582,43.4048811444]},"record_timestamp":"2016-05-09T15:17:00+02:00"},{"datasetid":"laposte_hexasmal","recordid":"7d34650ebc9e844aac6940ec33543083ac1f6636","fields":{"nom_de_la_commune":"OSSENX","libell_d_acheminement":"OSSENX","code_postal":"64190","coordonnees_gps":[43.3765462273,-0.80836547403],"code_commune_insee":"64434"},"geometry":{"type":"Point","coordinates":[-0.80836547403,43.3765462273]},"record_timestamp":"2016-05-09T15:17:00+02:00"},{"datasetid":"laposte_hexasmal","recordid":"0e383c872d77addb532ef20f3d575c15b112e327","fields":{"nom_de_la_commune":"OSSERAIN RIVAREYTE","libell_d_acheminement":"OSSERAIN RIVAREYTE","code_postal":"64390","coordonnees_gps":[43.3723824956,-0.953308055466],"code_commune_insee":"64435"},"geometry":{"type":"Point","coordinates":[-0.953308055466,43.3723824956]},"record_timestamp":"2016-05-09T15:17:00+02:00"},{"datasetid":"laposte_hexasmal","recordid":"803344f279ba7397c3b48b422e594655b626b599","fields":{"nom_de_la_commune":"OUSSE","libell_d_acheminement":"OUSSE","code_postal":"64320","coordonnees_gps":[43.2791521961,-0.267307850969],"code_commune_insee":"64439"},"geometry":{"type":"Point","coordinates":[-0.267307850969,43.2791521961]},"record_timestamp":"2016-05-09T15:17:00+02:00"},{"datasetid":"laposte_hexasmal","recordid":"564fc1b2d973ae24118f01ea4b2d3027f5b22dee","fields":{"nom_de_la_commune":"PAU","libell_d_acheminement":"PAU","code_postal":"64000","coordonnees_gps":[43.3200189773,-0.350337918181],"code_commune_insee":"64445"},"geometry":{"type":"Point","coordinates":[-0.350337918181,43.3200189773]},"record_timestamp":"2016-05-09T15:17:00+02:00"},{"datasetid":"laposte_hexasmal","recordid":"a985d3ba7a83547c157417d5f333ef97d46df794","fields":{"nom_de_la_commune":"PEYRELONGUE ABOS","libell_d_acheminement":"PEYRELONGUE ABOS","code_postal":"64350","coordonnees_gps":[43.4185756604,-0.101559098685],"code_commune_insee":"64446"},"geometry":{"type":"Point","coordinates":[-0.101559098685,43.4185756604]},"record_timestamp":"2016-05-09T15:17:00+02:00"},{"datasetid":"laposte_hexasmal","recordid":"6bc13d71b2b1eac173e2009cbbe4bb1bcbddf4de","fields":{"nom_de_la_commune":"PRECHACQ JOSBAIG","libell_d_acheminement":"PRECHACQ JOSBAIG","code_postal":"64190","coordonnees_gps":[43.2585423682,-0.732506093638],"code_commune_insee":"64458"},"geometry":{"type":"Point","coordinates":[-0.732506093638,43.2585423682]},"record_timestamp":"2016-05-09T15:17:00+02:00"},{"datasetid":"laposte_hexasmal","recordid":"e0aadefb0b2a87364daa72d0a948a90424732fcd","fields":{"nom_de_la_commune":"PRECILHON","libell_d_acheminement":"PRECILHON","code_postal":"64400","coordonnees_gps":[43.1957778723,-0.57297399961],"code_commune_insee":"64460"},"geometry":{"type":"Point","coordinates":[-0.57297399961,43.1957778723]},"record_timestamp":"2016-05-09T15:17:00+02:00"},{"datasetid":"laposte_hexasmal","recordid":"200f10b5159858904aaa49a9bc53eff190684987","fields":{"nom_de_la_commune":"STE ENGRACE","libell_d_acheminement":"STE ENGRACE","code_postal":"64560","coordonnees_gps":[42.9943132999,-0.839892143116],"code_commune_insee":"64475"},"geometry":{"type":"Point","coordinates":[-0.839892143116,42.9943132999]},"record_timestamp":"2016-05-09T15:17:00+02:00"},{"datasetid":"laposte_hexasmal","recordid":"fac99e87887f2296c463d3f483154b7cd4939d22","fields":{"nom_de_la_commune":"ST FAUST","libell_d_acheminement":"ST FAUST","code_postal":"64110","coordonnees_gps":[43.270186835,-0.44796457911],"code_commune_insee":"64478"},"geometry":{"type":"Point","coordinates":[-0.44796457911,43.270186835]},"record_timestamp":"2016-05-09T15:17:00+02:00"},{"datasetid":"laposte_hexasmal","recordid":"f5052a5dc96531ca14b34ac0e1adbcbe3883aaf1","fields":{"nom_de_la_commune":"ST JEAN LE VIEUX","libell_d_acheminement":"ST JEAN LE VIEUX","code_postal":"64220","coordonnees_gps":[43.1714110881,-1.20732334378],"code_commune_insee":"64484"},"geometry":{"type":"Point","coordinates":[-1.20732334378,43.1714110881]},"record_timestamp":"2016-05-09T15:17:00+02:00"},{"datasetid":"laposte_hexasmal","recordid":"c4425a8708081898361f382b79c53da7a9d0d67d","fields":{"nom_de_la_commune":"ST MEDARD","libell_d_acheminement":"ST MEDARD","code_postal":"64370","coordonnees_gps":[43.5349414863,-0.587158607192],"code_commune_insee":"64491"},"geometry":{"type":"Point","coordinates":[-0.587158607192,43.5349414863]},"record_timestamp":"2016-05-09T15:17:00+02:00"},{"datasetid":"laposte_hexasmal","recordid":"cc41fd69aea8f9b709ed9a403f3df50281699556","fields":{"nom_de_la_commune":"ST PEE SUR NIVELLE","libell_d_acheminement":"ST PEE SUR NIVELLE","code_postal":"64310","coordonnees_gps":[43.3564883514,-1.55534617636],"code_commune_insee":"64495"},"geometry":{"type":"Point","coordinates":[-1.55534617636,43.3564883514]},"record_timestamp":"2016-05-09T15:17:00+02:00"},{"datasetid":"laposte_hexasmal","recordid":"a2c048da9e964ac95f7dac8e935b8c17cc7033c4","fields":{"nom_de_la_commune":"SALLESPISSE","libell_d_acheminement":"SALLESPISSE","code_postal":"64300","coordonnees_gps":[43.5211031134,-0.718617217756],"code_commune_insee":"64501"},"geometry":{"type":"Point","coordinates":[-0.718617217756,43.5211031134]},"record_timestamp":"2016-05-09T15:17:00+02:00"},{"datasetid":"laposte_hexasmal","recordid":"b07d696475add0dd5854522b481d5a4186eab173","fields":{"nom_de_la_commune":"SAMSONS LION","libell_d_acheminement":"SAMSONS LION","code_postal":"64350","coordonnees_gps":[43.4340604062,-0.119778196465],"code_commune_insee":"64503"},"geometry":{"type":"Point","coordinates":[-0.119778196465,43.4340604062]},"record_timestamp":"2016-05-09T15:17:00+02:00"},{"datasetid":"laposte_hexasmal","recordid":"880deaab2639ba0e90bb385c4a709b60b206dbf1","fields":{"nom_de_la_commune":"SARE","libell_d_acheminement":"SARE","code_postal":"64310","coordonnees_gps":[43.296231493,-1.58652920554],"code_commune_insee":"64504"},"geometry":{"type":"Point","coordinates":[-1.58652920554,43.296231493]},"record_timestamp":"2016-05-09T15:17:00+02:00"},{"datasetid":"laposte_hexasmal","recordid":"95cf59226138bfd1e8aa79686331d3bdaee73d03","fields":{"nom_de_la_commune":"SAUGUIS ST ETIENNE","libell_d_acheminement":"SAUGUIS ST ETIENNE","code_postal":"64470","coordonnees_gps":[43.1581269508,-0.873283147655],"code_commune_insee":"64509"},"geometry":{"type":"Point","coordinates":[-0.873283147655,43.1581269508]},"record_timestamp":"2016-05-09T15:17:00+02:00"},{"datasetid":"laposte_hexasmal","recordid":"fc9ad645f6e432fce52b056ddf566e6eedcc2e5b","fields":{"nom_de_la_commune":"SAUVAGNON","libell_d_acheminement":"SAUVAGNON","code_postal":"64230","coordonnees_gps":[43.3933131319,-0.389091623871],"code_commune_insee":"64511"},"geometry":{"type":"Point","coordinates":[-0.389091623871,43.3933131319]},"record_timestamp":"2016-05-09T15:17:00+02:00"},{"datasetid":"laposte_hexasmal","recordid":"285a91031989fd1918fbda4d1a62f8b3be48ad1a","fields":{"nom_de_la_commune":"SAUVELADE","libell_d_acheminement":"SAUVELADE","code_postal":"64150","coordonnees_gps":[43.3913713418,-0.716491969468],"code_commune_insee":"64512"},"geometry":{"type":"Point","coordinates":[-0.716491969468,43.3913713418]},"record_timestamp":"2016-05-09T15:17:00+02:00"},{"datasetid":"laposte_hexasmal","recordid":"b697489fe948b6b66338a5053f0f31d42038fcd0","fields":{"nom_de_la_commune":"SEDZERE","libell_d_acheminement":"SEDZERE","code_postal":"64160","coordonnees_gps":[43.3402761138,-0.180181129359],"code_commune_insee":"64516"},"geometry":{"type":"Point","coordinates":[-0.180181129359,43.3402761138]},"record_timestamp":"2016-05-09T15:17:00+02:00"},{"datasetid":"laposte_hexasmal","recordid":"70525dcefa942e35d115e0c8b114aeb53c16e354","fields":{"nom_de_la_commune":"SEMEACQ BLACHON","libell_d_acheminement":"SEMEACQ BLACHON","code_postal":"64350","coordonnees_gps":[43.5034837711,-0.107040592287],"code_commune_insee":"64517"},"geometry":{"type":"Point","coordinates":[-0.107040592287,43.5034837711]},"record_timestamp":"2016-05-09T15:17:00+02:00"},{"datasetid":"laposte_hexasmal","recordid":"27ba4aec8f3e6d8a52b456fa1ac2fe43af403d50","fields":{"nom_de_la_commune":"SENDETS","libell_d_acheminement":"SENDETS","code_postal":"64320","coordonnees_gps":[43.3023058183,-0.265755496231],"code_commune_insee":"64518"},"geometry":{"type":"Point","coordinates":[-0.265755496231,43.3023058183]},"record_timestamp":"2016-05-09T15:17:00+02:00"},{"datasetid":"laposte_hexasmal","recordid":"b7ed64662135709e24ade7b9f9440f0dd9f6c124","fields":{"nom_de_la_commune":"SUHESCUN","libell_d_acheminement":"SUHESCUN","code_postal":"64780","coordonnees_gps":[43.2343253939,-1.19438205249],"code_commune_insee":"64528"},"geometry":{"type":"Point","coordinates":[-1.19438205249,43.2343253939]},"record_timestamp":"2016-05-09T15:17:00+02:00"},{"datasetid":"laposte_hexasmal","recordid":"1b7fb8a1cc513c707e5b14658e54c04e795651e2","fields":{"nom_de_la_commune":"TARDETS SORHOLUS","libell_d_acheminement":"TARDETS SORHOLUS","code_postal":"64470","coordonnees_gps":[43.1284037403,-0.839978372656],"code_commune_insee":"64533"},"geometry":{"type":"Point","coordinates":[-0.839978372656,43.1284037403]},"record_timestamp":"2016-05-09T15:17:00+02:00"},{"datasetid":"laposte_hexasmal","recordid":"d0e3aa6e2e660e5693e5c7329b5ce1b7920f8119","fields":{"nom_de_la_commune":"TARSACQ","libell_d_acheminement":"TARSACQ","code_postal":"64360","coordonnees_gps":[43.3557575881,-0.531704585094],"code_commune_insee":"64535"},"geometry":{"type":"Point","coordinates":[-0.531704585094,43.3557575881]},"record_timestamp":"2016-05-09T15:17:00+02:00"},{"datasetid":"laposte_hexasmal","recordid":"cf5400d1697c89786be0a901e441cb68122e509d","fields":{"nom_de_la_commune":"THEZE","libell_d_acheminement":"THEZE","code_postal":"64450","coordonnees_gps":[43.4749565308,-0.344667086414],"code_commune_insee":"64536"},"geometry":{"type":"Point","coordinates":[-0.344667086414,43.4749565308]},"record_timestamp":"2016-05-09T15:17:00+02:00"},{"datasetid":"laposte_hexasmal","recordid":"65cedfa861e15c6c5b35435bc2c019d8044f93b2","fields":{"nom_de_la_commune":"UHART CIZE","libell_d_acheminement":"UHART CIZE","code_postal":"64220","coordonnees_gps":[43.1285879857,-1.2505576735],"code_commune_insee":"64538"},"geometry":{"type":"Point","coordinates":[-1.2505576735,43.1285879857]},"record_timestamp":"2016-05-09T15:17:00+02:00"},{"datasetid":"laposte_hexasmal","recordid":"05816b3f5935584245d895def7f6ccf30f94661f","fields":{"nom_de_la_commune":"UZAN","libell_d_acheminement":"UZAN","code_postal":"64370","coordonnees_gps":[43.4725068198,-0.502354827029],"code_commune_insee":"64548"},"geometry":{"type":"Point","coordinates":[-0.502354827029,43.4725068198]},"record_timestamp":"2016-05-09T15:17:00+02:00"},{"datasetid":"laposte_hexasmal","recordid":"dc255b0296cc48d2262ecbc812b1e94ae6df832e","fields":{"nom_de_la_commune":"UZOS","libell_d_acheminement":"UZOS","code_postal":"64110","coordonnees_gps":[43.2607603254,-0.349153042882],"code_commune_insee":"64550"},"geometry":{"type":"Point","coordinates":[-0.349153042882,43.2607603254]},"record_timestamp":"2016-05-09T15:17:00+02:00"},{"datasetid":"laposte_hexasmal","recordid":"0d531ba69ea5f5742083267c3a9d6d558fda551d","fields":{"nom_de_la_commune":"VERDETS","libell_d_acheminement":"VERDETS","code_postal":"64400","coordonnees_gps":[43.232186115,-0.642308183699],"code_commune_insee":"64551"},"geometry":{"type":"Point","coordinates":[-0.642308183699,43.232186115]},"record_timestamp":"2016-05-09T15:17:00+02:00"},{"datasetid":"laposte_hexasmal","recordid":"12991494887fa3c648f8b01f587fa7a7a89c3172","fields":{"nom_de_la_commune":"VIALER","libell_d_acheminement":"VIALER","code_postal":"64330","coordonnees_gps":[43.508736032,-0.178980532106],"code_commune_insee":"64552"},"geometry":{"type":"Point","coordinates":[-0.178980532106,43.508736032]},"record_timestamp":"2016-05-09T15:17:00+02:00"},{"datasetid":"laposte_hexasmal","recordid":"32dcf84f05a3096203b4f644a54ee3dd5873d77b","fields":{"nom_de_la_commune":"ABIDOS","libell_d_acheminement":"ABIDOS","code_postal":"64150","coordonnees_gps":[43.3951950748,-0.628336499241],"code_commune_insee":"64003"},"geometry":{"type":"Point","coordinates":[-0.628336499241,43.3951950748]},"record_timestamp":"2016-05-09T15:17:00+02:00"},{"datasetid":"laposte_hexasmal","recordid":"870e9137479b5c8942f1ec9af1812158635f1ac9","fields":{"nom_de_la_commune":"ACCOUS","libell_d_acheminement":"ACCOUS","code_postal":"64490","coordonnees_gps":[42.9398080836,-0.579066514702],"code_commune_insee":"64006"},"geometry":{"type":"Point","coordinates":[-0.579066514702,42.9398080836]},"record_timestamp":"2016-05-09T15:17:00+02:00"},{"datasetid":"laposte_hexasmal","recordid":"7738484596c861748aa14e8aa097a66cd8ef0b7a","fields":{"nom_de_la_commune":"AINCILLE","libell_d_acheminement":"AINCILLE","code_postal":"64220","coordonnees_gps":[43.1339521918,-1.19765745268],"code_commune_insee":"64011"},"geometry":{"type":"Point","coordinates":[-1.19765745268,43.1339521918]},"record_timestamp":"2016-05-09T15:17:00+02:00"},{"datasetid":"laposte_hexasmal","recordid":"0cac5be9fb392f3a59d7308879ac86022c48bcdc","fields":{"nom_de_la_commune":"ANDOINS","libell_d_acheminement":"ANDOINS","code_postal":"64420","coordonnees_gps":[43.3003317348,-0.223135510504],"code_commune_insee":"64021"},"geometry":{"type":"Point","coordinates":[-0.223135510504,43.3003317348]},"record_timestamp":"2016-05-09T15:17:00+02:00"},{"datasetid":"laposte_hexasmal","recordid":"bf168c06c83885cfac389c369f8dc9ff8edcbbd3","fields":{"nom_de_la_commune":"ANHAUX","libell_d_acheminement":"ANHAUX","code_postal":"64220","coordonnees_gps":[43.1459283383,-1.30104249702],"code_commune_insee":"64026"},"geometry":{"type":"Point","coordinates":[-1.30104249702,43.1459283383]},"record_timestamp":"2016-05-09T15:17:00+02:00"},{"datasetid":"laposte_hexasmal","recordid":"7bbfea5f4c7eeab9e600058eb05880d5ac40dc4c","fields":{"nom_de_la_commune":"ANOS","libell_d_acheminement":"ANOS","code_postal":"64160","coordonnees_gps":[43.3974753128,-0.289222563999],"code_commune_insee":"64027"},"geometry":{"type":"Point","coordinates":[-0.289222563999,43.3974753128]},"record_timestamp":"2016-05-09T15:17:00+02:00"},{"datasetid":"laposte_hexasmal","recordid":"7624196f434051c515da19dce573b343375f83b9","fields":{"nom_de_la_commune":"ARAUX","libell_d_acheminement":"ARAUX","code_postal":"64190","coordonnees_gps":[43.3409945704,-0.819420157964],"code_commune_insee":"64033"},"geometry":{"type":"Point","coordinates":[-0.819420157964,43.3409945704]},"record_timestamp":"2016-05-09T15:17:00+02:00"},{"datasetid":"laposte_hexasmal","recordid":"6a0283bd5a92323b18bbcc912476febf5842421b","fields":{"nom_de_la_commune":"ARBOUET SUSSAUTE","libell_d_acheminement":"ARBOUET SUSSAUTE","code_postal":"64120","coordonnees_gps":[43.3718035763,-0.989499391955],"code_commune_insee":"64036"},"geometry":{"type":"Point","coordinates":[-0.989499391955,43.3718035763]},"record_timestamp":"2016-05-09T15:17:00+02:00"},{"datasetid":"laposte_hexasmal","recordid":"2a8448b96339813f7940759d984e5874115a7db3","fields":{"nom_de_la_commune":"AREN","libell_d_acheminement":"AREN","code_postal":"64400","coordonnees_gps":[43.2479579692,-0.725585017259],"code_commune_insee":"64039"},"geometry":{"type":"Point","coordinates":[-0.725585017259,43.2479579692]},"record_timestamp":"2016-05-09T15:17:00+02:00"},{"datasetid":"laposte_hexasmal","recordid":"e154b933857dcd120c3d0394f22422c822d4fb49","fields":{"nom_de_la_commune":"ARGELOS","libell_d_acheminement":"ARGELOS","code_postal":"64450","coordonnees_gps":[43.4489771911,-0.346464744941],"code_commune_insee":"64043"},"geometry":{"type":"Point","coordinates":[-0.346464744941,43.4489771911]},"record_timestamp":"2016-05-09T15:17:00+02:00"},{"datasetid":"laposte_hexasmal","recordid":"1b94a89a6c69c7c210da27e873bd788286ea3f72","fields":{"nom_de_la_commune":"ARGET","libell_d_acheminement":"ARGET","code_postal":"64410","coordonnees_gps":[43.5449611911,-0.532086605631],"code_commune_insee":"64044"},"geometry":{"type":"Point","coordinates":[-0.532086605631,43.5449611911]},"record_timestamp":"2016-05-09T15:17:00+02:00"},{"datasetid":"laposte_hexasmal","recordid":"dfca8d5534d91378c38f374316afb1be1325bef4","fields":{"nom_de_la_commune":"ARNEGUY","libell_d_acheminement":"ARNEGUY","code_postal":"64220","coordonnees_gps":[43.0855581818,-1.27601688686],"code_commune_insee":"64047"},"geometry":{"type":"Point","coordinates":[-1.27601688686,43.0855581818]},"record_timestamp":"2016-05-09T15:17:00+02:00"},{"datasetid":"laposte_hexasmal","recordid":"40550da61d9304f6898651fb6393ea0bb75ed536","fields":{"nom_de_la_commune":"AROUE ITHOROTS OLHAIBY","libell_d_acheminement":"AROUE ITHOROTS OLHAIBY","code_postal":"64120","coordonnees_gps":[43.3085352376,-0.928425599929],"code_commune_insee":"64049"},"geometry":{"type":"Point","coordinates":[-0.928425599929,43.3085352376]},"record_timestamp":"2016-05-09T15:17:00+02:00"},{"datasetid":"laposte_hexasmal","recordid":"848a90367205edd6091183f5a14a3311583ce5c3","fields":{"code_postal":"64120","code_commune_insee":"64049","libell_d_acheminement":"AROUE ITHOROTS OLHAIBY","ligne_5":"ITHOROTS OLHAIBY","nom_de_la_commune":"AROUE ITHOROTS OLHAIBY","coordonnees_gps":[43.3085352376,-0.928425599929]},"geometry":{"type":"Point","coordinates":[-0.928425599929,43.3085352376]},"record_timestamp":"2016-05-09T15:17:00+02:00"},{"datasetid":"laposte_hexasmal","recordid":"51df77b5ced957557fad95281998a7cd23046df9","fields":{"nom_de_la_commune":"ARTHEZ D ASSON","libell_d_acheminement":"ARTHEZ D ASSON","code_postal":"64800","coordonnees_gps":[43.0890909736,-0.253157457726],"code_commune_insee":"64058"},"geometry":{"type":"Point","coordinates":[-0.253157457726,43.0890909736]},"record_timestamp":"2016-05-09T15:17:00+02:00"},{"datasetid":"laposte_hexasmal","recordid":"22ac68fa61ce7665a85e35ff4fede229688456cd","fields":{"nom_de_la_commune":"ARTIGUELOUVE","libell_d_acheminement":"ARTIGUELOUVE","code_postal":"64230","coordonnees_gps":[43.3137207808,-0.473057611318],"code_commune_insee":"64060"},"geometry":{"type":"Point","coordinates":[-0.473057611318,43.3137207808]},"record_timestamp":"2016-05-09T15:17:00+02:00"},{"datasetid":"laposte_hexasmal","recordid":"1d3bc40ba7ab8481fa9dc583ded94ed374547df1","fields":{"nom_de_la_commune":"ASTE BEON","libell_d_acheminement":"ASTE BEON","code_postal":"64260","coordonnees_gps":[43.0305496433,-0.397677517551],"code_commune_insee":"64069"},"geometry":{"type":"Point","coordinates":[-0.397677517551,43.0305496433]},"record_timestamp":"2016-05-09T15:17:00+02:00"},{"datasetid":"laposte_hexasmal","recordid":"4159892f2c424a1d53a333033832634a120872f3","fields":{"nom_de_la_commune":"AUBOUS","libell_d_acheminement":"AUBOUS","code_postal":"64330","coordonnees_gps":[43.5761449327,-0.141071694882],"code_commune_insee":"64074"},"geometry":{"type":"Point","coordinates":[-0.141071694882,43.5761449327]},"record_timestamp":"2016-05-09T15:17:00+02:00"},{"datasetid":"laposte_hexasmal","recordid":"516766e05548145661f15b83e08f9793153e61bc","fields":{"nom_de_la_commune":"AURIAC","libell_d_acheminement":"AURIAC","code_postal":"64450","coordonnees_gps":[43.4534554702,-0.319474009911],"code_commune_insee":"64078"},"geometry":{"type":"Point","coordinates":[-0.319474009911,43.4534554702]},"record_timestamp":"2016-05-09T15:17:00+02:00"},{"datasetid":"laposte_hexasmal","recordid":"8492b27e63b0c211799cb64890a05365fb343e82","fields":{"nom_de_la_commune":"AURIONS IDERNES","libell_d_acheminement":"AURIONS IDERNES","code_postal":"64350","coordonnees_gps":[43.53116782,-0.130770309579],"code_commune_insee":"64079"},"geometry":{"type":"Point","coordinates":[-0.130770309579,43.53116782]},"record_timestamp":"2016-05-09T15:17:00+02:00"},{"datasetid":"laposte_hexasmal","recordid":"20004d4981748ca12847406989f8fa65b5c33cc7","fields":{"nom_de_la_commune":"AYDIUS","libell_d_acheminement":"AYDIUS","code_postal":"64490","coordonnees_gps":[42.9988475331,-0.519267160267],"code_commune_insee":"64085"},"geometry":{"type":"Point","coordinates":[-0.519267160267,42.9988475331]},"record_timestamp":"2016-05-09T15:17:00+02:00"},{"datasetid":"laposte_hexasmal","recordid":"993401d602ff620400e6190843ab6e9fd428505e","fields":{"nom_de_la_commune":"BAIGTS DE BEARN","libell_d_acheminement":"BAIGTS DE BEARN","code_postal":"64300","coordonnees_gps":[43.5246551723,-0.845538853902],"code_commune_insee":"64087"},"geometry":{"type":"Point","coordinates":[-0.845538853902,43.5246551723]},"record_timestamp":"2016-05-09T15:17:00+02:00"},{"datasetid":"laposte_hexasmal","recordid":"65bcf18cfac30da9df6985c1e830994807f2308f","fields":{"nom_de_la_commune":"BARZUN","libell_d_acheminement":"BARZUN","code_postal":"64530","coordonnees_gps":[43.2154362655,-0.134118816539],"code_commune_insee":"64097"},"geometry":{"type":"Point","coordinates":[-0.134118816539,43.2154362655]},"record_timestamp":"2016-05-09T15:17:00+02:00"},{"datasetid":"laposte_hexasmal","recordid":"adfbd04c85b4ce6d1be429c2257fcb55f11011dc","fields":{"nom_de_la_commune":"BASSILLON VAUZE","libell_d_acheminement":"BASSILLON VAUZE","code_postal":"64350","coordonnees_gps":[43.4526790153,-0.07621462231],"code_commune_insee":"64098"},"geometry":{"type":"Point","coordinates":[-0.07621462231,43.4526790153]},"record_timestamp":"2016-05-09T15:17:00+02:00"},{"datasetid":"laposte_hexasmal","recordid":"18c8048f6bf65100800e1f091944a04ea083810f","fields":{"nom_de_la_commune":"BAUDREIX","libell_d_acheminement":"BAUDREIX","code_postal":"64800","coordonnees_gps":[43.2056641864,-0.258861524454],"code_commune_insee":"64101"},"geometry":{"type":"Point","coordinates":[-0.258861524454,43.2056641864]},"record_timestamp":"2016-05-09T15:17:00+02:00"},{"datasetid":"laposte_hexasmal","recordid":"a49e314ab7a8014ec9167084b4dffa500146a26b","fields":{"nom_de_la_commune":"BAYONNE","libell_d_acheminement":"BAYONNE","code_postal":"64100","coordonnees_gps":[43.4922254016,-1.46607674358],"code_commune_insee":"64102"},"geometry":{"type":"Point","coordinates":[-1.46607674358,43.4922254016]},"record_timestamp":"2016-05-09T15:17:00+02:00"},{"datasetid":"laposte_hexasmal","recordid":"30f96a697f753556ba1ac8a42cf6bbe6ee511a6d","fields":{"nom_de_la_commune":"BIDACHE","libell_d_acheminement":"BIDACHE","code_postal":"64520","coordonnees_gps":[43.4637748051,-1.14534438631],"code_commune_insee":"64123"},"geometry":{"type":"Point","coordinates":[-1.14534438631,43.4637748051]},"record_timestamp":"2016-05-09T15:17:00+02:00"},{"datasetid":"laposte_hexasmal","recordid":"eb7ae0609d3c4ee207d60b54e971cf8aed6bbac2","fields":{"nom_de_la_commune":"BILHERES","libell_d_acheminement":"BILHERES","code_postal":"64260","coordonnees_gps":[43.0663758418,-0.482744274023],"code_commune_insee":"64128"},"geometry":{"type":"Point","coordinates":[-0.482744274023,43.0663758418]},"record_timestamp":"2016-05-09T15:17:00+02:00"},{"datasetid":"laposte_hexasmal","recordid":"dc5a62c309815d757b14fd22a3f0579a917a1634","fields":{"nom_de_la_commune":"BILLERE","libell_d_acheminement":"BILLERE","code_postal":"64140","coordonnees_gps":[43.3045259937,-0.393492580041],"code_commune_insee":"64129"},"geometry":{"type":"Point","coordinates":[-0.393492580041,43.3045259937]},"record_timestamp":"2016-05-09T15:17:00+02:00"},{"datasetid":"laposte_hexasmal","recordid":"20418ea441c248a3d44e26cbbdadc9279560361f","fields":{"nom_de_la_commune":"BIZANOS","libell_d_acheminement":"BIZANOS","code_postal":"64320","coordonnees_gps":[43.292458405,-0.337175743313],"code_commune_insee":"64132"},"geometry":{"type":"Point","coordinates":[-0.337175743313,43.292458405]},"record_timestamp":"2016-05-09T15:17:00+02:00"},{"datasetid":"laposte_hexasmal","recordid":"79a95e614b0a976d06f2fa3fd8f8b8b1052a377c","fields":{"nom_de_la_commune":"BONNUT","libell_d_acheminement":"BONNUT","code_postal":"64300","coordonnees_gps":[43.5504537514,-0.765861941107],"code_commune_insee":"64135"},"geometry":{"type":"Point","coordinates":[-0.765861941107,43.5504537514]},"record_timestamp":"2016-05-09T15:17:00+02:00"},{"datasetid":"laposte_hexasmal","recordid":"b50e161c9dd15c900bcd013f4c390cb8d2477a08","fields":{"nom_de_la_commune":"BOUILLON","libell_d_acheminement":"BOUILLON","code_postal":"64410","coordonnees_gps":[43.4946357814,-0.508161824959],"code_commune_insee":"64143"},"geometry":{"type":"Point","coordinates":[-0.508161824959,43.4946357814]},"record_timestamp":"2016-05-09T15:17:00+02:00"},{"datasetid":"laposte_hexasmal","recordid":"28ca979df5363495b9441aa929fe32aa147d94b6","fields":{"nom_de_la_commune":"BRUGES CAPBIS MIFAGET","libell_d_acheminement":"BRUGES CAPBIS MIFAGET","code_postal":"64800","coordonnees_gps":[43.1253072219,-0.303486553374],"code_commune_insee":"64148"},"geometry":{"type":"Point","coordinates":[-0.303486553374,43.1253072219]},"record_timestamp":"2016-05-09T15:17:00+02:00"},{"datasetid":"laposte_hexasmal","recordid":"dfcfa92393ac5319ffe85093aafa9d03533fed37","fields":{"code_postal":"64800","code_commune_insee":"64148","libell_d_acheminement":"BRUGES CAPBIS MIFAGET","ligne_5":"MIFAGET","nom_de_la_commune":"BRUGES CAPBIS MIFAGET","coordonnees_gps":[43.1253072219,-0.303486553374]},"geometry":{"type":"Point","coordinates":[-0.303486553374,43.1253072219]},"record_timestamp":"2016-05-09T15:17:00+02:00"},{"datasetid":"laposte_hexasmal","recordid":"65ae1f076fdb4b5942378417834c01b9a25e3608","fields":{"nom_de_la_commune":"BUZIET","libell_d_acheminement":"BUZIET","code_postal":"64680","coordonnees_gps":[43.1442617368,-0.47589383596],"code_commune_insee":"64156"},"geometry":{"type":"Point","coordinates":[-0.47589383596,43.1442617368]},"record_timestamp":"2016-05-09T15:17:00+02:00"},{"datasetid":"laposte_hexasmal","recordid":"a53da2f952c719f57b9e7c65b50e2899576393f4","fields":{"nom_de_la_commune":"BUZY","libell_d_acheminement":"BUZY","code_postal":"64260","coordonnees_gps":[43.1407278397,-0.446234672821],"code_commune_insee":"64157"},"geometry":{"type":"Point","coordinates":[-0.446234672821,43.1407278397]},"record_timestamp":"2016-05-09T15:17:00+02:00"},{"datasetid":"laposte_hexasmal","recordid":"d8cbaca5807a6ddae34325a905616d5c053b48df","fields":{"nom_de_la_commune":"CAME","libell_d_acheminement":"CAME","code_postal":"64520","coordonnees_gps":[43.48131751,-1.09178751513],"code_commune_insee":"64161"},"geometry":{"type":"Point","coordinates":[-1.09178751513,43.48131751]},"record_timestamp":"2016-05-09T15:17:00+02:00"},{"datasetid":"laposte_hexasmal","recordid":"a8ac37a809d0f7d442e49bd8988cee7677ef7248","fields":{"nom_de_la_commune":"CASTEIDE CANDAU","libell_d_acheminement":"CASTEIDE CANDAU","code_postal":"64370","coordonnees_gps":[43.5246218611,-0.557545327219],"code_commune_insee":"64172"},"geometry":{"type":"Point","coordinates":[-0.557545327219,43.5246218611]},"record_timestamp":"2016-05-09T15:17:00+02:00"},