[{"datasetid":"laposte_hexasmal","recordid":"e7b8184d1208d2b39b3335d13fd667452d420a8e","fields":{"code_postal":"67310","code_commune_insee":"67004","libell_d_acheminement":"SOMMERAU","ligne_5":"ALLENWILLER","nom_de_la_commune":"SOMMERAU","coordonnees_gps":[48.6536185967,7.36691370722]},"geometry":{"type":"Point","coordinates":[7.36691370722,48.6536185967]},"record_timestamp":"2016-05-09T15:17:00+02:00"},{"datasetid":"laposte_hexasmal","recordid":"3a46c2b02b2b49baa0052ee9da2b9bc082f4ed2e","fields":{"nom_de_la_commune":"AUENHEIM","libell_d_acheminement":"AUENHEIM","code_postal":"67480","coordonnees_gps":[48.8090909724,8.01736090911],"code_commune_insee":"67014"},"geometry":{"type":"Point","coordinates":[8.01736090911,48.8090909724]},"record_timestamp":"2016-05-09T15:17:00+02:00"},{"datasetid":"laposte_hexasmal","recordid":"95411b97de82fa8c614f826f6dd3dc6063eaae74","fields":{"nom_de_la_commune":"BAERENDORF","libell_d_acheminement":"BAERENDORF","code_postal":"67320","coordonnees_gps":[48.8306192171,7.08989424787],"code_commune_insee":"67017"},"geometry":{"type":"Point","coordinates":[7.08989424787,48.8306192171]},"record_timestamp":"2016-05-09T15:17:00+02:00"},{"datasetid":"laposte_hexasmal","recordid":"c243a2207bd9e9364c75c5b10b7a2d5f753a78bd","fields":{"nom_de_la_commune":"BALDENHEIM","libell_d_acheminement":"BALDENHEIM","code_postal":"67600","coordonnees_gps":[48.2444211,7.53586844634],"code_commune_insee":"67019"},"geometry":{"type":"Point","coordinates":[7.53586844634,48.2444211]},"record_timestamp":"2016-05-09T15:17:00+02:00"},{"datasetid":"laposte_hexasmal","recordid":"5f41a6c187c54833e04fdc1424107c8ea1691e4b","fields":{"nom_de_la_commune":"BERNARDSWILLER","libell_d_acheminement":"BERNARDSWILLER","code_postal":"67210","coordonnees_gps":[48.4473498624,7.45350882919],"code_commune_insee":"67031"},"geometry":{"type":"Point","coordinates":[7.45350882919,48.4473498624]},"record_timestamp":"2016-05-09T15:17:00+02:00"},{"datasetid":"laposte_hexasmal","recordid":"66e5487e5efe166763a3c3fdee4ac989ebe5b964","fields":{"nom_de_la_commune":"BERNARDVILLE","libell_d_acheminement":"BERNARDVILLE","code_postal":"67140","coordonnees_gps":[48.3696169477,7.40684055557],"code_commune_insee":"67032"},"geometry":{"type":"Point","coordinates":[7.40684055557,48.3696169477]},"record_timestamp":"2016-05-09T15:17:00+02:00"},{"datasetid":"laposte_hexasmal","recordid":"3097c3047015a9d5d1d45b105a3f05b68f2fe31a","fields":{"nom_de_la_commune":"BERSTHEIM","libell_d_acheminement":"BERSTHEIM","code_postal":"67170","coordonnees_gps":[48.7926179333,7.67977428284],"code_commune_insee":"67035"},"geometry":{"type":"Point","coordinates":[7.67977428284,48.7926179333]},"record_timestamp":"2016-05-09T15:17:00+02:00"},{"datasetid":"laposte_hexasmal","recordid":"1b1eeaa2549293fff13263b324b47f63002a6c60","fields":{"nom_de_la_commune":"BOESENBIESEN","libell_d_acheminement":"BOESENBIESEN","code_postal":"67390","coordonnees_gps":[48.2261928699,7.56229858754],"code_commune_insee":"67053"},"geometry":{"type":"Point","coordinates":[7.56229858754,48.2261928699]},"record_timestamp":"2016-05-09T15:17:00+02:00"},{"datasetid":"laposte_hexasmal","recordid":"5cddd1f930ae314776ee423a8ed39c0cae1c374f","fields":{"nom_de_la_commune":"BOOFZHEIM","libell_d_acheminement":"BOOFZHEIM","code_postal":"67860","coordonnees_gps":[48.3343650586,7.6782140788],"code_commune_insee":"67055"},"geometry":{"type":"Point","coordinates":[7.6782140788,48.3343650586]},"record_timestamp":"2016-05-09T15:17:00+02:00"},{"datasetid":"laposte_hexasmal","recordid":"834f1afca4d8f420ec6219c177881e21779cbeaa","fields":{"nom_de_la_commune":"BOSSELSHAUSEN","libell_d_acheminement":"BOSSELSHAUSEN","code_postal":"67330","coordonnees_gps":[48.8061717193,7.50878423117],"code_commune_insee":"67057"},"geometry":{"type":"Point","coordinates":[7.50878423117,48.8061717193]},"record_timestamp":"2016-05-09T15:17:00+02:00"},{"datasetid":"laposte_hexasmal","recordid":"7a6359e74dfff29090a41bd94bb1384385001ed6","fields":{"nom_de_la_commune":"BREITENAU","libell_d_acheminement":"BREITENAU","code_postal":"67220","coordonnees_gps":[48.316132686,7.27931381506],"code_commune_insee":"67062"},"geometry":{"type":"Point","coordinates":[7.27931381506,48.316132686]},"record_timestamp":"2016-05-09T15:17:00+02:00"},{"datasetid":"laposte_hexasmal","recordid":"6cb3f4fe68fc4f95ff9cc2847fe52d89b89a3d17","fields":{"nom_de_la_commune":"BUSWILLER","libell_d_acheminement":"BUSWILLER","code_postal":"67350","coordonnees_gps":[48.8219680597,7.56228814034],"code_commune_insee":"67068"},"geometry":{"type":"Point","coordinates":[7.56228814034,48.8219680597]},"record_timestamp":"2016-05-09T15:17:00+02:00"},{"datasetid":"laposte_hexasmal","recordid":"67c4ae07d38bb76ed734942c32a61a284f003d8c","fields":{"nom_de_la_commune":"BURBACH","libell_d_acheminement":"BURBACH","code_postal":"67260","coordonnees_gps":[48.8975113337,7.11153585144],"code_commune_insee":"67070"},"geometry":{"type":"Point","coordinates":[7.11153585144,48.8975113337]},"record_timestamp":"2016-05-09T15:17:00+02:00"},{"datasetid":"laposte_hexasmal","recordid":"8aa3c0d61cb63e577c1b245dfc2fc6bd17e82978","fields":{"nom_de_la_commune":"BUST","libell_d_acheminement":"BUST","code_postal":"67320","coordonnees_gps":[48.8338084584,7.23455655316],"code_commune_insee":"67071"},"geometry":{"type":"Point","coordinates":[7.23455655316,48.8338084584]},"record_timestamp":"2016-05-09T15:17:00+02:00"},{"datasetid":"laposte_hexasmal","recordid":"9c14b405d65cc43465287176a13678b12bec62d2","fields":{"nom_de_la_commune":"CLIMBACH","libell_d_acheminement":"CLIMBACH","code_postal":"67510","coordonnees_gps":[49.0157843115,7.85030833791],"code_commune_insee":"67075"},"geometry":{"type":"Point","coordinates":[7.85030833791,49.0157843115]},"record_timestamp":"2016-05-09T15:17:00+02:00"},{"datasetid":"laposte_hexasmal","recordid":"4cb4be7632f4965414878145eacd353ab0ff8d54","fields":{"nom_de_la_commune":"COSSWILLER","libell_d_acheminement":"COSSWILLER","code_postal":"67310","coordonnees_gps":[48.6086737459,7.36224872367],"code_commune_insee":"67077"},"geometry":{"type":"Point","coordinates":[7.36224872367,48.6086737459]},"record_timestamp":"2016-05-09T15:17:00+02:00"},{"datasetid":"laposte_hexasmal","recordid":"9e2844afca7a782ad8a403f8d378538b0c6355d0","fields":{"nom_de_la_commune":"DANGOLSHEIM","libell_d_acheminement":"DANGOLSHEIM","code_postal":"67310","coordonnees_gps":[48.5647236628,7.45735566784],"code_commune_insee":"67085"},"geometry":{"type":"Point","coordinates":[7.45735566784,48.5647236628]},"record_timestamp":"2016-05-09T15:17:00+02:00"},{"datasetid":"laposte_hexasmal","recordid":"e929dea1dfb9c15596aacbe5759aadc8be61fb7e","fields":{"nom_de_la_commune":"DIEFFENTHAL","libell_d_acheminement":"DIEFFENTHAL","code_postal":"67650","coordonnees_gps":[48.3073185385,7.41146997738],"code_commune_insee":"67094"},"geometry":{"type":"Point","coordinates":[7.41146997738,48.3073185385]},"record_timestamp":"2016-05-09T15:17:00+02:00"},{"datasetid":"laposte_hexasmal","recordid":"b5f3236b1e129057797bc875b7ecfdce6e609bbc","fields":{"nom_de_la_commune":"DINGSHEIM","libell_d_acheminement":"DINGSHEIM","code_postal":"67370","coordonnees_gps":[48.622536679,7.6607451279],"code_commune_insee":"67097"},"geometry":{"type":"Point","coordinates":[7.6607451279,48.622536679]},"record_timestamp":"2016-05-09T15:17:00+02:00"},{"datasetid":"laposte_hexasmal","recordid":"59b09cd0d72ff4bdbfe7c16b89a75b3224c21d7c","fields":{"nom_de_la_commune":"DOSSENHEIM KOCHERSBERG","libell_d_acheminement":"DOSSENHEIM KOCHERSBERG","code_postal":"67117","coordonnees_gps":[48.6410930657,7.57816691199],"code_commune_insee":"67102"},"geometry":{"type":"Point","coordinates":[7.57816691199,48.6410930657]},"record_timestamp":"2016-05-09T15:17:00+02:00"},{"datasetid":"laposte_hexasmal","recordid":"ce60b8a7cbfd1d6e77f1630debfb095d9f06d245","fields":{"nom_de_la_commune":"DRUSENHEIM","libell_d_acheminement":"DRUSENHEIM","code_postal":"67410","coordonnees_gps":[48.7609264205,7.94563844601],"code_commune_insee":"67106"},"geometry":{"type":"Point","coordinates":[7.94563844601,48.7609264205]},"record_timestamp":"2016-05-09T15:17:00+02:00"},{"datasetid":"laposte_hexasmal","recordid":"6ae432d9dca54801929eb08fe25c71d5437b39f3","fields":{"nom_de_la_commune":"DURRENBACH","libell_d_acheminement":"DURRENBACH","code_postal":"67360","coordonnees_gps":[48.8992737853,7.76279300097],"code_commune_insee":"67110"},"geometry":{"type":"Point","coordinates":[7.76279300097,48.8992737853]},"record_timestamp":"2016-05-09T15:17:00+02:00"},{"datasetid":"laposte_hexasmal","recordid":"61a6eafb66a9e84b0be69532ce3792b86213a8f0","fields":{"nom_de_la_commune":"EBERSHEIM","libell_d_acheminement":"EBERSHEIM","code_postal":"67600","coordonnees_gps":[48.3024348713,7.49845782701],"code_commune_insee":"67115"},"geometry":{"type":"Point","coordinates":[7.49845782701,48.3024348713]},"record_timestamp":"2016-05-09T15:17:00+02:00"},{"datasetid":"laposte_hexasmal","recordid":"64cb278240e0f0b4808f0fcbaa29c9ad314c8a54","fields":{"nom_de_la_commune":"EBERSMUNSTER","libell_d_acheminement":"EBERSMUNSTER","code_postal":"67600","coordonnees_gps":[48.3033027968,7.53361664193],"code_commune_insee":"67116"},"geometry":{"type":"Point","coordinates":[7.53361664193,48.3033027968]},"record_timestamp":"2016-05-09T15:17:00+02:00"},{"datasetid":"laposte_hexasmal","recordid":"2af0e447d9544a96b10e38f7495620ad0cdd50fa","fields":{"nom_de_la_commune":"ELSENHEIM","libell_d_acheminement":"ELSENHEIM","code_postal":"67390","coordonnees_gps":[48.1655800689,7.49719724328],"code_commune_insee":"67121"},"geometry":{"type":"Point","coordinates":[7.49719724328,48.1655800689]},"record_timestamp":"2016-05-09T15:17:00+02:00"},{"datasetid":"laposte_hexasmal","recordid":"bb0c6906c5130597d7a2733164476e1ea7eef7a1","fields":{"nom_de_la_commune":"WANGENBOURG ENGENTHAL","libell_d_acheminement":"WANGENBOURG ENGENTHAL","code_postal":"67710","coordonnees_gps":[48.6212665024,7.30505408726],"code_commune_insee":"67122"},"geometry":{"type":"Point","coordinates":[7.30505408726,48.6212665024]},"record_timestamp":"2016-05-09T15:17:00+02:00"},{"datasetid":"laposte_hexasmal","recordid":"b8645e56548a9fb12677ec3fc90073cb93712da8","fields":{"code_postal":"67710","code_commune_insee":"67122","libell_d_acheminement":"WANGENBOURG ENGENTHAL","ligne_5":"WANGENBOURG","nom_de_la_commune":"WANGENBOURG ENGENTHAL","coordonnees_gps":[48.6212665024,7.30505408726]},"geometry":{"type":"Point","coordinates":[7.30505408726,48.6212665024]},"record_timestamp":"2016-05-09T15:17:00+02:00"},{"datasetid":"laposte_hexasmal","recordid":"e275026cf2fd653813547af5f486caebf999578a","fields":{"code_postal":"67710","code_commune_insee":"67122","libell_d_acheminement":"WANGENBOURG ENGENTHAL","ligne_5":"WOLFSTHAL","nom_de_la_commune":"WANGENBOURG ENGENTHAL","coordonnees_gps":[48.6212665024,7.30505408726]},"geometry":{"type":"Point","coordinates":[7.30505408726,48.6212665024]},"record_timestamp":"2016-05-09T15:17:00+02:00"},{"datasetid":"laposte_hexasmal","recordid":"9a34501a4f42299a5835d54a84fab2b79d0bb8cd","fields":{"nom_de_la_commune":"ENTZHEIM","libell_d_acheminement":"ENTZHEIM","code_postal":"67960","coordonnees_gps":[48.5358846915,7.63324537487],"code_commune_insee":"67124"},"geometry":{"type":"Point","coordinates":[7.63324537487,48.5358846915]},"record_timestamp":"2016-05-09T15:17:00+02:00"},{"datasetid":"laposte_hexasmal","recordid":"f0347251dbf8ff7c5df65af8e4f04385ca226dde","fields":{"nom_de_la_commune":"EPFIG","libell_d_acheminement":"EPFIG","code_postal":"67680","coordonnees_gps":[48.3513757902,7.47140926627],"code_commune_insee":"67125"},"geometry":{"type":"Point","coordinates":[7.47140926627,48.3513757902]},"record_timestamp":"2016-05-09T15:17:00+02:00"},{"datasetid":"laposte_hexasmal","recordid":"4b0dce0a5bdeae10b8ccab928dfd7609e1f2a31b","fields":{"nom_de_la_commune":"ERNOLSHEIM LES SAVERNE","libell_d_acheminement":"ERNOLSHEIM LES SAVERNE","code_postal":"67330","coordonnees_gps":[48.7888603168,7.37728426045],"code_commune_insee":"67129"},"geometry":{"type":"Point","coordinates":[7.37728426045,48.7888603168]},"record_timestamp":"2016-05-09T15:17:00+02:00"},{"datasetid":"laposte_hexasmal","recordid":"c273120875595138dce7930c5b8b40ee607b8ef5","fields":{"nom_de_la_commune":"ESCHBACH","libell_d_acheminement":"ESCHBACH","code_postal":"67360","coordonnees_gps":[48.8758347944,7.73863882524],"code_commune_insee":"67132"},"geometry":{"type":"Point","coordinates":[7.73863882524,48.8758347944]},"record_timestamp":"2016-05-09T15:17:00+02:00"},{"datasetid":"laposte_hexasmal","recordid":"63a7a558303e1991db2d6f6f27ff16e1362b3161","fields":{"nom_de_la_commune":"FESSENHEIM LE BAS","libell_d_acheminement":"FESSENHEIM LE BAS","code_postal":"67117","coordonnees_gps":[48.6322069438,7.54708136376],"code_commune_insee":"67138"},"geometry":{"type":"Point","coordinates":[7.54708136376,48.6322069438]},"record_timestamp":"2016-05-09T15:17:00+02:00"},{"datasetid":"laposte_hexasmal","recordid":"f98d4a7fc88cd429be2e3c1ff771dc34c383cd31","fields":{"nom_de_la_commune":"FOUCHY","libell_d_acheminement":"FOUCHY","code_postal":"67220","coordonnees_gps":[48.316102651,7.24660740823],"code_commune_insee":"67143"},"geometry":{"type":"Point","coordinates":[7.24660740823,48.316102651]},"record_timestamp":"2016-05-09T15:17:00+02:00"},{"datasetid":"laposte_hexasmal","recordid":"f2fc66d9dafaa8636604c70ae2f28a4cc1e1f9e4","fields":{"nom_de_la_commune":"FROHMUHL","libell_d_acheminement":"FROHMUHL","code_postal":"67290","coordonnees_gps":[48.9113095227,7.27923351719],"code_commune_insee":"67148"},"geometry":{"type":"Point","coordinates":[7.27923351719,48.9113095227]},"record_timestamp":"2016-05-09T15:17:00+02:00"},{"datasetid":"laposte_hexasmal","recordid":"46b49fa41f2aff26d1f3d9743631f92e5ed92b33","fields":{"nom_de_la_commune":"GAMBSHEIM","libell_d_acheminement":"GAMBSHEIM","code_postal":"67760","coordonnees_gps":[48.6923110768,7.8840878201],"code_commune_insee":"67151"},"geometry":{"type":"Point","coordinates":[7.8840878201,48.6923110768]},"record_timestamp":"2016-05-09T15:17:00+02:00"},{"datasetid":"laposte_hexasmal","recordid":"fbe9677cca86f56c85aca58bfe2c9598ef93abdc","fields":{"nom_de_la_commune":"GRASSENDORF","libell_d_acheminement":"GRASSENDORF","code_postal":"67350","coordonnees_gps":[48.8148050236,7.61013928029],"code_commune_insee":"67166"},"geometry":{"type":"Point","coordinates":[7.61013928029,48.8148050236]},"record_timestamp":"2016-05-09T15:17:00+02:00"},{"datasetid":"laposte_hexasmal","recordid":"600086a56d53735b5b37d416e2f29690b861e77c","fields":{"code_postal":"67110","code_commune_insee":"67176","libell_d_acheminement":"GUNDERSHOFFEN","ligne_5":"GRIESBACH","nom_de_la_commune":"GUNDERSHOFFEN","coordonnees_gps":[48.9073472641,7.68204357189]},"geometry":{"type":"Point","coordinates":[7.68204357189,48.9073472641]},"record_timestamp":"2016-05-09T15:17:00+02:00"},{"datasetid":"laposte_hexasmal","recordid":"7f45129f330a3a487ccff071dc2a71fc322309cd","fields":{"nom_de_la_commune":"HEILIGENSTEIN","libell_d_acheminement":"HEILIGENSTEIN","code_postal":"67140","coordonnees_gps":[48.4220772866,7.44087809076],"code_commune_insee":"67189"},"geometry":{"type":"Point","coordinates":[7.44087809076,48.4220772866]},"record_timestamp":"2016-05-09T15:17:00+02:00"},{"datasetid":"laposte_hexasmal","recordid":"83aaa9cc6f5759994069ee1be2079fc137d1043b","fields":{"nom_de_la_commune":"HESSENHEIM","libell_d_acheminement":"HESSENHEIM","code_postal":"67390","coordonnees_gps":[48.2054418574,7.55188432622],"code_commune_insee":"67195"},"geometry":{"type":"Point","coordinates":[7.55188432622,48.2054418574]},"record_timestamp":"2016-05-09T15:17:00+02:00"},{"datasetid":"laposte_hexasmal","recordid":"c6841094e7ba492134d9b78886b45d87859dc2c3","fields":{"nom_de_la_commune":"HILSENHEIM","libell_d_acheminement":"HILSENHEIM","code_postal":"67600","coordonnees_gps":[48.2969573251,7.57311937757],"code_commune_insee":"67196"},"geometry":{"type":"Point","coordinates":[7.57311937757,48.2969573251]},"record_timestamp":"2016-05-09T15:17:00+02:00"},{"datasetid":"laposte_hexasmal","recordid":"fecaf8b1a1d2c32c7f9761bfcd605120b8076767","fields":{"nom_de_la_commune":"HIRSCHLAND","libell_d_acheminement":"HIRSCHLAND","code_postal":"67320","coordonnees_gps":[48.8360079859,7.12394256542],"code_commune_insee":"67201"},"geometry":{"type":"Point","coordinates":[7.12394256542,48.8360079859]},"record_timestamp":"2016-05-09T15:17:00+02:00"},{"datasetid":"laposte_hexasmal","recordid":"8ab0cffd09a2f4543639016da1664b8d945a9898","fields":{"nom_de_la_commune":"HOERDT","libell_d_acheminement":"HOERDT","code_postal":"67720","coordonnees_gps":[48.6905674036,7.78483478217],"code_commune_insee":"67205"},"geometry":{"type":"Point","coordinates":[7.78483478217,48.6905674036]},"record_timestamp":"2016-05-09T15:17:00+02:00"},{"datasetid":"laposte_hexasmal","recordid":"edea8c7eca83927348766dac69a0fa22c5380a9a","fields":{"code_postal":"67250","code_commune_insee":"67206","libell_d_acheminement":"HOFFEN","ligne_5":"LEITERSWILLER","nom_de_la_commune":"HOFFEN","coordonnees_gps":[48.9330135449,7.93276702942]},"geometry":{"type":"Point","coordinates":[7.93276702942,48.9330135449]},"record_timestamp":"2016-05-09T15:17:00+02:00"},{"datasetid":"laposte_hexasmal","recordid":"d267b315ca598137adef7992c9b418dddb47b49d","fields":{"nom_de_la_commune":"HUTTENHEIM","libell_d_acheminement":"HUTTENHEIM","code_postal":"67230","coordonnees_gps":[48.3537686447,7.57534532611],"code_commune_insee":"67216"},"geometry":{"type":"Point","coordinates":[7.57534532611,48.3537686447]},"record_timestamp":"2016-05-09T15:17:00+02:00"},{"datasetid":"laposte_hexasmal","recordid":"ba321737e45e9df631ed2fc21991a79386b61077","fields":{"nom_de_la_commune":"ICHTRATZHEIM","libell_d_acheminement":"ICHTRATZHEIM","code_postal":"67640","coordonnees_gps":[48.47895733,7.67769353417],"code_commune_insee":"67217"},"geometry":{"type":"Point","coordinates":[7.67769353417,48.47895733]},"record_timestamp":"2016-05-09T15:17:00+02:00"},{"datasetid":"laposte_hexasmal","recordid":"458721afaa24b7bce49c255f0dfcfbc11123ff15","fields":{"nom_de_la_commune":"NEUGARTHEIM ITTLENHEIM","libell_d_acheminement":"NEUGARTHEIM ITTLENHEIM","code_postal":"67370","coordonnees_gps":[48.6565369611,7.5414687691],"code_commune_insee":"67228"},"geometry":{"type":"Point","coordinates":[7.5414687691,48.6565369611]},"record_timestamp":"2016-05-09T15:17:00+02:00"},{"datasetid":"laposte_hexasmal","recordid":"458413e7b242dcbbdc7f13b1a1b94151619afdd1","fields":{"code_postal":"67370","code_commune_insee":"67228","libell_d_acheminement":"NEUGARTHEIM ITTLENHEIM","ligne_5":"ITTLENHEIM","nom_de_la_commune":"NEUGARTHEIM ITTLENHEIM","coordonnees_gps":[48.6565369611,7.5414687691]},"geometry":{"type":"Point","coordinates":[7.5414687691,48.6565369611]},"record_timestamp":"2016-05-09T15:17:00+02:00"},{"datasetid":"laposte_hexasmal","recordid":"9c98d1581e4f99fdeb9bc0b87dd2d534c5d61096","fields":{"nom_de_la_commune":"KIENHEIM","libell_d_acheminement":"KIENHEIM","code_postal":"67270","coordonnees_gps":[48.6881585203,7.58568269941],"code_commune_insee":"67236"},"geometry":{"type":"Point","coordinates":[7.58568269941,48.6881585203]},"record_timestamp":"2016-05-09T15:17:00+02:00"},{"datasetid":"laposte_hexasmal","recordid":"d85d2abcece2fd21c7aba000a4668bd2252b9076","fields":{"nom_de_la_commune":"KRIEGSHEIM","libell_d_acheminement":"KRIEGSHEIM","code_postal":"67170","coordonnees_gps":[48.7567867136,7.73549910611],"code_commune_insee":"67250"},"geometry":{"type":"Point","coordinates":[7.73549910611,48.7567867136]},"record_timestamp":"2016-05-09T15:17:00+02:00"},{"datasetid":"laposte_hexasmal","recordid":"7810f38ce0074ceac415be81a27deae80c845824","fields":{"code_postal":"67250","code_commune_insee":"67254","libell_d_acheminement":"KUTZENHAUSEN","ligne_5":"OBERKUTZENHAUSEN","nom_de_la_commune":"KUTZENHAUSEN","coordonnees_gps":[48.9388573117,7.8491381943]},"geometry":{"type":"Point","coordinates":[7.8491381943,48.9388573117]},"record_timestamp":"2016-05-09T15:17:00+02:00"},{"datasetid":"laposte_hexasmal","recordid":"f2e8d5168f7d06b4f8b24c3a1ef80ac1770d1b53","fields":{"code_postal":"67220","code_commune_insee":"67255","libell_d_acheminement":"LALAYE","ligne_5":"CHARBES","nom_de_la_commune":"LALAYE","coordonnees_gps":[48.3386901777,7.23525154111]},"geometry":{"type":"Point","coordinates":[7.23525154111,48.3386901777]},"record_timestamp":"2016-05-09T15:17:00+02:00"},{"datasetid":"laposte_hexasmal","recordid":"263667b667d0835a2056a085c72e26b382f94e02","fields":{"nom_de_la_commune":"LANDERSHEIM","libell_d_acheminement":"LANDERSHEIM","code_postal":"67700","coordonnees_gps":[48.6902190893,7.50257928239],"code_commune_insee":"67258"},"geometry":{"type":"Point","coordinates":[7.50257928239,48.6902190893]},"record_timestamp":"2016-05-09T15:17:00+02:00"},{"datasetid":"laposte_hexasmal","recordid":"b18effa8c2e62c8c5931dc1715169b19f5bb104f","fields":{"code_postal":"67510","code_commune_insee":"67263","libell_d_acheminement":"LEMBACH","ligne_5":"MATTSTALL","nom_de_la_commune":"LEMBACH","coordonnees_gps":[49.0124690471,7.768432419]},"geometry":{"type":"Point","coordinates":[7.768432419,49.0124690471]},"record_timestamp":"2016-05-09T15:17:00+02:00"},{"datasetid":"laposte_hexasmal","recordid":"968ec32790dccf87bd9b4de1ecfdf4ec25f18112","fields":{"nom_de_la_commune":"LIMERSHEIM","libell_d_acheminement":"LIMERSHEIM","code_postal":"67150","coordonnees_gps":[48.4538179541,7.63089115629],"code_commune_insee":"67266"},"geometry":{"type":"Point","coordinates":[7.63089115629,48.4538179541]},"record_timestamp":"2016-05-09T15:17:00+02:00"},{"datasetid":"laposte_hexasmal","recordid":"35215e6300fb76b73760a73c1f42b9cf31c5925e","fields":{"nom_de_la_commune":"LUPSTEIN","libell_d_acheminement":"LUPSTEIN","code_postal":"67490","coordonnees_gps":[48.7379650718,7.47592816068],"code_commune_insee":"67275"},"geometry":{"type":"Point","coordinates":[7.47592816068,48.7379650718]},"record_timestamp":"2016-05-09T15:17:00+02:00"},{"datasetid":"laposte_hexasmal","recordid":"1333030e821091c49735246e2282b6042fc01eb9","fields":{"nom_de_la_commune":"MACKENHEIM","libell_d_acheminement":"MACKENHEIM","code_postal":"67390","coordonnees_gps":[48.1826180117,7.58253183432],"code_commune_insee":"67277"},"geometry":{"type":"Point","coordinates":[7.58253183432,48.1826180117]},"record_timestamp":"2016-05-09T15:17:00+02:00"},{"datasetid":"laposte_hexasmal","recordid":"95f80779c78217625b2096f2b57d2cb289166d6e","fields":{"nom_de_la_commune":"MACKWILLER","libell_d_acheminement":"MACKWILLER","code_postal":"67430","coordonnees_gps":[48.9249078232,7.16638709797],"code_commune_insee":"67278"},"geometry":{"type":"Point","coordinates":[7.16638709797,48.9249078232]},"record_timestamp":"2016-05-09T15:17:00+02:00"},{"datasetid":"laposte_hexasmal","recordid":"6c82c159fa0f8b7b2b41770c5b747c274e3d59fa","fields":{"code_postal":"67220","code_commune_insee":"67280","libell_d_acheminement":"MAISONSGOUTTE","ligne_5":"WAGENBACH","nom_de_la_commune":"MAISONSGOUTTE","coordonnees_gps":[48.3535462593,7.25920729014]},"geometry":{"type":"Point","coordinates":[7.25920729014,48.3535462593]},"record_timestamp":"2016-05-09T15:17:00+02:00"},{"datasetid":"laposte_hexasmal","recordid":"cee154e249fbf65178ee6f782bf31dfd38b51f9d","fields":{"nom_de_la_commune":"MENCHHOFFEN","libell_d_acheminement":"MENCHHOFFEN","code_postal":"67340","coordonnees_gps":[48.8636588921,7.49803716008],"code_commune_insee":"67289"},"geometry":{"type":"Point","coordinates":[7.49803716008,48.8636588921]},"record_timestamp":"2016-05-09T15:17:00+02:00"},{"datasetid":"laposte_hexasmal","recordid":"5f4775c49e11d475109d9b324fd88be32b85498d","fields":{"nom_de_la_commune":"MITTELSCHAEFFOLSHEIM","libell_d_acheminement":"MITTELSCHAEFFOLSHEIM","code_postal":"67170","coordonnees_gps":[48.6973385181,7.6517496049],"code_commune_insee":"67298"},"geometry":{"type":"Point","coordinates":[7.6517496049,48.6973385181]},"record_timestamp":"2016-05-09T15:17:00+02:00"},{"datasetid":"laposte_hexasmal","recordid":"9e89653d4521a778503b24720666329454a2bad5","fields":{"nom_de_la_commune":"MONSWILLER","libell_d_acheminement":"MONSWILLER","code_postal":"67700","coordonnees_gps":[48.7521963056,7.38626447438],"code_commune_insee":"67302"},"geometry":{"type":"Point","coordinates":[7.38626447438,48.7521963056]},"record_timestamp":"2016-05-09T15:17:00+02:00"},{"datasetid":"laposte_hexasmal","recordid":"d6d322d625dfce3d92cb1bc1ff9d29055da41271","fields":{"nom_de_la_commune":"MUHLBACH SUR BRUCHE","libell_d_acheminement":"MUHLBACH SUR BRUCHE","code_postal":"67130","coordonnees_gps":[48.5125214509,7.31212371742],"code_commune_insee":"67306"},"geometry":{"type":"Point","coordinates":[7.31212371742,48.5125214509]},"record_timestamp":"2016-05-09T15:17:00+02:00"},{"datasetid":"laposte_hexasmal","recordid":"df6d499c7484b6590913d1edeca6187fd620ecb0","fields":{"nom_de_la_commune":"MULHAUSEN","libell_d_acheminement":"MULHAUSEN","code_postal":"67350","coordonnees_gps":[48.8864927658,7.55485958914],"code_commune_insee":"67307"},"geometry":{"type":"Point","coordinates":[7.55485958914,48.8864927658]},"record_timestamp":"2016-05-09T15:17:00+02:00"},{"datasetid":"laposte_hexasmal","recordid":"8ea43bc8b7c1e256e4a51fae8fdbb66394961cf5","fields":{"nom_de_la_commune":"NEUHAEUSEL","libell_d_acheminement":"NEUHAEUSEL","code_postal":"67480","coordonnees_gps":[48.8185397229,8.09241128897],"code_commune_insee":"67319"},"geometry":{"type":"Point","coordinates":[8.09241128897,48.8185397229]},"record_timestamp":"2016-05-09T15:17:00+02:00"},{"datasetid":"laposte_hexasmal","recordid":"6f432ef22d43dc7f49e70c30c6d95b7cec252a69","fields":{"nom_de_la_commune":"NIEDERLAUTERBACH","libell_d_acheminement":"NIEDERLAUTERBACH","code_postal":"67630","coordonnees_gps":[48.971274266,8.10526672897],"code_commune_insee":"67327"},"geometry":{"type":"Point","coordinates":[8.10526672897,48.971274266]},"record_timestamp":"2016-05-09T15:17:00+02:00"},{"datasetid":"laposte_hexasmal","recordid":"adb5391162abab940cd4895bde365aa7db149def","fields":{"nom_de_la_commune":"NIEDERSOULTZBACH","libell_d_acheminement":"NIEDERSOULTZBACH","code_postal":"67330","coordonnees_gps":[48.8506235374,7.4715582868],"code_commune_insee":"67333"},"geometry":{"type":"Point","coordinates":[7.4715582868,48.8506235374]},"record_timestamp":"2016-05-09T15:17:00+02:00"},{"datasetid":"laposte_hexasmal","recordid":"e01515ed5422cb4f93400476805146ac74a174db","fields":{"nom_de_la_commune":"BETSCHDORF","libell_d_acheminement":"BETSCHDORF","code_postal":"67660","coordonnees_gps":[48.893487303,7.92255309446],"code_commune_insee":"67339"},"geometry":{"type":"Point","coordinates":[7.92255309446,48.893487303]},"record_timestamp":"2016-05-09T15:17:00+02:00"},{"datasetid":"laposte_hexasmal","recordid":"96c2abca5a9f92aeb05cab45cbd61d5167a72e09","fields":{"nom_de_la_commune":"OBERHOFFEN LES WISSEMBOURG","libell_d_acheminement":"OBERHOFFEN LES WISSEMBOURG","code_postal":"67160","coordonnees_gps":[49.0107628213,7.91451933272],"code_commune_insee":"67344"},"geometry":{"type":"Point","coordinates":[7.91451933272,49.0107628213]},"record_timestamp":"2016-05-09T15:17:00+02:00"},{"datasetid":"laposte_hexasmal","recordid":"fb90be5807b15842651ac18d7f8cb4687fc2f63c","fields":{"code_postal":"67240","code_commune_insee":"67345","libell_d_acheminement":"OBERHOFFEN SUR MODER","ligne_5":"CAMP D OBERHOFFEN","nom_de_la_commune":"OBERHOFFEN SUR MODER","coordonnees_gps":[48.7801040272,7.88738513222]},"geometry":{"type":"Point","coordinates":[7.88738513222,48.7801040272]},"record_timestamp":"2016-05-09T15:17:00+02:00"},{"datasetid":"laposte_hexasmal","recordid":"8a343cc9cf295b67f416fc42b90b1f1cda7e65f0","fields":{"nom_de_la_commune":"OBERLAUTERBACH","libell_d_acheminement":"OBERLAUTERBACH","code_postal":"67160","coordonnees_gps":[48.9448114402,8.06578726125],"code_commune_insee":"67346"},"geometry":{"type":"Point","coordinates":[8.06578726125,48.9448114402]},"record_timestamp":"2016-05-09T15:17:00+02:00"},{"datasetid":"laposte_hexasmal","recordid":"ff49715fefe999c4b8920bcec3344489607c0b0b","fields":{"nom_de_la_commune":"OBERSCHAEFFOLSHEIM","libell_d_acheminement":"OBERSCHAEFFOLSHEIM","code_postal":"67203","coordonnees_gps":[48.5919169259,7.64608858988],"code_commune_insee":"67350"},"geometry":{"type":"Point","coordinates":[7.64608858988,48.5919169259]},"record_timestamp":"2016-05-09T15:17:00+02:00"},{"datasetid":"laposte_hexasmal","recordid":"6ee28234e9190008ed7cf50e1a055ebba5a87765","fields":{"code_postal":"67160","code_commune_insee":"67351","libell_d_acheminement":"SEEBACH","ligne_5":"NIEDERSEEBACH","nom_de_la_commune":"SEEBACH","coordonnees_gps":[48.9644209228,7.99028108589]},"geometry":{"type":"Point","coordinates":[7.99028108589,48.9644209228]},"record_timestamp":"2016-05-09T15:17:00+02:00"},{"datasetid":"laposte_hexasmal","recordid":"6b061f9e97ec3cd3e385905d7201ebbd67987535","fields":{"code_postal":"67160","code_commune_insee":"67351","libell_d_acheminement":"SEEBACH","ligne_5":"OBERSEEBACH","nom_de_la_commune":"SEEBACH","coordonnees_gps":[48.9644209228,7.99028108589]},"geometry":{"type":"Point","coordinates":[7.99028108589,48.9644209228]},"record_timestamp":"2016-05-09T15:17:00+02:00"},{"datasetid":"laposte_hexasmal","recordid":"792ec8d880fef1e34ec0a5afda170377c2017524","fields":{"nom_de_la_commune":"OBERSOULTZBACH","libell_d_acheminement":"OBERSOULTZBACH","code_postal":"67330","coordonnees_gps":[48.851369071,7.44768959028],"code_commune_insee":"67352"},"geometry":{"type":"Point","coordinates":[7.44768959028,48.851369071]},"record_timestamp":"2016-05-09T15:17:00+02:00"},{"datasetid":"laposte_hexasmal","recordid":"56d1566e8636eed483639f30b598d4431b24b798","fields":{"code_postal":"67170","code_commune_insee":"67359","libell_d_acheminement":"OHLUNGEN","ligne_5":"KEFFENDORF","nom_de_la_commune":"OHLUNGEN","coordonnees_gps":[48.8121908123,7.69421854068]},"geometry":{"type":"Point","coordinates":[7.69421854068,48.8121908123]},"record_timestamp":"2016-05-09T15:17:00+02:00"},{"datasetid":"laposte_hexasmal","recordid":"0b67fa4d28a2bbeadaca92e1d288168acedcd3c6","fields":{"nom_de_la_commune":"OSTHOFFEN","libell_d_acheminement":"OSTHOFFEN","code_postal":"67990","coordonnees_gps":[48.590139334,7.56183969821],"code_commune_insee":"67363"},"geometry":{"type":"Point","coordinates":[7.56183969821,48.590139334]},"record_timestamp":"2016-05-09T15:17:00+02:00"},{"datasetid":"laposte_hexasmal","recordid":"736d010fd47462f5ae977058d818df9f700a8c34","fields":{"nom_de_la_commune":"OSTWALD","libell_d_acheminement":"OSTWALD","code_postal":"67540","coordonnees_gps":[48.5471323955,7.70760430953],"code_commune_insee":"67365"},"geometry":{"type":"Point","coordinates":[7.70760430953,48.5471323955]},"record_timestamp":"2016-05-09T15:17:00+02:00"},{"datasetid":"laposte_hexasmal","recordid":"f8fb0e0ba3a8b4de13e7b9427062ded48f6101a0","fields":{"nom_de_la_commune":"OTTERSTHAL","libell_d_acheminement":"OTTERSTHAL","code_postal":"67700","coordonnees_gps":[48.7589616687,7.34210158035],"code_commune_insee":"67366"},"geometry":{"type":"Point","coordinates":[7.34210158035,48.7589616687]},"record_timestamp":"2016-05-09T15:17:00+02:00"},{"datasetid":"laposte_hexasmal","recordid":"34ab7c7db3b6c7ebbddf9d875ab1a1f626810db7","fields":{"code_postal":"67350","code_commune_insee":"67372","libell_d_acheminement":"VAL DE MODER","ligne_5":"LA WALCK","nom_de_la_commune":"VAL DE MODER","coordonnees_gps":[48.8432047964,7.59893121728]},"geometry":{"type":"Point","coordinates":[7.59893121728,48.8432047964]},"record_timestamp":"2016-05-09T15:17:00+02:00"},{"datasetid":"laposte_hexasmal","recordid":"351a5313a4059a6841a555183a27b1f83e731b5e","fields":{"nom_de_la_commune":"PLAINE","libell_d_acheminement":"PLAINE","code_postal":"67420","coordonnees_gps":[48.4242524376,7.136828953],"code_commune_insee":"67377"},"geometry":{"type":"Point","coordinates":[7.136828953,48.4242524376]},"record_timestamp":"2016-05-09T15:17:00+02:00"},{"datasetid":"laposte_hexasmal","recordid":"ce056893868facd3970d79cdfe8d8f1b3d086b20","fields":{"code_postal":"67420","code_commune_insee":"67377","libell_d_acheminement":"PLAINE","ligne_5":"POUTAY","nom_de_la_commune":"PLAINE","coordonnees_gps":[48.4242524376,7.136828953]},"geometry":{"type":"Point","coordinates":[7.136828953,48.4242524376]},"record_timestamp":"2016-05-09T15:17:00+02:00"},{"datasetid":"laposte_hexasmal","recordid":"7c61224ef261262a7e0203d94c7ab9e4d401bba0","fields":{"nom_de_la_commune":"PLOBSHEIM","libell_d_acheminement":"PLOBSHEIM","code_postal":"67115","coordonnees_gps":[48.4612697761,7.73493123238],"code_commune_insee":"67378"},"geometry":{"type":"Point","coordinates":[7.73493123238,48.4612697761]},"record_timestamp":"2016-05-09T15:17:00+02:00"},{"datasetid":"laposte_hexasmal","recordid":"e92d4e52e601f305bb1426e19ff7516d2c993dcf","fields":{"nom_de_la_commune":"RANGEN","libell_d_acheminement":"RANGEN","code_postal":"67310","coordonnees_gps":[48.6722666371,7.4769068152],"code_commune_insee":"67383"},"geometry":{"type":"Point","coordinates":[7.4769068152,48.6722666371]},"record_timestamp":"2016-05-09T15:17:00+02:00"},{"datasetid":"laposte_hexasmal","recordid":"bdd2ba178a6edace52f752d27220634e231ba906","fields":{"nom_de_la_commune":"RAUWILLER","libell_d_acheminement":"RAUWILLER","code_postal":"67320","coordonnees_gps":[48.8098418508,7.11166295825],"code_commune_insee":"67386"},"geometry":{"type":"Point","coordinates":[7.11166295825,48.8098418508]},"record_timestamp":"2016-05-09T15:17:00+02:00"},{"datasetid":"laposte_hexasmal","recordid":"06545fc316374087b7983e0f52c9a38bab64c569","fields":{"nom_de_la_commune":"REICHSFELD","libell_d_acheminement":"REICHSFELD","code_postal":"67140","coordonnees_gps":[48.3632176114,7.38013240259],"code_commune_insee":"67387"},"geometry":{"type":"Point","coordinates":[7.38013240259,48.3632176114]},"record_timestamp":"2016-05-09T15:17:00+02:00"},{"datasetid":"laposte_hexasmal","recordid":"8fb13c235a1bae8618a796d00005eee02e7c530d","fields":{"nom_de_la_commune":"REICHSTETT","libell_d_acheminement":"REICHSTETT","code_postal":"67116","coordonnees_gps":[48.6474873068,7.75703020685],"code_commune_insee":"67389"},"geometry":{"type":"Point","coordinates":[7.75703020685,48.6474873068]},"record_timestamp":"2016-05-09T15:17:00+02:00"},{"datasetid":"laposte_hexasmal","recordid":"cbb742c551bdf3aaa55f414291d56fca3f9d429f","fields":{"nom_de_la_commune":"REINHARDSMUNSTER","libell_d_acheminement":"REINHARDSMUNSTER","code_postal":"67440","coordonnees_gps":[48.6824887091,7.29960945429],"code_commune_insee":"67391"},"geometry":{"type":"Point","coordinates":[7.29960945429,48.6824887091]},"record_timestamp":"2016-05-09T15:17:00+02:00"},{"datasetid":"laposte_hexasmal","recordid":"cf5bafa7689e8927706c925836a3320f9fb1effc","fields":{"nom_de_la_commune":"REIPERTSWILLER","libell_d_acheminement":"REIPERTSWILLER","code_postal":"67340","coordonnees_gps":[48.9475831775,7.44744692113],"code_commune_insee":"67392"},"geometry":{"type":"Point","coordinates":[7.44744692113,48.9475831775]},"record_timestamp":"2016-05-09T15:17:00+02:00"},{"datasetid":"laposte_hexasmal","recordid":"854077414744989db519732c7f1ae5da95016655","fields":{"nom_de_la_commune":"RETSCHWILLER","libell_d_acheminement":"RETSCHWILLER","code_postal":"67250","coordonnees_gps":[48.9509410927,7.8859650468],"code_commune_insee":"67394"},"geometry":{"type":"Point","coordinates":[7.8859650468,48.9509410927]},"record_timestamp":"2016-05-09T15:17:00+02:00"},{"datasetid":"laposte_hexasmal","recordid":"0937e4efc4f2751a79429fc941f942d6c30a4e3e","fields":{"nom_de_la_commune":"ROPPENHEIM","libell_d_acheminement":"ROPPENHEIM","code_postal":"67480","coordonnees_gps":[48.837297524,8.06719387329],"code_commune_insee":"67409"},"geometry":{"type":"Point","coordinates":[8.06719387329,48.837297524]},"record_timestamp":"2016-05-09T15:17:00+02:00"},{"datasetid":"laposte_hexasmal","recordid":"7de606e7c7bafad6f49e7720d2dae44fe60fac23","fields":{"nom_de_la_commune":"SAESSOLSHEIM","libell_d_acheminement":"SAESSOLSHEIM","code_postal":"67270","coordonnees_gps":[48.7083552317,7.51301777212],"code_commune_insee":"67423"},"geometry":{"type":"Point","coordinates":[7.51301777212,48.7083552317]},"record_timestamp":"2016-05-09T15:17:00+02:00"},{"datasetid":"laposte_hexasmal","recordid":"af14ce9d75d19f5660d8c60352bd2033ec3c64c4","fields":{"nom_de_la_commune":"ST JEAN SAVERNE","libell_d_acheminement":"ST JEAN SAVERNE","code_postal":"67700","coordonnees_gps":[48.7782167422,7.3556231734],"code_commune_insee":"67425"},"geometry":{"type":"Point","coordinates":[7.3556231734,48.7782167422]},"record_timestamp":"2016-05-09T15:17:00+02:00"},{"datasetid":"laposte_hexasmal","recordid":"b390e9cfd7ca7206c9751cc68894f8bc1eb7ac7a","fields":{"code_postal":"67220","code_commune_insee":"67430","libell_d_acheminement":"ST PIERRE BOIS","ligne_5":"HOHWARTH","nom_de_la_commune":"ST PIERRE BOIS","coordonnees_gps":[48.3357426244,7.36372911449]},"geometry":{"type":"Point","coordinates":[7.36372911449,48.3357426244]},"record_timestamp":"2016-05-09T15:17:00+02:00"},{"datasetid":"laposte_hexasmal","recordid":"28e9b28b33f6f9bf25fd226ba63610aee0723c08","fields":{"nom_de_la_commune":"SAULXURES","libell_d_acheminement":"SAULXURES","code_postal":"67420","coordonnees_gps":[48.3924491684,7.1235892563],"code_commune_insee":"67436"},"geometry":{"type":"Point","coordinates":[7.1235892563,48.3924491684]},"record_timestamp":"2016-05-09T15:17:00+02:00"},{"datasetid":"laposte_hexasmal","recordid":"d55193c0daf93a33cf5299b14bda7c8874f2cbcc","fields":{"code_postal":"67700","code_commune_insee":"67437","libell_d_acheminement":"SAVERNE","ligne_5":"ZORNHOF","nom_de_la_commune":"SAVERNE","coordonnees_gps":[48.7402250066,7.34206238199]},"geometry":{"type":"Point","coordinates":[7.34206238199,48.7402250066]},"record_timestamp":"2016-05-09T15:17:00+02:00"},{"datasetid":"laposte_hexasmal","recordid":"62f778762d07611db65ab7e4be4de59175ec144b","fields":{"nom_de_la_commune":"SCHALKENDORF","libell_d_acheminement":"SCHALKENDORF","code_postal":"67350","coordonnees_gps":[48.8369254712,7.56834375318],"code_commune_insee":"67441"},"geometry":{"type":"Point","coordinates":[7.56834375318,48.8369254712]},"record_timestamp":"2016-05-09T15:17:00+02:00"},{"datasetid":"laposte_hexasmal","recordid":"b99dd7b0ff388b30193813b4ef34254d692d923d","fields":{"nom_de_la_commune":"SCHERLENHEIM","libell_d_acheminement":"SCHERLENHEIM","code_postal":"67270","coordonnees_gps":[48.7660880313,7.53344245942],"code_commune_insee":"67444"},"geometry":{"type":"Point","coordinates":[7.53344245942,48.7660880313]},"record_timestamp":"2016-05-09T15:17:00+02:00"},{"datasetid":"laposte_hexasmal","recordid":"b5c1da9768218e70ddddff58d5e68deb5de503e7","fields":{"nom_de_la_commune":"SCHILTIGHEIM","libell_d_acheminement":"SCHILTIGHEIM","code_postal":"67300","coordonnees_gps":[48.6118660258,7.74408199334],"code_commune_insee":"67447"},"geometry":{"type":"Point","coordinates":[7.74408199334,48.6118660258]},"record_timestamp":"2016-05-09T15:17:00+02:00"},{"datasetid":"laposte_hexasmal","recordid":"7d068ca3d05787311da0d4d82de577ea5ad22221","fields":{"nom_de_la_commune":"SCHIRRHOFFEN","libell_d_acheminement":"SCHIRRHOFFEN","code_postal":"67240","coordonnees_gps":[48.8069986345,7.92537675508],"code_commune_insee":"67450"},"geometry":{"type":"Point","coordinates":[7.92537675508,48.8069986345]},"record_timestamp":"2016-05-09T15:17:00+02:00"},{"datasetid":"laposte_hexasmal","recordid":"28c18c0f3388739a1a681b0262ba2aaf0432f949","fields":{"nom_de_la_commune":"SCHLEITHAL","libell_d_acheminement":"SCHLEITHAL","code_postal":"67160","coordonnees_gps":[48.9866877882,8.03245786047],"code_commune_insee":"67451"},"geometry":{"type":"Point","coordinates":[8.03245786047,48.9866877882]},"record_timestamp":"2016-05-09T15:17:00+02:00"},{"datasetid":"laposte_hexasmal","recordid":"218382f224cc55b041a480a30b29e2e88e4153c0","fields":{"nom_de_la_commune":"SCHOENAU","libell_d_acheminement":"SCHOENAU","code_postal":"67390","coordonnees_gps":[48.2260065064,7.65066673603],"code_commune_insee":"67453"},"geometry":{"type":"Point","coordinates":[7.65066673603,48.2260065064]},"record_timestamp":"2016-05-09T15:17:00+02:00"},{"datasetid":"laposte_hexasmal","recordid":"e529393ff71711017d54c62ec4f37fae93b7cabd","fields":{"nom_de_la_commune":"SCHOENENBOURG","libell_d_acheminement":"SCHOENENBOURG","code_postal":"67250","coordonnees_gps":[48.9503956142,7.91692156596],"code_commune_insee":"67455"},"geometry":{"type":"Point","coordinates":[7.91692156596,48.9503956142]},"record_timestamp":"2016-05-09T15:17:00+02:00"},{"datasetid":"laposte_hexasmal","recordid":"5f82e085c6a8aca46443972af8340c7a41939dce","fields":{"nom_de_la_commune":"SIEGEN","libell_d_acheminement":"SIEGEN","code_postal":"67160","coordonnees_gps":[48.957145226,8.03962378793],"code_commune_insee":"67466"},"geometry":{"type":"Point","coordinates":[8.03962378793,48.957145226]},"record_timestamp":"2016-05-09T15:17:00+02:00"},{"datasetid":"laposte_hexasmal","recordid":"b96f977456710028163fdb4c5e5f1ac7f6474601","fields":{"nom_de_la_commune":"SOULTZ SOUS FORETS","libell_d_acheminement":"SOULTZ SOUS FORETS","code_postal":"67250","coordonnees_gps":[48.9461642075,7.87359864642],"code_commune_insee":"67474"},"geometry":{"type":"Point","coordinates":[7.87359864642,48.9461642075]},"record_timestamp":"2016-05-09T15:17:00+02:00"},{"datasetid":"laposte_hexasmal","recordid":"30e5c0b1f5924e7803a5cfd0f3c56c147948a903","fields":{"nom_de_la_commune":"SPARSBACH","libell_d_acheminement":"SPARSBACH","code_postal":"67340","coordonnees_gps":[48.8795880756,7.40029606816],"code_commune_insee":"67475"},"geometry":{"type":"Point","coordinates":[7.40029606816,48.8795880756]},"record_timestamp":"2016-05-09T15:17:00+02:00"},{"datasetid":"laposte_hexasmal","recordid":"21da8098e863cc89f3dade08165f069608cac676","fields":{"nom_de_la_commune":"STEINSELTZ","libell_d_acheminement":"STEINSELTZ","code_postal":"67160","coordonnees_gps":[49.0050564823,7.92824415815],"code_commune_insee":"67479"},"geometry":{"type":"Point","coordinates":[7.92824415815,49.0050564823]},"record_timestamp":"2016-05-09T15:17:00+02:00"},{"datasetid":"laposte_hexasmal","recordid":"9807fe55291377d52a494ea254752fc57aab6657","fields":{"nom_de_la_commune":"STRASBOURG","libell_d_acheminement":"STRASBOURG","code_postal":"67100","coordonnees_gps":[48.5712679849,7.76752679517],"code_commune_insee":"67482"},"geometry":{"type":"Point","coordinates":[7.76752679517,48.5712679849]},"record_timestamp":"2016-05-09T15:17:00+02:00"},{"datasetid":"laposte_hexasmal","recordid":"f90f18ef3faa29e89e9fa09949053ec79d193207","fields":{"code_postal":"67370","code_commune_insee":"67485","libell_d_acheminement":"STUTZHEIM OFFENHEIM","ligne_5":"OFFENHEIM","nom_de_la_commune":"STUTZHEIM OFFENHEIM","coordonnees_gps":[48.6266854677,7.62711611103]},"geometry":{"type":"Point","coordinates":[7.62711611103,48.6266854677]},"record_timestamp":"2016-05-09T15:17:00+02:00"},{"datasetid":"laposte_hexasmal","recordid":"8f63f3d240a5ba1c654dd711f9f55389aa42ca17","fields":{"nom_de_la_commune":"TIEFFENBACH","libell_d_acheminement":"TIEFFENBACH","code_postal":"67290","coordonnees_gps":[48.9024013107,7.24423915317],"code_commune_insee":"67491"},"geometry":{"type":"Point","coordinates":[7.24423915317,48.9024013107]},"record_timestamp":"2016-05-09T15:17:00+02:00"},{"datasetid":"laposte_hexasmal","recordid":"c50c228b1222567efb1e119b3e7b18b49e357f31","fields":{"nom_de_la_commune":"TRIEMBACH AU VAL","libell_d_acheminement":"TRIEMBACH AU VAL","code_postal":"67220","coordonnees_gps":[48.3434265529,7.33416002911],"code_commune_insee":"67493"},"geometry":{"type":"Point","coordinates":[7.33416002911,48.3434265529]},"record_timestamp":"2016-05-09T15:17:00+02:00"},{"datasetid":"laposte_hexasmal","recordid":"0d5b853db316005f287dea13f45cb7b6942258d3","fields":{"code_postal":"67370","code_commune_insee":"67495","libell_d_acheminement":"TRUCHTERSHEIM","ligne_5":"PFETTISHEIM","nom_de_la_commune":"TRUCHTERSHEIM","coordonnees_gps":[48.6564842295,7.61650465885]},"geometry":{"type":"Point","coordinates":[7.61650465885,48.6564842295]},"record_timestamp":"2016-05-09T15:17:00+02:00"},{"datasetid":"laposte_hexasmal","recordid":"162e4888bcf9ab11573ea155f73b3c7d6f270097","fields":{"nom_de_la_commune":"UHLWILLER","libell_d_acheminement":"UHLWILLER","code_postal":"67350","coordonnees_gps":[48.8202578689,7.67470803749],"code_commune_insee":"67497"},"geometry":{"type":"Point","coordinates":[7.67470803749,48.8202578689]},"record_timestamp":"2016-05-09T15:17:00+02:00"},{"datasetid":"laposte_hexasmal","recordid":"806a43c0b6c6b0b45fbdfc853ff3a864cba53858","fields":{"nom_de_la_commune":"URBEIS","libell_d_acheminement":"URBEIS","code_postal":"67220","coordonnees_gps":[48.3323782294,7.20301847743],"code_commune_insee":"67499"},"geometry":{"type":"Point","coordinates":[7.20301847743,48.3323782294]},"record_timestamp":"2016-05-09T15:17:00+02:00"},{"datasetid":"laposte_hexasmal","recordid":"5a5626523794168e908b520766b3dffd121aafa6","fields":{"nom_de_la_commune":"VALFF","libell_d_acheminement":"VALFF","code_postal":"67210","coordonnees_gps":[48.4221033053,7.52644718944],"code_commune_insee":"67504"},"geometry":{"type":"Point","coordinates":[7.52644718944,48.4221033053]},"record_timestamp":"2016-05-09T15:17:00+02:00"},{"datasetid":"laposte_hexasmal","recordid":"866dd58b8d2d4d5b8f6a7d6bab7cc08147b0507c","fields":{"nom_de_la_commune":"VOLKSBERG","libell_d_acheminement":"VOLKSBERG","code_postal":"67290","coordonnees_gps":[48.940471202,7.29797593831],"code_commune_insee":"67509"},"geometry":{"type":"Point","coordinates":[7.29797593831,48.940471202]},"record_timestamp":"2016-05-09T15:17:00+02:00"},{"datasetid":"laposte_hexasmal","recordid":"2065c03ce49c89621a46a0d48c2dac09beee2439","fields":{"nom_de_la_commune":"WALDHAMBACH","libell_d_acheminement":"WALDHAMBACH","code_postal":"67430","coordonnees_gps":[48.9271512817,7.2306707984],"code_commune_insee":"67514"},"geometry":{"type":"Point","coordinates":[7.2306707984,48.9271512817]},"record_timestamp":"2016-05-09T15:17:00+02:00"},{"datasetid":"laposte_hexasmal","recordid":"fc440ec730472a29421d4e041c2b2a1656f9e57c","fields":{"nom_de_la_commune":"WANGEN","libell_d_acheminement":"WANGEN","code_postal":"67520","coordonnees_gps":[48.6188684237,7.46340283895],"code_commune_insee":"67517"},"geometry":{"type":"Point","coordinates":[7.46340283895,48.6188684237]},"record_timestamp":"2016-05-09T15:17:00+02:00"},{"datasetid":"laposte_hexasmal","recordid":"e0aa87e4d511f1f5f611c560675d11f86f1336f7","fields":{"nom_de_la_commune":"WEISLINGEN","libell_d_acheminement":"WEISLINGEN","code_postal":"67290","coordonnees_gps":[48.9192784207,7.25784429593],"code_commune_insee":"67522"},"geometry":{"type":"Point","coordinates":[7.25784429593,48.9192784207]},"record_timestamp":"2016-05-09T15:17:00+02:00"},{"datasetid":"laposte_hexasmal","recordid":"3b6612be12cf2e8a03717d83e85f995afb96d803","fields":{"nom_de_la_commune":"WEITERSWILLER","libell_d_acheminement":"WEITERSWILLER","code_postal":"67340","coordonnees_gps":[48.8549695809,7.40901430205],"code_commune_insee":"67524"},"geometry":{"type":"Point","coordinates":[7.40901430205,48.8549695809]},"record_timestamp":"2016-05-09T15:17:00+02:00"},{"datasetid":"laposte_hexasmal","recordid":"9cc7b18e20c7646c0a5119659c0737ef312c3511","fields":{"nom_de_la_commune":"WEYER","libell_d_acheminement":"WEYER","code_postal":"67320","coordonnees_gps":[48.858764489,7.16208154442],"code_commune_insee":"67528"},"geometry":{"type":"Point","coordinates":[7.16208154442,48.858764489]},"record_timestamp":"2016-05-09T15:17:00+02:00"},{"datasetid":"laposte_hexasmal","recordid":"7125a41ccb8ff425f9dc08a009cf3e224a31f475","fields":{"nom_de_la_commune":"WEYERSHEIM","libell_d_acheminement":"WEYERSHEIM","code_postal":"67720","coordonnees_gps":[48.7165328229,7.83088991844],"code_commune_insee":"67529"},"geometry":{"type":"Point","coordinates":[7.83088991844,48.7165328229]},"record_timestamp":"2016-05-09T15:17:00+02:00"},{"datasetid":"laposte_hexasmal","recordid":"6ca46e0a326c0c14a3567eb69021c1bd33a56874","fields":{"nom_de_la_commune":"WILDERSBACH","libell_d_acheminement":"WILDERSBACH","code_postal":"67130","coordonnees_gps":[48.4358512521,7.22390399237],"code_commune_insee":"67531"},"geometry":{"type":"Point","coordinates":[7.22390399237,48.4358512521]},"record_timestamp":"2016-05-09T15:17:00+02:00"},{"datasetid":"laposte_hexasmal","recordid":"eba32cdfd398006a354eb646d289740ac029c71f","fields":{"code_postal":"67370","code_commune_insee":"67532","libell_d_acheminement":"WILLGOTTHEIM","ligne_5":"WOELLENHEIM","nom_de_la_commune":"WILLGOTTHEIM","coordonnees_gps":[48.6735628136,7.51567430993]},"geometry":{"type":"Point","coordinates":[7.51567430993,48.6735628136]},"record_timestamp":"2016-05-09T15:17:00+02:00"},{"datasetid":"laposte_hexasmal","recordid":"1a51611e934e514bda50d65507c86784f7f2645b","fields":{"nom_de_la_commune":"WINGEN","libell_d_acheminement":"WINGEN","code_postal":"67510","coordonnees_gps":[49.0391731666,7.81446231798],"code_commune_insee":"67537"},"geometry":{"type":"Point","coordinates":[7.81446231798,49.0391731666]},"record_timestamp":"2016-05-09T15:17:00+02:00"},{"datasetid":"laposte_hexasmal","recordid":"4c897f5d1e94f85c1558ecb7b82f1f0cd581f251","fields":{"code_postal":"67170","code_commune_insee":"67539","libell_d_acheminement":"WINGERSHEIM LES QUATRE BANS","ligne_5":"MITTELHAUSEN","nom_de_la_commune":"WINGERSHEIM LES QUATRE BANS","coordonnees_gps":[48.7299632936,7.63820636503]},"geometry":{"type":"Point","coordinates":[7.63820636503,48.7299632936]},"record_timestamp":"2016-05-09T15:17:00+02:00"},{"datasetid":"laposte_hexasmal","recordid":"9f49ed9b7fcbcb3b5a146ce67f5107b96cad8dcb","fields":{"code_postal":"67270","code_commune_insee":"67539","libell_d_acheminement":"WINGERSHEIM LES QUATRE BANS","ligne_5":"GINGSHEIM","nom_de_la_commune":"WINGERSHEIM LES QUATRE BANS","coordonnees_gps":[48.7299632936,7.63820636503]},"geometry":{"type":"Point","coordinates":[7.63820636503,48.7299632936]},"record_timestamp":"2016-05-09T15:17:00+02:00"},{"datasetid":"laposte_hexasmal","recordid":"53e7f9702bb83b5848e33838fe756a8d4f5d466b","fields":{"nom_de_la_commune":"WIWERSHEIM","libell_d_acheminement":"WIWERSHEIM","code_postal":"67370","coordonnees_gps":[48.6379420012,7.59735898171],"code_commune_insee":"67548"},"geometry":{"type":"Point","coordinates":[7.59735898171,48.6379420012]},"record_timestamp":"2016-05-09T15:17:00+02:00"},{"datasetid":"laposte_hexasmal","recordid":"120405a32474d358864bd035fa4a5d8fc516b8d9","fields":{"nom_de_la_commune":"ZINSWILLER","libell_d_acheminement":"ZINSWILLER","code_postal":"67110","coordonnees_gps":[48.9161140099,7.58112323048],"code_commune_insee":"67558"},"geometry":{"type":"Point","coordinates":[7.58112323048,48.9161140099]},"record_timestamp":"2016-05-09T15:17:00+02:00"},{"datasetid":"laposte_hexasmal","recordid":"2cb69ff7417ccb50694b856044671b8dc06e93da","fields":{"nom_de_la_commune":"OBERSTEINBACH","libell_d_acheminement":"OBERSTEINBACH","code_postal":"67510","coordonnees_gps":[49.0379940706,7.67309796819],"code_commune_insee":"67353"},"geometry":{"type":"Point","coordinates":[7.67309796819,49.0379940706]},"record_timestamp":"2016-05-09T15:17:00+02:00"},{"datasetid":"laposte_hexasmal","recordid":"f20c6d29f715999a035fb79afca2ecaf8bc7b5ec","fields":{"nom_de_la_commune":"OLWISHEIM","libell_d_acheminement":"OLWISHEIM","code_postal":"67170","coordonnees_gps":[48.6977790108,7.67388730631],"code_commune_insee":"67361"},"geometry":{"type":"Point","coordinates":[7.67388730631,48.6977790108]},"record_timestamp":"2016-05-09T15:17:00+02:00"},{"datasetid":"laposte_hexasmal","recordid":"daaa96a35ae801fd7deb5def071f282eb0a80e8c","fields":{"nom_de_la_commune":"OTTROTT","libell_d_acheminement":"OTTROTT","code_postal":"67530","coordonnees_gps":[48.4434374839,7.36707935429],"code_commune_insee":"67368"},"geometry":{"type":"Point","coordinates":[7.36707935429,48.4434374839]},"record_timestamp":"2016-05-09T15:17:00+02:00"},{"datasetid":"laposte_hexasmal","recordid":"30ac0afdfc52f77bb0bb32941fa740776150b5c3","fields":{"code_postal":"67350","code_commune_insee":"67372","libell_d_acheminement":"VAL DE MODER","ligne_5":"UBERACH","nom_de_la_commune":"VAL DE MODER","coordonnees_gps":[48.8432047964,7.59893121728]},"geometry":{"type":"Point","coordinates":[7.59893121728,48.8432047964]},"record_timestamp":"2016-05-09T15:17:00+02:00"},{"datasetid":"laposte_hexasmal","recordid":"574f1d86d651a69b436a7aff52bc2fdc10b474d2","fields":{"nom_de_la_commune":"PFALZWEYER","libell_d_acheminement":"PFALZWEYER","code_postal":"67320","coordonnees_gps":[48.8087234106,7.25966087365],"code_commune_insee":"67373"},"geometry":{"type":"Point","coordinates":[7.25966087365,48.8087234106]},"record_timestamp":"2016-05-09T15:17:00+02:00"},{"datasetid":"laposte_hexasmal","recordid":"88cd786cf47c76ebb2db904a671cb4879516e239","fields":{"nom_de_la_commune":"PRINTZHEIM","libell_d_acheminement":"PRINTZHEIM","code_postal":"67490","coordonnees_gps":[48.7920916691,7.47697747581],"code_commune_insee":"67380"},"geometry":{"type":"Point","coordinates":[7.47697747581,48.7920916691]},"record_timestamp":"2016-05-09T15:17:00+02:00"},{"datasetid":"laposte_hexasmal","recordid":"0e0fd62c9b01dda86b2e712c41212fbd0f3df4fd","fields":{"nom_de_la_commune":"RIEDSELTZ","libell_d_acheminement":"RIEDSELTZ","code_postal":"67160","coordonnees_gps":[48.9891485983,7.94873374892],"code_commune_insee":"67400"},"geometry":{"type":"Point","coordinates":[7.94873374892,48.9891485983]},"record_timestamp":"2016-05-09T15:17:00+02:00"},{"datasetid":"laposte_hexasmal","recordid":"88366eb51341210632871420d1267605e567ac76","fields":{"nom_de_la_commune":"ROSTEIG","libell_d_acheminement":"ROSTEIG","code_postal":"67290","coordonnees_gps":[48.9319268767,7.33608226075],"code_commune_insee":"67413"},"geometry":{"type":"Point","coordinates":[7.33608226075,48.9319268767]},"record_timestamp":"2016-05-09T15:17:00+02:00"},{"datasetid":"laposte_hexasmal","recordid":"18a9d799b273e0ee071483a5e62b7ac8051aedad","fields":{"nom_de_la_commune":"SAASENHEIM","libell_d_acheminement":"SAASENHEIM","code_postal":"67390","coordonnees_gps":[48.239955028,7.62929125209],"code_commune_insee":"67422"},"geometry":{"type":"Point","coordinates":[7.62929125209,48.239955028]},"record_timestamp":"2016-05-09T15:17:00+02:00"},{"datasetid":"laposte_hexasmal","recordid":"26d8c0503da0f8abd0a9dda0e944450093c79b73","fields":{"nom_de_la_commune":"ST NABOR","libell_d_acheminement":"ST NABOR","code_postal":"67530","coordonnees_gps":[48.4414538675,7.41761781742],"code_commune_insee":"67428"},"geometry":{"type":"Point","coordinates":[7.41761781742,48.4414538675]},"record_timestamp":"2016-05-09T15:17:00+02:00"},{"datasetid":"laposte_hexasmal","recordid":"e04ca9b6dbfa2438171603d6f064a7de5cf6c151","fields":{"nom_de_la_commune":"SARRE UNION","libell_d_acheminement":"SARRE UNION","code_postal":"67260","coordonnees_gps":[48.9451866571,7.08863161456],"code_commune_insee":"67434"},"geometry":{"type":"Point","coordinates":[7.08863161456,48.9451866571]},"record_timestamp":"2016-05-09T15:17:00+02:00"},{"datasetid":"laposte_hexasmal","recordid":"21851006170acd008006f9ed4a33ef6753567c51","fields":{"code_postal":"67260","code_commune_insee":"67435","libell_d_acheminement":"SARREWERDEN","ligne_5":"ZOLLINGEN","nom_de_la_commune":"SARREWERDEN","coordonnees_gps":[48.9076740897,7.07306614237]},"geometry":{"type":"Point","coordinates":[7.07306614237,48.9076740897]},"record_timestamp":"2016-05-09T15:17:00+02:00"},{"datasetid":"laposte_hexasmal","recordid":"47af5ca32dafeff7555678a77fd52686ef0f1557","fields":{"nom_de_la_commune":"SCHEIBENHARD","libell_d_acheminement":"SCHEIBENHARD","code_postal":"67630","coordonnees_gps":[48.9694902772,8.14441884715],"code_commune_insee":"67443"},"geometry":{"type":"Point","coordinates":[8.14441884715,48.9694902772]},"record_timestamp":"2016-05-09T15:17:00+02:00"},{"datasetid":"laposte_hexasmal","recordid":"697e74f2310d4b96bd6f40e540cb1dad37eeb05f","fields":{"code_postal":"67750","code_commune_insee":"67445","libell_d_acheminement":"SCHERWILLER","ligne_5":"KIENTZVILLE","nom_de_la_commune":"SCHERWILLER","coordonnees_gps":[48.2952491317,7.41512520333]},"geometry":{"type":"Point","coordinates":[7.41512520333,48.2952491317]},"record_timestamp":"2016-05-09T15:17:00+02:00"},{"datasetid":"laposte_hexasmal","recordid":"2ba065e0672ef114791649e0764c25b2ce656e6f","fields":{"code_postal":"67130","code_commune_insee":"67448","libell_d_acheminement":"SCHIRMECK","ligne_5":"WACKENBACH","nom_de_la_commune":"SCHIRMECK","coordonnees_gps":[48.4922866758,7.19802185316]},"geometry":{"type":"Point","coordinates":[7.19802185316,48.4922866758]},"record_timestamp":"2016-05-09T15:17:00+02:00"},{"datasetid":"laposte_hexasmal","recordid":"e430d51a8378fe4ecc4fcd4c00f2f91ccb5bb9c9","fields":{"nom_de_la_commune":"SCHOPPERTEN","libell_d_acheminement":"SCHOPPERTEN","code_postal":"67260","coordonnees_gps":[48.9475398723,7.05381254412],"code_commune_insee":"67456"},"geometry":{"type":"Point","coordinates":[7.05381254412,48.9475398723]},"record_timestamp":"2016-05-09T15:17:00+02:00"},{"datasetid":"laposte_hexasmal","recordid":"880f5188c6aba8fc62c68aaab213889923061c63","fields":{"nom_de_la_commune":"SCHWENHEIM","libell_d_acheminement":"SCHWENHEIM","code_postal":"67440","coordonnees_gps":[48.7149255569,7.41004083904],"code_commune_insee":"67459"},"geometry":{"type":"Point","coordinates":[7.41004083904,48.7149255569]},"record_timestamp":"2016-05-09T15:17:00+02:00"},{"datasetid":"laposte_hexasmal","recordid":"c9942ea396cce008d600246b2a171ca15cebdd9f","fields":{"nom_de_la_commune":"SCHWOBSHEIM","libell_d_acheminement":"SCHWOBSHEIM","code_postal":"67390","coordonnees_gps":[48.2365028477,7.57432904061],"code_commune_insee":"67461"},"geometry":{"type":"Point","coordinates":[7.57432904061,48.2365028477]},"record_timestamp":"2016-05-09T15:17:00+02:00"},{"datasetid":"laposte_hexasmal","recordid":"319c081ae05e5ac444c2509b30aafb5920adc49a","fields":{"nom_de_la_commune":"SESSENHEIM","libell_d_acheminement":"SESSENHEIM","code_postal":"67770","coordonnees_gps":[48.7952349211,7.98061145834],"code_commune_insee":"67465"},"geometry":{"type":"Point","coordinates":[7.98061145834,48.7952349211]},"record_timestamp":"2016-05-09T15:17:00+02:00"},{"datasetid":"laposte_hexasmal","recordid":"75514bea71f43e1231cf2678800ce52ced7ccae8","fields":{"nom_de_la_commune":"SILTZHEIM","libell_d_acheminement":"SILTZHEIM","code_postal":"67260","coordonnees_gps":[49.061608516,7.09081368964],"code_commune_insee":"67468"},"geometry":{"type":"Point","coordinates":[7.09081368964,49.061608516]},"record_timestamp":"2016-05-09T15:17:00+02:00"},{"datasetid":"laposte_hexasmal","recordid":"ca60b5d315bcc7496fd149fcd67f2f5e37c4f73c","fields":{"nom_de_la_commune":"STATTMATTEN","libell_d_acheminement":"STATTMATTEN","code_postal":"67770","coordonnees_gps":[48.794852744,8.01771717593],"code_commune_insee":"67476"},"geometry":{"type":"Point","coordinates":[8.01771717593,48.794852744]},"record_timestamp":"2016-05-09T15:17:00+02:00"},{"datasetid":"laposte_hexasmal","recordid":"946a4c09945666e4c27e134a95dfcdaf35310398","fields":{"nom_de_la_commune":"STILL","libell_d_acheminement":"STILL","code_postal":"67190","coordonnees_gps":[48.5666223105,7.36640588547],"code_commune_insee":"67480"},"geometry":{"type":"Point","coordinates":[7.36640588547,48.5666223105]},"record_timestamp":"2016-05-09T15:17:00+02:00"},{"datasetid":"laposte_hexasmal","recordid":"75e0d06f79a0deefb10465cd38f838ca60bb42d4","fields":{"nom_de_la_commune":"STOTZHEIM","libell_d_acheminement":"STOTZHEIM","code_postal":"67140","coordonnees_gps":[48.3757768768,7.50674742372],"code_commune_insee":"67481"},"geometry":{"type":"Point","coordinates":[7.50674742372,48.3757768768]},"record_timestamp":"2016-05-09T15:17:00+02:00"},{"datasetid":"laposte_hexasmal","recordid":"9331bfcc1bb3fb3c80acfb217d939873d666f843","fields":{"nom_de_la_commune":"UTTENHEIM","libell_d_acheminement":"UTTENHEIM","code_postal":"67150","coordonnees_gps":[48.4140516502,7.59572846761],"code_commune_insee":"67501"},"geometry":{"type":"Point","coordinates":[7.59572846761,48.4140516502]},"record_timestamp":"2016-05-09T15:17:00+02:00"},{"datasetid":"laposte_hexasmal","recordid":"39bdcae60dc46099a3f468c3a94b2ff5563ddd93","fields":{"nom_de_la_commune":"UTTWILLER","libell_d_acheminement":"UTTWILLER","code_postal":"67330","coordonnees_gps":[48.8464668751,7.49650290601],"code_commune_insee":"67503"},"geometry":{"type":"Point","coordinates":[7.49650290601,48.8464668751]},"record_timestamp":"2016-05-09T15:17:00+02:00"},{"datasetid":"laposte_hexasmal","recordid":"b74a3d1a6227311a2f285c7c0a5d71ce9feb1159","fields":{"nom_de_la_commune":"WAHLENHEIM","libell_d_acheminement":"WAHLENHEIM","code_postal":"67170","coordonnees_gps":[48.7659087091,7.68693403664],"code_commune_insee":"67510"},"geometry":{"type":"Point","coordinates":[7.68693403664,48.7659087091]},"record_timestamp":"2016-05-09T15:17:00+02:00"},{"datasetid":"laposte_hexasmal","recordid":"1beec6b238cb2a537cbab23407b05bfa5fce6b59","fields":{"nom_de_la_commune":"WALBOURG","libell_d_acheminement":"WALBOURG","code_postal":"67360","coordonnees_gps":[48.8857093075,7.78279699588],"code_commune_insee":"67511"},"geometry":{"type":"Point","coordinates":[7.78279699588,48.8857093075]},"record_timestamp":"2016-05-09T15:17:00+02:00"},{"datasetid":"laposte_hexasmal","recordid":"fb153031350f99dc6ca573229ea162e7b5aea14f","fields":{"nom_de_la_commune":"WALDERSBACH","libell_d_acheminement":"WALDERSBACH","code_postal":"67130","coordonnees_gps":[48.4178454688,7.21830400487],"code_commune_insee":"67513"},"geometry":{"type":"Point","coordinates":[7.21830400487,48.4178454688]},"record_timestamp":"2016-05-09T15:17:00+02:00"},{"datasetid":"laposte_hexasmal","recordid":"b42b89270ae650488637e242d96388450b14bcf8","fields":{"nom_de_la_commune":"LA WANTZENAU","libell_d_acheminement":"LA WANTZENAU","code_postal":"67610","coordonnees_gps":[48.6593283518,7.83143435964],"code_commune_insee":"67519"},"geometry":{"type":"Point","coordinates":[7.83143435964,48.6593283518]},"record_timestamp":"2016-05-09T15:17:00+02:00"},{"datasetid":"laposte_hexasmal","recordid":"fd727f740e9d82e942af6b283bbe18b24bf205d4","fields":{"nom_de_la_commune":"WEITBRUCH","libell_d_acheminement":"WEITBRUCH","code_postal":"67500","coordonnees_gps":[48.7621242565,7.78027504315],"code_commune_insee":"67523"},"geometry":{"type":"Point","coordinates":[7.78027504315,48.7621242565]},"record_timestamp":"2016-05-09T15:17:00+02:00"},{"datasetid":"laposte_hexasmal","recordid":"8e49462b2c19ccfbdc7c378563f63620dd239f02","fields":{"code_postal":"67510","code_commune_insee":"67537","libell_d_acheminement":"WINGEN","ligne_5":"PETIT WINGEN","nom_de_la_commune":"WINGEN","coordonnees_gps":[49.0391731666,7.81446231798]},"geometry":{"type":"Point","coordinates":[7.81446231798,49.0391731666]},"record_timestamp":"2016-05-09T15:17:00+02:00"},{"datasetid":"laposte_hexasmal","recordid":"002830cc7d07517ed28e88a559857e60211e71d8","fields":{"nom_de_la_commune":"WINGEN SUR MODER","libell_d_acheminement":"WINGEN SUR MODER","code_postal":"67290","coordonnees_gps":[48.9254902407,7.37022391783],"code_commune_insee":"67538"},"geometry":{"type":"Point","coordinates":[7.37022391783,48.9254902407]},"record_timestamp":"2016-05-09T15:17:00+02:00"},{"datasetid":"laposte_hexasmal","recordid":"35a5f4ec7800fdb7d2970ecf015b2bcf800a7b0d","fields":{"code_postal":"67170","code_commune_insee":"67539","libell_d_acheminement":"WINGERSHEIM LES QUATRE BANS","ligne_5":"HOHATZENHEIM","nom_de_la_commune":"WINGERSHEIM LES QUATRE BANS","coordonnees_gps":[48.7299632936,7.63820636503]},"geometry":{"type":"Point","coordinates":[7.63820636503,48.7299632936]},"record_timestamp":"2016-05-09T15:17:00+02:00"},{"datasetid":"laposte_hexasmal","recordid":"157eebbe9f010da0401bb2222f8eef1ea72582de","fields":{"nom_de_la_commune":"WINTERSHOUSE","libell_d_acheminement":"WINTERSHOUSE","code_postal":"67590","coordonnees_gps":[48.796262357,7.70641296219],"code_commune_insee":"67540"},"geometry":{"type":"Point","coordinates":[7.70641296219,48.796262357]},"record_timestamp":"2016-05-09T15:17:00+02:00"},{"datasetid":"laposte_hexasmal","recordid":"9c07dcbbfa038f19d1795c2857270ac6b8097f22","fields":{"code_postal":"67130","code_commune_insee":"67543","libell_d_acheminement":"WISCHES","ligne_5":"NETZENBACH","nom_de_la_commune":"WISCHES","coordonnees_gps":[48.5121595612,7.21702183927]},"geometry":{"type":"Point","coordinates":[7.21702183927,48.5121595612]},"record_timestamp":"2016-05-09T15:17:00+02:00"},{"datasetid":"laposte_hexasmal","recordid":"410ee8125c540af87c07420f3d7b12f007d506b7","fields":{"nom_de_la_commune":"WISSEMBOURG","libell_d_acheminement":"WISSEMBOURG","code_postal":"67160","coordonnees_gps":[49.0184562539,7.96174575912],"code_commune_insee":"67544"},"geometry":{"type":"Point","coordinates":[7.96174575912,49.0184562539]},"record_timestamp":"2016-05-09T15:17:00+02:00"},{"datasetid":"laposte_hexasmal","recordid":"7e950c035755515f2b9b3584c1adb5ed9a1121b4","fields":{"code_postal":"67160","code_commune_insee":"67544","libell_d_acheminement":"WISSEMBOURG","ligne_5":"ALTENSTADT","nom_de_la_commune":"WISSEMBOURG","coordonnees_gps":[49.0184562539,7.96174575912]},"geometry":{"type":"Point","coordinates":[7.96174575912,49.0184562539]},"record_timestamp":"2016-05-09T15:17:00+02:00"},{"datasetid":"laposte_hexasmal","recordid":"14b2d9fd6bca8fa6c768391da604ad5d2c3883d9","fields":{"code_postal":"67160","code_commune_insee":"67544","libell_d_acheminement":"WISSEMBOURG","ligne_5":"WEILER","nom_de_la_commune":"WISSEMBOURG","coordonnees_gps":[49.0184562539,7.96174575912]},"geometry":{"type":"Point","coordinates":[7.96174575912,49.0184562539]},"record_timestamp":"2016-05-09T15:17:00+02:00"},{"datasetid":"laposte_hexasmal","recordid":"1cf94452342c356fa39a3be1df4bbbdcf3bef0e4","fields":{"nom_de_la_commune":"ZELLWILLER","libell_d_acheminement":"ZELLWILLER","code_postal":"67140","coordonnees_gps":[48.3992469094,7.51120403542],"code_commune_insee":"67557"},"geometry":{"type":"Point","coordinates":[7.51120403542,48.3992469094]},"record_timestamp":"2016-05-09T15:17:00+02:00"},{"datasetid":"laposte_hexasmal","recordid":"1a8be5da0084f95970d9b63ff7cf4eb82afa3b32","fields":{"nom_de_la_commune":"ZITTERSHEIM","libell_d_acheminement":"ZITTERSHEIM","code_postal":"67290","coordonnees_gps":[48.9007208521,7.33743606824],"code_commune_insee":"67559"},"geometry":{"type":"Point","coordinates":[7.33743606824,48.9007208521]},"record_timestamp":"2016-05-09T15:17:00+02:00"},{"datasetid":"laposte_hexasmal","recordid":"163de77c33b85691058dcac74e391055d34c69f3","fields":{"nom_de_la_commune":"ZOEBERSDORF","libell_d_acheminement":"ZOEBERSDORF","code_postal":"67270","coordonnees_gps":[48.7949132154,7.52344592585],"code_commune_insee":"67560"},"geometry":{"type":"Point","coordinates":[7.52344592585,48.7949132154]},"record_timestamp":"2016-05-09T15:17:00+02:00"},{"datasetid":"laposte_hexasmal","recordid":"379eabc2d6756ff31183d1f1e17e14f41cc9208f","fields":{"code_postal":"67440","code_commune_insee":"67004","libell_d_acheminement":"SOMMERAU","ligne_5":"SINGRIST","nom_de_la_commune":"SOMMERAU","coordonnees_gps":[48.6536185967,7.36691370722]},"geometry":{"type":"Point","coordinates":[7.36691370722,48.6536185967]},"record_timestamp":"2016-05-09T15:17:00+02:00"},{"datasetid":"laposte_hexasmal","recordid":"9a01dacc0af3cfc46738e3d9e1a997b7f16e7796","fields":{"nom_de_la_commune":"ALTECKENDORF","libell_d_acheminement":"ALTECKENDORF","code_postal":"67270","coordonnees_gps":[48.7944549979,7.59641028848],"code_commune_insee":"67005"},"geometry":{"type":"Point","coordinates":[7.59641028848,48.7944549979]},"record_timestamp":"2016-05-09T15:17:00+02:00"},{"datasetid":"laposte_hexasmal","recordid":"5d372836363fbd7950a0996064390e97a9454dbe","fields":{"nom_de_la_commune":"ASSWILLER","libell_d_acheminement":"ASSWILLER","code_postal":"67320","coordonnees_gps":[48.8805887917,7.224373364],"code_commune_insee":"67013"},"geometry":{"type":"Point","coordinates":[7.224373364,48.8805887917]},"record_timestamp":"2016-05-09T15:17:00+02:00"},{"datasetid":"laposte_hexasmal","recordid":"6bafa07ccb398d238f0299e0c92232e9289ca806","fields":{"nom_de_la_commune":"BATZENDORF","libell_d_acheminement":"BATZENDORF","code_postal":"67500","coordonnees_gps":[48.7820553601,7.70964609521],"code_commune_insee":"67023"},"geometry":{"type":"Point","coordinates":[7.70964609521,48.7820553601]},"record_timestamp":"2016-05-09T15:17:00+02:00"},{"datasetid":"laposte_hexasmal","recordid":"674f7ca48e193b9d60dfd8d3e72d81c92138229a","fields":{"code_postal":"67370","code_commune_insee":"67034","libell_d_acheminement":"BERSTETT","ligne_5":"GIMBRETT","nom_de_la_commune":"BERSTETT","coordonnees_gps":[48.6822332576,7.63237996044]},"geometry":{"type":"Point","coordinates":[7.63237996044,48.6822332576]},"record_timestamp":"2016-05-09T15:17:00+02:00"},{"datasetid":"laposte_hexasmal","recordid":"78705bdd2fdd7891d3880f2b7c4a0cf2a17d68e7","fields":{"nom_de_la_commune":"BIBLISHEIM","libell_d_acheminement":"BIBLISHEIM","code_postal":"67360","coordonnees_gps":[48.8996840866,7.79109308708],"code_commune_insee":"67037"},"geometry":{"type":"Point","coordinates":[7.79109308708,48.8996840866]},"record_timestamp":"2016-05-09T15:17:00+02:00"},{"datasetid":"laposte_hexasmal","recordid":"e0685e1608125a5a9c104418e385348d0f2e4489","fields":{"nom_de_la_commune":"BIETLENHEIM","libell_d_acheminement":"BIETLENHEIM","code_postal":"67720","coordonnees_gps":[48.7204274461,7.7833019212],"code_commune_insee":"67038"},"geometry":{"type":"Point","coordinates":[7.7833019212,48.7204274461]},"record_timestamp":"2016-05-09T15:17:00+02:00"},{"datasetid":"laposte_hexasmal","recordid":"1e021d311299ef9bf8846671502b62b9a5c354d0","fields":{"nom_de_la_commune":"BISCHWILLER","libell_d_acheminement":"BISCHWILLER","code_postal":"67240","coordonnees_gps":[48.7581317312,7.8599836461],"code_commune_insee":"67046"},"geometry":{"type":"Point","coordinates":[7.8599836461,48.7581317312]},"record_timestamp":"2016-05-09T15:17:00+02:00"},{"datasetid":"laposte_hexasmal","recordid":"57924a786a61333c1b753b5d93af22c1c9b43c8e","fields":{"code_postal":"67420","code_commune_insee":"67059","libell_d_acheminement":"BOURG BRUCHE","ligne_5":"BOURG","nom_de_la_commune":"BOURG BRUCHE","coordonnees_gps":[48.358768312,7.143716963]},"geometry":{"type":"Point","coordinates":[7.143716963,48.358768312]},"record_timestamp":"2016-05-09T15:17:00+02:00"},{"datasetid":"laposte_hexasmal","recordid":"b60b0fd9b80aa6f807705ecd2427fb7a9402aab5","fields":{"nom_de_la_commune":"BREUSCHWICKERSHEIM","libell_d_acheminement":"BREUSCHWICKERSHEIM","code_postal":"67112","coordonnees_gps":[48.578440458,7.59885897998],"code_commune_insee":"67065"},"geometry":{"type":"Point","coordinates":[7.59885897998,48.578440458]},"record_timestamp":"2016-05-09T15:17:00+02:00"},{"datasetid":"laposte_hexasmal","recordid":"e9cc2c43bb37a51c6f5901bab75b0d5c1f50e00b","fields":{"nom_de_la_commune":"LA BROQUE","libell_d_acheminement":"LA BROQUE","code_postal":"67570","coordonnees_gps":[48.4601655449,7.17283025504],"code_commune_insee":"67066"},"geometry":{"type":"Point","coordinates":[7.17283025504,48.4601655449]},"record_timestamp":"2016-05-09T15:17:00+02:00"},{"datasetid":"laposte_hexasmal","recordid":"a39f4632e686a8997816ca29deb8469a2c3e3699","fields":{"nom_de_la_commune":"DIEDENDORF","libell_d_acheminement":"DIEDENDORF","code_postal":"67260","coordonnees_gps":[48.887700346,7.02814105959],"code_commune_insee":"67091"},"geometry":{"type":"Point","coordinates":[7.02814105959,48.887700346]},"record_timestamp":"2016-05-09T15:17:00+02:00"},{"datasetid":"laposte_hexasmal","recordid":"778d973422fadcb81bd8543d8def9f1aeaeb00af","fields":{"nom_de_la_commune":"DIEFFENBACH AU VAL","libell_d_acheminement":"DIEFFENBACH AU VAL","code_postal":"67220","coordonnees_gps":[48.3144024513,7.32599641876],"code_commune_insee":"67092"},"geometry":{"type":"Point","coordinates":[7.32599641876,48.3144024513]},"record_timestamp":"2016-05-09T15:17:00+02:00"},{"datasetid":"laposte_hexasmal","recordid":"ba3d9573594c37ba60759ac20c258bb65a0f5327","fields":{"nom_de_la_commune":"DIEMERINGEN","libell_d_acheminement":"DIEMERINGEN","code_postal":"67430","coordonnees_gps":[48.9440361875,7.2036576979],"code_commune_insee":"67095"},"geometry":{"type":"Point","coordinates":[7.2036576979,48.9440361875]},"record_timestamp":"2016-05-09T15:17:00+02:00"},{"datasetid":"laposte_hexasmal","recordid":"322387ed0049ce66228670bf6368f88830339926","fields":{"nom_de_la_commune":"DINSHEIM SUR BRUCHE","libell_d_acheminement":"DINSHEIM SUR BRUCHE","code_postal":"67190","coordonnees_gps":[48.5475535578,7.42402678958],"code_commune_insee":"67098"},"geometry":{"type":"Point","coordinates":[7.42402678958,48.5475535578]},"record_timestamp":"2016-05-09T15:17:00+02:00"},{"datasetid":"laposte_hexasmal","recordid":"e91cb562790266df0471e287e3ff00fcb253a086","fields":{"nom_de_la_commune":"DORLISHEIM","libell_d_acheminement":"DORLISHEIM","code_postal":"67120","coordonnees_gps":[48.5199427115,7.48035735807],"code_commune_insee":"67101"},"geometry":{"type":"Point","coordinates":[7.48035735807,48.5199427115]},"record_timestamp":"2016-05-09T15:17:00+02:00"},{"datasetid":"laposte_hexasmal","recordid":"dabb1b3fb103646c1e628967bcf0dad7abc975f1","fields":{"code_postal":"67160","code_commune_insee":"67104","libell_d_acheminement":"DRACHENBRONN BIRLENBACH","ligne_5":"BIRLENBACH","nom_de_la_commune":"DRACHENBRONN BIRLENBACH","coordonnees_gps":[48.9809878964,7.87807854084]},"geometry":{"type":"Point","coordinates":[7.87807854084,48.9809878964]},"record_timestamp":"2016-05-09T15:17:00+02:00"},{"datasetid":"laposte_hexasmal","recordid":"758cc00751f1dd48d4dee5bb2a11a6dc60351c3b","fields":{"nom_de_la_commune":"ENGWILLER","libell_d_acheminement":"ENGWILLER","code_postal":"67350","coordonnees_gps":[48.8817152403,7.61563175479],"code_commune_insee":"67123"},"geometry":{"type":"Point","coordinates":[7.61563175479,48.8817152403]},"record_timestamp":"2016-05-09T15:17:00+02:00"},{"datasetid":"laposte_hexasmal","recordid":"75072659e494d8b4b9d2b5c8075a5327d4508ac2","fields":{"nom_de_la_commune":"FORSTHEIM","libell_d_acheminement":"FORSTHEIM","code_postal":"67580","coordonnees_gps":[48.8959541759,7.71097392643],"code_commune_insee":"67141"},"geometry":{"type":"Point","coordinates":[7.71097392643,48.8959541759]},"record_timestamp":"2016-05-09T15:17:00+02:00"},{"datasetid":"laposte_hexasmal","recordid":"337fabb8b226527b35b1205a3b95ee2a61d98cd5","fields":{"nom_de_la_commune":"FRIESENHEIM","libell_d_acheminement":"FRIESENHEIM","code_postal":"67860","coordonnees_gps":[48.3090804747,7.65396070706],"code_commune_insee":"67146"},"geometry":{"type":"Point","coordinates":[7.65396070706,48.3090804747]},"record_timestamp":"2016-05-09T15:17:00+02:00"},{"datasetid":"laposte_hexasmal","recordid":"235fd63380ef5980da7289ba14a4bdc4e7b251ed","fields":{"nom_de_la_commune":"FROESCHWILLER","libell_d_acheminement":"FROESCHWILLER","code_postal":"67360","coordonnees_gps":[48.93840535,7.71886241494],"code_commune_insee":"67147"},"geometry":{"type":"Point","coordinates":[7.71886241494,48.93840535]},"record_timestamp":"2016-05-09T15:17:00+02:00"},{"datasetid":"laposte_hexasmal","recordid":"40ce36fc2300f4c48c6ed2cb07f0f4f8824b292c","fields":{"nom_de_la_commune":"GEISPOLSHEIM","libell_d_acheminement":"GEISPOLSHEIM","code_postal":"67118","coordonnees_gps":[48.5143463092,7.65806561244],"code_commune_insee":"67152"},"geometry":{"type":"Point","coordinates":[7.65806561244,48.5143463092]},"record_timestamp":"2016-05-09T15:17:00+02:00"},{"datasetid":"laposte_hexasmal","recordid":"6a5ba4c153e0ebc60b5e44e8ea916728c5583937","fields":{"nom_de_la_commune":"GERTWILLER","libell_d_acheminement":"GERTWILLER","code_postal":"67140","coordonnees_gps":[48.4115755061,7.47499866604],"code_commune_insee":"67155"},"geometry":{"type":"Point","coordinates":[7.47499866604,48.4115755061]},"record_timestamp":"2016-05-09T15:17:00+02:00"},{"datasetid":"laposte_hexasmal","recordid":"b05f14ec0b435da4297fc8bfc731a44d3241cf04","fields":{"nom_de_la_commune":"GEUDERTHEIM","libell_d_acheminement":"GEUDERTHEIM","code_postal":"67170","coordonnees_gps":[48.7154836732,7.76052070487],"code_commune_insee":"67156"},"geometry":{"type":"Point","coordinates":[7.76052070487,48.7154836732]},"record_timestamp":"2016-05-09T15:17:00+02:00"},{"datasetid":"laposte_hexasmal","recordid":"b89f69740f55620ea2d4322663601a9784d84af6","fields":{"nom_de_la_commune":"GOERLINGEN","libell_d_acheminement":"GOERLINGEN","code_postal":"67320","coordonnees_gps":[48.7987678214,7.08515641917],"code_commune_insee":"67159"},"geometry":{"type":"Point","coordinates":[7.08515641917,48.7987678214]},"record_timestamp":"2016-05-09T15:17:00+02:00"},{"datasetid":"laposte_hexasmal","recordid":"a23f5452aaf00c0893484170662ce3a1810019bb","fields":{"nom_de_la_commune":"GOERSDORF","libell_d_acheminement":"GOERSDORF","code_postal":"67360","coordonnees_gps":[48.9590667268,7.77360094456],"code_commune_insee":"67160"},"geometry":{"type":"Point","coordinates":[7.77360094456,48.9590667268]},"record_timestamp":"2016-05-09T15:17:00+02:00"},{"datasetid":"laposte_hexasmal","recordid":"f42621c4cb2769b0cd6865ce0aabe1a4c9230f70","fields":{"code_postal":"67360","code_commune_insee":"67160","libell_d_acheminement":"GOERSDORF","ligne_5":"MITSCHDORF","nom_de_la_commune":"GOERSDORF","coordonnees_gps":[48.9590667268,7.77360094456]},"geometry":{"type":"Point","coordinates":[7.77360094456,48.9590667268]},"record_timestamp":"2016-05-09T15:17:00+02:00"},{"datasetid":"laposte_hexasmal","recordid":"45019f9f943940746d9a9005692aaeb89c7692d5","fields":{"nom_de_la_commune":"GOUGENHEIM","libell_d_acheminement":"GOUGENHEIM","code_postal":"67270","coordonnees_gps":[48.704527352,7.57535025275],"code_commune_insee":"67163"},"geometry":{"type":"Point","coordinates":[7.57535025275,48.704527352]},"record_timestamp":"2016-05-09T15:17:00+02:00"},{"datasetid":"laposte_hexasmal","recordid":"b92a2b0a342fbd91bfc4cdb1d4bc072e6f6556a6","fields":{"nom_de_la_commune":"GRESSWILLER","libell_d_acheminement":"GRESSWILLER","code_postal":"67190","coordonnees_gps":[48.5249899072,7.40991098161],"code_commune_insee":"67168"},"geometry":{"type":"Point","coordinates":[7.40991098161,48.5249899072]},"record_timestamp":"2016-05-09T15:17:00+02:00"},{"datasetid":"laposte_hexasmal","recordid":"14d6535966a7612e01f6b42afd5144dfbc7e2bb9","fields":{"nom_de_la_commune":"GRIESHEIM SUR SOUFFEL","libell_d_acheminement":"GRIESHEIM SUR SOUFFEL","code_postal":"67370","coordonnees_gps":[48.6334125597,7.6733957235],"code_commune_insee":"67173"},"geometry":{"type":"Point","coordinates":[7.6733957235,48.6334125597]},"record_timestamp":"2016-05-09T15:17:00+02:00"},{"datasetid":"laposte_hexasmal","recordid":"d84d0fa8706acd6347be07d8cef4d72b83727e69","fields":{"nom_de_la_commune":"GUMBRECHTSHOFFEN","libell_d_acheminement":"GUMBRECHTSHOFFEN","code_postal":"67110","coordonnees_gps":[48.9027833028,7.62074781132],"code_commune_insee":"67174"},"geometry":{"type":"Point","coordinates":[7.62074781132,48.9027833028]},"record_timestamp":"2016-05-09T15:17:00+02:00"},{"datasetid":"laposte_hexasmal","recordid":"15c1e82643fa1c79078a28cd24aa837894c21274","fields":{"nom_de_la_commune":"HANGENBIETEN","libell_d_acheminement":"HANGENBIETEN","code_postal":"67980","coordonnees_gps":[48.55700945,7.61194013862],"code_commune_insee":"67182"},"geometry":{"type":"Point","coordinates":[7.61194013862,48.55700945]},"record_timestamp":"2016-05-09T15:17:00+02:00"},{"datasetid":"laposte_hexasmal","recordid":"245e81821ec56178e52eb106452b8dae19c5c66b","fields":{"nom_de_la_commune":"HENGWILLER","libell_d_acheminement":"HENGWILLER","code_postal":"67440","coordonnees_gps":[48.6676339453,7.328558621],"code_commune_insee":"67190"},"geometry":{"type":"Point","coordinates":[7.328558621,48.6676339453]},"record_timestamp":"2016-05-09T15:17:00+02:00"},{"datasetid":"laposte_hexasmal","recordid":"d0af728c4aa649935fcbbfb7a000f390e0ac576c","fields":{"nom_de_la_commune":"HOENHEIM","libell_d_acheminement":"HOENHEIM","code_postal":"67800","coordonnees_gps":[48.6242068412,7.75365666565],"code_commune_insee":"67204"},"geometry":{"type":"Point","coordinates":[7.75365666565,48.6242068412]},"record_timestamp":"2016-05-09T15:17:00+02:00"},{"datasetid":"laposte_hexasmal","recordid":"0ea85e4101dfc32a432da47f1261c377fdb7f515","fields":{"nom_de_la_commune":"HOHENGOEFT","libell_d_acheminement":"HOHENGOEFT","code_postal":"67310","coordonnees_gps":[48.6607527966,7.46742297306],"code_commune_insee":"67208"},"geometry":{"type":"Point","coordinates":[7.46742297306,48.6607527966]},"record_timestamp":"2016-05-09T15:17:00+02:00"},{"datasetid":"laposte_hexasmal","recordid":"b64dda96f67f73b30e82013c04d2eb236f3bee7c","fields":{"nom_de_la_commune":"HOHFRANKENHEIM","libell_d_acheminement":"HOHFRANKENHEIM","code_postal":"67270","coordonnees_gps":[48.7286774647,7.58079540705],"code_commune_insee":"67209"},"geometry":{"type":"Point","coordinates":[7.58079540705,48.7286774647]},"record_timestamp":"2016-05-09T15:17:00+02:00"},{"datasetid":"laposte_hexasmal","recordid":"0a486ad931ed602d6abc94a5a510c55935d905ba","fields":{"nom_de_la_commune":"HUNSPACH","libell_d_acheminement":"HUNSPACH","code_postal":"67250","coordonnees_gps":[48.9578637227,7.93587412104],"code_commune_insee":"67213"},"geometry":{"type":"Point","coordinates":[7.93587412104,48.9578637227]},"record_timestamp":"2016-05-09T15:17:00+02:00"},{"datasetid":"laposte_hexasmal","recordid":"cce5b3509d428d00248e449d5115e4d9afb005f8","fields":{"nom_de_la_commune":"INGOLSHEIM","libell_d_acheminement":"INGOLSHEIM","code_postal":"67250","coordonnees_gps":[48.9708439784,7.92975610012],"code_commune_insee":"67221"},"geometry":{"type":"Point","coordinates":[7.92975610012,48.9708439784]},"record_timestamp":"2016-05-09T15:17:00+02:00"},{"datasetid":"laposte_hexasmal","recordid":"2782c80ad6fd9d769c4ca0084579b9ec4c1cd84c","fields":{"nom_de_la_commune":"INNENHEIM","libell_d_acheminement":"INNENHEIM","code_postal":"67880","coordonnees_gps":[48.4975444021,7.57352976158],"code_commune_insee":"67223"},"geometry":{"type":"Point","coordinates":[7.57352976158,48.4975444021]},"record_timestamp":"2016-05-09T15:17:00+02:00"},{"datasetid":"laposte_hexasmal","recordid":"b138a94e5eaafb5b72c5e0c88f94f2b692f511e1","fields":{"nom_de_la_commune":"KALTENHOUSE","libell_d_acheminement":"KALTENHOUSE","code_postal":"67240","coordonnees_gps":[48.7902364903,7.83303517468],"code_commune_insee":"67230"},"geometry":{"type":"Point","coordinates":[7.83303517468,48.7902364903]},"record_timestamp":"2016-05-09T15:17:00+02:00"},{"datasetid":"laposte_hexasmal","recordid":"858fac4c1a8267f565805341ad9b499c3f7a188e","fields":{"nom_de_la_commune":"KERTZFELD","libell_d_acheminement":"KERTZFELD","code_postal":"67230","coordonnees_gps":[48.3845479788,7.55526368096],"code_commune_insee":"67233"},"geometry":{"type":"Point","coordinates":[7.55526368096,48.3845479788]},"record_timestamp":"2016-05-09T15:17:00+02:00"},{"datasetid":"laposte_hexasmal","recordid":"7b955753d4707432b70897694621ab6024ba9f68","fields":{"nom_de_la_commune":"KIRCHHEIM","libell_d_acheminement":"KIRCHHEIM","code_postal":"67520","coordonnees_gps":[48.6059106052,7.48884201445],"code_commune_insee":"67240"},"geometry":{"type":"Point","coordinates":[7.48884201445,48.6059106052]},"record_timestamp":"2016-05-09T15:17:00+02:00"},{"datasetid":"laposte_hexasmal","recordid":"5d9f66687c284cb7ee62adcc17969fdbb0644cf4","fields":{"nom_de_la_commune":"KRAUTWILLER","libell_d_acheminement":"KRAUTWILLER","code_postal":"67170","coordonnees_gps":[48.739166546,7.67482992477],"code_commune_insee":"67249"},"geometry":{"type":"Point","coordinates":[7.67482992477,48.739166546]},"record_timestamp":"2016-05-09T15:17:00+02:00"},{"datasetid":"laposte_hexasmal","recordid":"691383b8ebe7fbb6a2e13fecff7cc6d10a59b818","fields":{"nom_de_la_commune":"KUTTOLSHEIM","libell_d_acheminement":"KUTTOLSHEIM","code_postal":"67520","coordonnees_gps":[48.6478359715,7.51923399394],"code_commune_insee":"67253"},"geometry":{"type":"Point","coordinates":[7.51923399394,48.6478359715]},"record_timestamp":"2016-05-09T15:17:00+02:00"},{"datasetid":"laposte_hexasmal","recordid":"b31e7327a116811274f700d25c432809fde28114","fields":{"nom_de_la_commune":"LALAYE","libell_d_acheminement":"LALAYE","code_postal":"67220","coordonnees_gps":[48.3386901777,7.23525154111],"code_commune_insee":"67255"},"geometry":{"type":"Point","coordinates":[7.23525154111,48.3386901777]},"record_timestamp":"2016-05-09T15:17:00+02:00"},{"datasetid":"laposte_hexasmal","recordid":"db6a8711b6de20f3e818b54f40cebfa9f585bef4","fields":{"nom_de_la_commune":"LAUBACH","libell_d_acheminement":"LAUBACH","code_postal":"67580","coordonnees_gps":[48.8796848057,7.71816160797],"code_commune_insee":"67260"},"geometry":{"type":"Point","coordinates":[7.71816160797,48.8796848057]},"record_timestamp":"2016-05-09T15:17:00+02:00"},{"datasetid":"laposte_hexasmal","recordid":"c5185974f0c1ab94c8b86117d98b0ebf699d9f76","fields":{"nom_de_la_commune":"LEUTENHEIM","libell_d_acheminement":"LEUTENHEIM","code_postal":"67480","coordonnees_gps":[48.851706744,8.00007828567],"code_commune_insee":"67264"},"geometry":{"type":"Point","coordinates":[8.00007828567,48.851706744]},"record_timestamp":"2016-05-09T15:17:00+02:00"},{"datasetid":"laposte_hexasmal","recordid":"38ec1975a3d69a5b7189146b4efd9acf9d5ed689","fields":{"nom_de_la_commune":"LIXHAUSEN","libell_d_acheminement":"LIXHAUSEN","code_postal":"67270","coordonnees_gps":[48.7942598149,7.55588673552],"code_commune_insee":"67270"},"geometry":{"type":"Point","coordinates":[7.55588673552,48.7942598149]},"record_timestamp":"2016-05-09T15:17:00+02:00"},{"datasetid":"laposte_hexasmal","recordid":"babff631998e847c601480fc2eedb2a72f875d38","fields":{"nom_de_la_commune":"LOCHWILLER","libell_d_acheminement":"LOCHWILLER","code_postal":"67440","coordonnees_gps":[48.6974249676,7.414828958],"code_commune_insee":"67272"},"geometry":{"type":"Point","coordinates":[7.414828958,48.6974249676]},"record_timestamp":"2016-05-09T15:17:00+02:00"},{"datasetid":"laposte_hexasmal","recordid":"b2d072b9a443212102e1fd9f0faf33ca75859f8d","fields":{"nom_de_la_commune":"LORENTZEN","libell_d_acheminement":"LORENTZEN","code_postal":"67430","coordonnees_gps":[48.9570762629,7.18176816001],"code_commune_insee":"67274"},"geometry":{"type":"Point","coordinates":[7.18176816001,48.9570762629]},"record_timestamp":"2016-05-09T15:17:00+02:00"},{"datasetid":"laposte_hexasmal","recordid":"eef10984cec8f331dca1c8d91ba560a6af5f1ae1","fields":{"nom_de_la_commune":"MELSHEIM","libell_d_acheminement":"MELSHEIM","code_postal":"67270","coordonnees_gps":[48.763931845,7.51498324586],"code_commune_insee":"67287"},"geometry":{"type":"Point","coordinates":[7.51498324586,48.763931845]},"record_timestamp":"2016-05-09T15:17:00+02:00"},{"datasetid":"laposte_hexasmal","recordid":"f5c2e7552762c43860e113d6d2d48081f8046010","fields":{"nom_de_la_commune":"MERTZWILLER","libell_d_acheminement":"MERTZWILLER","code_postal":"67580","coordonnees_gps":[48.8703439948,7.68546930616],"code_commune_insee":"67291"},"geometry":{"type":"Point","coordinates":[7.68546930616,48.8703439948]},"record_timestamp":"2016-05-09T15:17:00+02:00"},{"datasetid":"laposte_hexasmal","recordid":"f57e84f0d9000d3add130d0058f33ef53f41432a","fields":{"nom_de_la_commune":"MIETESHEIM","libell_d_acheminement":"MIETESHEIM","code_postal":"67580","coordonnees_gps":[48.8761605476,7.64658563349],"code_commune_insee":"67292"},"geometry":{"type":"Point","coordinates":[7.64658563349,48.8761605476]},"record_timestamp":"2016-05-09T15:17:00+02:00"},{"datasetid":"laposte_hexasmal","recordid":"e07fc1aa5f1041c71d8182763588b058d66721d0","fields":{"nom_de_la_commune":"MOMMENHEIM","libell_d_acheminement":"MOMMENHEIM","code_postal":"67670","coordonnees_gps":[48.7558742576,7.64983524171],"code_commune_insee":"67301"},"geometry":{"type":"Point","coordinates":[7.64983524171,48.7558742576]},"record_timestamp":"2016-05-09T15:17:00+02:00"},{"datasetid":"laposte_hexasmal","recordid":"9e2739d35912dcfde7c3daa14c0cc57536841f56","fields":{"nom_de_la_commune":"MUNDOLSHEIM","libell_d_acheminement":"MUNDOLSHEIM","code_postal":"67450","coordonnees_gps":[48.6395028241,7.71495900977],"code_commune_insee":"67309"},"geometry":{"type":"Point","coordinates":[7.71495900977,48.6395028241]},"record_timestamp":"2016-05-09T15:17:00+02:00"},{"datasetid":"laposte_hexasmal","recordid":"ebfeca78406a4f7249b6af794fd7d653c0a57d6f","fields":{"nom_de_la_commune":"MUTTERSHOLTZ","libell_d_acheminement":"MUTTERSHOLTZ","code_postal":"67600","coordonnees_gps":[48.2687190251,7.53306592763],"code_commune_insee":"67311"},"geometry":{"type":"Point","coordinates":[7.53306592763,48.2687190251]},"record_timestamp":"2016-05-09T15:17:00+02:00"},{"datasetid":"laposte_hexasmal","recordid":"9cda2b2636f0b614733cadd49fef2ff292c319a0","fields":{"nom_de_la_commune":"MUTZIG","libell_d_acheminement":"MUTZIG","code_postal":"67190","coordonnees_gps":[48.538054845,7.45530315563],"code_commune_insee":"67313"},"geometry":{"type":"Point","coordinates":[7.45530315563,48.538054845]},"record_timestamp":"2016-05-09T15:17:00+02:00"},{"datasetid":"laposte_hexasmal","recordid":"1be7fdcd922e907faf89b4d59175e1f348e3af8a","fields":{"nom_de_la_commune":"NEEWILLER PRES LAUTERBOURG","libell_d_acheminement":"NEEWILLER PRES LAUTERBOURG","code_postal":"67630","coordonnees_gps":[48.9516989257,8.11931601006],"code_commune_insee":"67315"},"geometry":{"type":"Point","coordinates":[8.11931601006,48.9516989257]},"record_timestamp":"2016-05-09T15:17:00+02:00"},{"datasetid":"laposte_hexasmal","recordid":"289ce612b066b03bc0f64045e742290040cbf208","fields":{"nom_de_la_commune":"NIEDERBRONN LES BAINS","libell_d_acheminement":"NIEDERBRONN LES BAINS","code_postal":"67110","coordonnees_gps":[48.9638157112,7.63986093383],"code_commune_insee":"67324"},"geometry":{"type":"Point","coordinates":[7.63986093383,48.9638157112]},"record_timestamp":"2016-05-09T15:17:00+02:00"},{"datasetid":"laposte_hexasmal","recordid":"4fc6058ef84dd053e385d04633c74c1042ac10d3","fields":{"nom_de_la_commune":"NIEDERHASLACH","libell_d_acheminement":"NIEDERHASLACH","code_postal":"67280","coordonnees_gps":[48.5356531709,7.35017404112],"code_commune_insee":"67325"},"geometry":{"type":"Point","coordinates":[7.35017404112,48.5356531709]},"record_timestamp":"2016-05-09T15:17:00+02:00"},{"datasetid":"laposte_hexasmal","recordid":"d20977d04ae748f2556647c6e818bb25f603b4c8","fields":{"nom_de_la_commune":"NIEDERMODERN","libell_d_acheminement":"NIEDERMODERN","code_postal":"67350","coordonnees_gps":[48.8407663139,7.63538850073],"code_commune_insee":"67328"},"geometry":{"type":"Point","coordinates":[7.63538850073,48.8407663139]},"record_timestamp":"2016-05-09T15:17:00+02:00"},{"datasetid":"laposte_hexasmal","recordid":"3dc93b0892da9a3fdddbe1af2d9639f4ff36c517","fields":{"nom_de_la_commune":"NIEDERNAI","libell_d_acheminement":"NIEDERNAI","code_postal":"67210","coordonnees_gps":[48.4456110275,7.53064650952],"code_commune_insee":"67329"},"geometry":{"type":"Point","coordinates":[7.53064650952,48.4456110275]},"record_timestamp":"2016-05-09T15:17:00+02:00"},{"datasetid":"laposte_hexasmal","recordid":"5ad138365a54c03a5a12264cb913d5d3c25a5a5f","fields":{"nom_de_la_commune":"NIEDERROEDERN","libell_d_acheminement":"NIEDERROEDERN","code_postal":"67470","coordonnees_gps":[48.912896258,8.05241114765],"code_commune_insee":"67330"},"geometry":{"type":"Point","coordinates":[8.05241114765,48.912896258]},"record_timestamp":"2016-05-09T15:17:00+02:00"},{"datasetid":"laposte_hexasmal","recordid":"634a288c3c1b46fa8f72b3412b6a72b655d1c674","fields":{"code_postal":"67660","code_commune_insee":"67339","libell_d_acheminement":"BETSCHDORF","ligne_5":"KUHLENDORF","nom_de_la_commune":"BETSCHDORF","coordonnees_gps":[48.893487303,7.92255309446]},"geometry":{"type":"Point","coordinates":[7.92255309446,48.893487303]},"record_timestamp":"2016-05-09T15:17:00+02:00"},{"datasetid":"laposte_hexasmal","recordid":"bbfd0c8350ddfde8f036483dc9d220ece5cb0612","fields":{"nom_de_la_commune":"OBERHASLACH","libell_d_acheminement":"OBERHASLACH","code_postal":"67280","coordonnees_gps":[48.5685057118,7.29548789735],"code_commune_insee":"67342"},"geometry":{"type":"Point","coordinates":[7.29548789735,48.5685057118]},"record_timestamp":"2016-05-09T15:17:00+02:00"},{"datasetid":"laposte_hexasmal","recordid":"0f06c86d74415920fcae71ed72fa6492510ac9b7","fields":{"nom_de_la_commune":"OBERHAUSBERGEN","libell_d_acheminement":"OBERHAUSBERGEN","code_postal":"67205","coordonnees_gps":[48.6073002945,7.68309913156],"code_commune_insee":"67343"},"geometry":{"type":"Point","coordinates":[7.68309913156,48.6073002945]},"record_timestamp":"2016-05-09T15:17:00+02:00"},{"datasetid":"laposte_hexasmal","recordid":"f0a7103b896f12b49a847ec63f7f0c65d03ffe39","fields":{"code_postal":"67330","code_commune_insee":"67347","libell_d_acheminement":"OBERMODERN ZUTZENDORF","ligne_5":"OBERMODERN","nom_de_la_commune":"OBERMODERN ZUTZENDORF","coordonnees_gps":[48.8479068198,7.54015464948]},"geometry":{"type":"Point","coordinates":[7.54015464948,48.8479068198]},"record_timestamp":"2016-05-09T15:17:00+02:00"},{"datasetid":"laposte_hexasmal","recordid":"b82f61ef741827519781e05dfb5fceed65e36694","fields":{"nom_de_la_commune":"ACHENHEIM","libell_d_acheminement":"ACHENHEIM","code_postal":"67204","coordonnees_gps":[48.58046231,7.62540605297],"code_commune_insee":"67001"},"geometry":{"type":"Point","coordinates":[7.62540605297,48.58046231]},"record_timestamp":"2016-05-09T15:17:00+02:00"},{"datasetid":"laposte_hexasmal","recordid":"4c5f32374504f69e5fc71e66cca0b37b8f708b94","fields":{"nom_de_la_commune":"ALTENHEIM","libell_d_acheminement":"ALTENHEIM","code_postal":"67490","coordonnees_gps":[48.7200663423,7.46240989793],"code_commune_insee":"67006"},"geometry":{"type":"Point","coordinates":[7.46240989793,48.7200663423]},"record_timestamp":"2016-05-09T15:17:00+02:00"},{"datasetid":"laposte_hexasmal","recordid":"6d3de8503274734155362405a74f9830806f5223","fields":{"nom_de_la_commune":"ALTWILLER","libell_d_acheminement":"ALTWILLER","code_postal":"67260","coordonnees_gps":[48.9155179716,6.97971818024],"code_commune_insee":"67009"},"geometry":{"type":"Point","coordinates":[6.97971818024,48.9155179716]},"record_timestamp":"2016-05-09T15:17:00+02:00"},{"datasetid":"laposte_hexasmal","recordid":"2b6ba57fa7b999c5c44b186f5dd22a659189b067","fields":{"nom_de_la_commune":"ASCHBACH","libell_d_acheminement":"ASCHBACH","code_postal":"67250","coordonnees_gps":[48.9421865958,7.98028356812],"code_commune_insee":"67012"},"geometry":{"type":"Point","coordinates":[7.98028356812,48.9421865958]},"record_timestamp":"2016-05-09T15:17:00+02:00"},{"datasetid":"laposte_hexasmal","recordid":"d56c10bf29f2e4dced06304bcba67171c522e97b","fields":{"nom_de_la_commune":"AVOLSHEIM","libell_d_acheminement":"AVOLSHEIM","code_postal":"67120","coordonnees_gps":[48.5605883589,7.49416534055],"code_commune_insee":"67016"},"geometry":{"type":"Point","coordinates":[7.49416534055,48.5605883589]},"record_timestamp":"2016-05-09T15:17:00+02:00"},{"datasetid":"laposte_hexasmal","recordid":"f22f2c46dc94cb380bac895140b5d082db1e7071","fields":{"nom_de_la_commune":"BALBRONN","libell_d_acheminement":"BALBRONN","code_postal":"67310","coordonnees_gps":[48.5825386976,7.40408500338],"code_commune_insee":"67018"},"geometry":{"type":"Point","coordinates":[7.40408500338,48.5825386976]},"record_timestamp":"2016-05-09T15:17:00+02:00"},{"datasetid":"laposte_hexasmal","recordid":"14c9fb384f539a8f4f45a1471a7ba6015b9db9ac","fields":{"nom_de_la_commune":"BEINHEIM","libell_d_acheminement":"BEINHEIM","code_postal":"67930","coordonnees_gps":[48.8543766678,8.09164601373],"code_commune_insee":"67025"},"geometry":{"type":"Point","coordinates":[8.09164601373,48.8543766678]},"record_timestamp":"2016-05-09T15:17:00+02:00"},{"datasetid":"laposte_hexasmal","recordid":"810874aac562f749c8e3e08381e97966fe58fc74","fields":{"nom_de_la_commune":"BELMONT","libell_d_acheminement":"BELMONT","code_postal":"67130","coordonnees_gps":[48.4104343878,7.25374115024],"code_commune_insee":"67027"},"geometry":{"type":"Point","coordinates":[7.25374115024,48.4104343878]},"record_timestamp":"2016-05-09T15:17:00+02:00"},{"datasetid":"laposte_hexasmal","recordid":"b480a7dcc2b333f305f27a04b5267b56cffe2d7e","fields":{"nom_de_la_commune":"BERG","libell_d_acheminement":"BERG","code_postal":"67320","coordonnees_gps":[48.8928474217,7.14475787887],"code_commune_insee":"67029"},"geometry":{"type":"Point","coordinates":[7.14475787887,48.8928474217]},"record_timestamp":"2016-05-09T15:17:00+02:00"},{"datasetid":"laposte_hexasmal","recordid":"dc299dcab7e1aff2bef6fbea9c2b8bc02ca317bf","fields":{"nom_de_la_commune":"BINDERNHEIM","libell_d_acheminement":"BINDERNHEIM","code_postal":"67600","coordonnees_gps":[48.2870316499,7.61448549663],"code_commune_insee":"67040"},"geometry":{"type":"Point","coordinates":[7.61448549663,48.2870316499]},"record_timestamp":"2016-05-09T15:17:00+02:00"},{"datasetid":"laposte_hexasmal","recordid":"a3bf5b88ccf8eb5962440ff19d4872dbb4a17b0f","fields":{"nom_de_la_commune":"BLANCHERUPT","libell_d_acheminement":"BLANCHERUPT","code_postal":"67130","coordonnees_gps":[48.4071095997,7.19552856029],"code_commune_insee":"67050"},"geometry":{"type":"Point","coordinates":[7.19552856029,48.4071095997]},"record_timestamp":"2016-05-09T15:17:00+02:00"},{"datasetid":"laposte_hexasmal","recordid":"dd58f17398e353c0942c50715299264ac3170fb3","fields":{"nom_de_la_commune":"BOERSCH","libell_d_acheminement":"BOERSCH","code_postal":"67530","coordonnees_gps":[48.4664860323,7.37505113728],"code_commune_insee":"67052"},"geometry":{"type":"Point","coordinates":[7.37505113728,48.4664860323]},"record_timestamp":"2016-05-09T15:17:00+02:00"},{"datasetid":"laposte_hexasmal","recordid":"f61d0bbdda38d299143d9526666e11fc0fc3716c","fields":{"code_postal":"67530","code_commune_insee":"67052","libell_d_acheminement":"BOERSCH","ligne_5":"KLINGENTHAL","nom_de_la_commune":"BOERSCH","coordonnees_gps":[48.4664860323,7.37505113728]},"geometry":{"type":"Point","coordinates":[7.37505113728,48.4664860323]},"record_timestamp":"2016-05-09T15:17:00+02:00"},{"datasetid":"laposte_hexasmal","recordid":"dbb4ec9d2d03674f25287420941acc82d983d7f3","fields":{"nom_de_la_commune":"BOLSENHEIM","libell_d_acheminement":"BOLSENHEIM","code_postal":"67150","coordonnees_gps":[48.425239497,7.6039565984],"code_commune_insee":"67054"},"geometry":{"type":"Point","coordinates":[7.6039565984,48.425239497]},"record_timestamp":"2016-05-09T15:17:00+02:00"},{"datasetid":"laposte_hexasmal","recordid":"cba4eeb05a9b362509dddb93fb931422210f585a","fields":{"nom_de_la_commune":"BOURGHEIM","libell_d_acheminement":"BOURGHEIM","code_postal":"67140","coordonnees_gps":[48.4192706314,7.48915564819],"code_commune_insee":"67060"},"geometry":{"type":"Point","coordinates":[7.48915564819,48.4192706314]},"record_timestamp":"2016-05-09T15:17:00+02:00"},{"datasetid":"laposte_hexasmal","recordid":"20cb820fe2f78ffb09521174ad76a7e51a8b3768","fields":{"code_postal":"67330","code_commune_insee":"67061","libell_d_acheminement":"BOUXWILLER","ligne_5":"GRIESBACH LE BASTBERG","nom_de_la_commune":"BOUXWILLER","coordonnees_gps":[48.8172998086,7.46488021539]},"geometry":{"type":"Point","coordinates":[7.46488021539,48.8172998086]},"record_timestamp":"2016-05-09T15:17:00+02:00"},{"datasetid":"laposte_hexasmal","recordid":"2610e4df3ba79afaa353456a44d67d0c8b9501e3","fields":{"code_postal":"67330","code_commune_insee":"67061","libell_d_acheminement":"BOUXWILLER","ligne_5":"RIEDHEIM","nom_de_la_commune":"BOUXWILLER","coordonnees_gps":[48.8172998086,7.46488021539]},"geometry":{"type":"Point","coordinates":[7.46488021539,48.8172998086]},"record_timestamp":"2016-05-09T15:17:00+02:00"},{"datasetid":"laposte_hexasmal","recordid":"dfae59e64c24893d257ba51b0039f2fe2dfe25e4","fields":{"code_postal":"67130","code_commune_insee":"67066","libell_d_acheminement":"LA BROQUE","ligne_5":"WACQUENOUX","nom_de_la_commune":"LA BROQUE","coordonnees_gps":[48.4601655449,7.17283025504]},"geometry":{"type":"Point","coordinates":[7.17283025504,48.4601655449]},"record_timestamp":"2016-05-09T15:17:00+02:00"},