[{"datasetid":"laposte_hexasmal","recordid":"47ec5579fb4d75e00b659d7e76b835cc905e06dd","fields":{"nom_de_la_commune":"AFA","libell_d_acheminement":"AFA","code_postal":"20167","coordonnees_gps":[41.9844089346,8.79828936731],"code_commune_insee":"2A001"},"geometry":{"type":"Point","coordinates":[8.79828936731,41.9844089346]},"record_timestamp":"2016-05-09T15:17:00+02:00"},{"datasetid":"laposte_hexasmal","recordid":"8a861095f703f74e7887809b9ce08d65a45ff6e4","fields":{"code_postal":"20167","code_commune_insee":"2A004","libell_d_acheminement":"AJACCIO","ligne_5":"MEZZAVIA","nom_de_la_commune":"AJACCIO","coordonnees_gps":[41.9347926638,8.70132275974]},"geometry":{"type":"Point","coordinates":[8.70132275974,41.9347926638]},"record_timestamp":"2016-05-09T15:17:00+02:00"},{"datasetid":"laposte_hexasmal","recordid":"c569a1616b3d9cdeffe184c4006d423dda786b07","fields":{"nom_de_la_commune":"ALBITRECCIA","libell_d_acheminement":"ALBITRECCIA","code_postal":"20128","coordonnees_gps":[41.860474641,8.87771179182],"code_commune_insee":"2A008"},"geometry":{"type":"Point","coordinates":[8.87771179182,41.860474641]},"record_timestamp":"2016-05-09T15:17:00+02:00"},{"datasetid":"laposte_hexasmal","recordid":"0519b73a9ff452aa4e899fc1caff64c0056031de","fields":{"nom_de_la_commune":"ALTAGENE","libell_d_acheminement":"ALTAGENE","code_postal":"20112","coordonnees_gps":[41.7091975922,9.07705100575],"code_commune_insee":"2A011"},"geometry":{"type":"Point","coordinates":[9.07705100575,41.7091975922]},"record_timestamp":"2016-05-09T15:17:00+02:00"},{"datasetid":"laposte_hexasmal","recordid":"10a5abc29394a914c6bfc2bd94d1c9d1738c9d41","fields":{"nom_de_la_commune":"ARBELLARA","libell_d_acheminement":"ARBELLARA","code_postal":"20110","coordonnees_gps":[41.6711031024,8.98935818241],"code_commune_insee":"2A018"},"geometry":{"type":"Point","coordinates":[8.98935818241,41.6711031024]},"record_timestamp":"2016-05-09T15:17:00+02:00"},{"datasetid":"laposte_hexasmal","recordid":"aea84c8f9a310373900b850a6f79a5733b97ece4","fields":{"nom_de_la_commune":"ARGIUSTA MORICCIO","libell_d_acheminement":"ARGIUSTA MORICCIO","code_postal":"20140","coordonnees_gps":[41.815640033,9.0324658577],"code_commune_insee":"2A021"},"geometry":{"type":"Point","coordinates":[9.0324658577,41.815640033]},"record_timestamp":"2016-05-09T15:17:00+02:00"},{"datasetid":"laposte_hexasmal","recordid":"a844fc3367ce598550dbde7dbac09af0d6d96290","fields":{"nom_de_la_commune":"BALOGNA","libell_d_acheminement":"BALOGNA","code_postal":"20160","coordonnees_gps":[42.1870054914,8.75386587299],"code_commune_insee":"2A028"},"geometry":{"type":"Point","coordinates":[8.75386587299,42.1870054914]},"record_timestamp":"2016-05-09T15:17:00+02:00"},{"datasetid":"laposte_hexasmal","recordid":"c7c07a53480ffc740f2a1d2906ed51b53df52d76","fields":{"nom_de_la_commune":"CALCATOGGIO","libell_d_acheminement":"CALCATOGGIO","code_postal":"20111","coordonnees_gps":[42.0284281165,8.73772286465],"code_commune_insee":"2A048"},"geometry":{"type":"Point","coordinates":[8.73772286465,42.0284281165]},"record_timestamp":"2016-05-09T15:17:00+02:00"},{"datasetid":"laposte_hexasmal","recordid":"2263a9e8fa4a58e94be807bd331008d50fa75816","fields":{"nom_de_la_commune":"CIAMANNACCE","libell_d_acheminement":"CIAMANNACCE","code_postal":"20134","coordonnees_gps":[41.9728664628,9.13846288557],"code_commune_insee":"2A089"},"geometry":{"type":"Point","coordinates":[9.13846288557,41.9728664628]},"record_timestamp":"2016-05-09T15:17:00+02:00"},{"datasetid":"laposte_hexasmal","recordid":"3a32c9568dfb4fd2ddc321dc6bd4a18566a3b94b","fields":{"nom_de_la_commune":"COGGIA","libell_d_acheminement":"COGGIA","code_postal":"20160","coordonnees_gps":[42.1117512753,8.73524258056],"code_commune_insee":"2A090"},"geometry":{"type":"Point","coordinates":[8.73524258056,42.1117512753]},"record_timestamp":"2016-05-09T15:17:00+02:00"},{"datasetid":"laposte_hexasmal","recordid":"366f9caee5552b35fe58735d73bfb94411a2cd6c","fields":{"nom_de_la_commune":"COZZANO","libell_d_acheminement":"COZZANO","code_postal":"20148","coordonnees_gps":[41.9335361782,9.18658901993],"code_commune_insee":"2A099"},"geometry":{"type":"Point","coordinates":[9.18658901993,41.9335361782]},"record_timestamp":"2016-05-09T15:17:00+02:00"},{"datasetid":"laposte_hexasmal","recordid":"ae911026f81a61c01f51e7b423fe6ea697be7769","fields":{"nom_de_la_commune":"CUTTOLI CORTICCHIATO","libell_d_acheminement":"CUTTOLI CORTICCHIATO","code_postal":"20167","coordonnees_gps":[41.976733682,8.88406617978],"code_commune_insee":"2A103"},"geometry":{"type":"Point","coordinates":[8.88406617978,41.976733682]},"record_timestamp":"2016-05-09T15:17:00+02:00"},{"datasetid":"laposte_hexasmal","recordid":"678c4727e8e699129d20829586cc8e6b4391b070","fields":{"nom_de_la_commune":"GROSSA","libell_d_acheminement":"GROSSA","code_postal":"20100","coordonnees_gps":[41.6027786723,8.8649278809],"code_commune_insee":"2A129"},"geometry":{"type":"Point","coordinates":[8.8649278809,41.6027786723]},"record_timestamp":"2016-05-09T15:17:00+02:00"},{"datasetid":"laposte_hexasmal","recordid":"87c70c8000940fc21e63da7d9c860690ba6d5d7e","fields":{"nom_de_la_commune":"GUAGNO","libell_d_acheminement":"GUAGNO","code_postal":"20160","coordonnees_gps":[42.1783646694,8.98389627863],"code_commune_insee":"2A131"},"geometry":{"type":"Point","coordinates":[8.98389627863,42.1783646694]},"record_timestamp":"2016-05-09T15:17:00+02:00"},{"datasetid":"laposte_hexasmal","recordid":"7bc948d8922743d843a87563e58403da9d975941","fields":{"nom_de_la_commune":"MURZO","libell_d_acheminement":"MURZO","code_postal":"20160","coordonnees_gps":[42.1585493633,8.84670847877],"code_commune_insee":"2A174"},"geometry":{"type":"Point","coordinates":[8.84670847877,42.1585493633]},"record_timestamp":"2016-05-09T15:17:00+02:00"},{"datasetid":"laposte_hexasmal","recordid":"ee7a6485c5010e5c05d69635a88b983ce01b95d7","fields":{"nom_de_la_commune":"PALNECA","libell_d_acheminement":"PALNECA","code_postal":"20134","coordonnees_gps":[41.9917474274,9.18910929636],"code_commune_insee":"2A200"},"geometry":{"type":"Point","coordinates":[9.18910929636,41.9917474274]},"record_timestamp":"2016-05-09T15:17:00+02:00"},{"datasetid":"laposte_hexasmal","recordid":"6f7b916b508b1e54ae8592a676fb709372b51876","fields":{"code_postal":"20160","code_commune_insee":"2A240","libell_d_acheminement":"POGGIOLO","ligne_5":"GUAGNO LES BAINS","nom_de_la_commune":"POGGIOLO","coordonnees_gps":[42.1628161972,8.89848173922]},"geometry":{"type":"Point","coordinates":[8.89848173922,42.1628161972]},"record_timestamp":"2016-05-09T15:17:00+02:00"},{"datasetid":"laposte_hexasmal","recordid":"f949941246d3696f800119a2e5563cc2ef86e8a3","fields":{"nom_de_la_commune":"PROPRIANO","libell_d_acheminement":"PROPRIANO","code_postal":"20110","coordonnees_gps":[41.6504172843,8.89378639473],"code_commune_insee":"2A249"},"geometry":{"type":"Point","coordinates":[8.89378639473,41.6504172843]},"record_timestamp":"2016-05-09T15:17:00+02:00"},{"datasetid":"laposte_hexasmal","recordid":"8744ba7089fd3d6d2b7eb96eeae0a3be3718f60e","fields":{"nom_de_la_commune":"REZZA","libell_d_acheminement":"REZZA","code_postal":"20121","coordonnees_gps":[42.1240747257,8.95203254705],"code_commune_insee":"2A259"},"geometry":{"type":"Point","coordinates":[8.95203254705,42.1240747257]},"record_timestamp":"2016-05-09T15:17:00+02:00"},{"datasetid":"laposte_hexasmal","recordid":"1fa3eb2174a05491b4adae341d5237a9bc333e7c","fields":{"nom_de_la_commune":"SAMPOLO","libell_d_acheminement":"SAMPOLO","code_postal":"20134","coordonnees_gps":[41.9468987764,9.12053513385],"code_commune_insee":"2A268"},"geometry":{"type":"Point","coordinates":[9.12053513385,41.9468987764]},"record_timestamp":"2016-05-09T15:17:00+02:00"},{"datasetid":"laposte_hexasmal","recordid":"90ba3a675a3ee60cc89271fce2d2d9c8b9e27c4b","fields":{"nom_de_la_commune":"SARI D ORCINO","libell_d_acheminement":"SARI D ORCINO","code_postal":"20151","coordonnees_gps":[42.0648114999,8.83377089939],"code_commune_insee":"2A270"},"geometry":{"type":"Point","coordinates":[8.83377089939,42.0648114999]},"record_timestamp":"2016-05-09T15:17:00+02:00"},{"datasetid":"laposte_hexasmal","recordid":"40b0ab3d1c1dbc20fe508e66ac462d9c61941590","fields":{"nom_de_la_commune":"SERRA DI FERRO","libell_d_acheminement":"SERRA DI FERRO","code_postal":"20140","coordonnees_gps":[41.7410474334,8.81250812436],"code_commune_insee":"2A276"},"geometry":{"type":"Point","coordinates":[8.81250812436,41.7410474334]},"record_timestamp":"2016-05-09T15:17:00+02:00"},{"datasetid":"laposte_hexasmal","recordid":"dc0ad476f8cf9411d435f270e08ad728ff6a195a","fields":{"nom_de_la_commune":"TOLLA","libell_d_acheminement":"TOLLA","code_postal":"20117","coordonnees_gps":[41.9682067011,8.9690159805],"code_commune_insee":"2A326"},"geometry":{"type":"Point","coordinates":[8.9690159805,41.9682067011]},"record_timestamp":"2016-05-09T15:17:00+02:00"},{"datasetid":"laposte_hexasmal","recordid":"0add7a96587467ac121579a2ff9bd51da809913d","fields":{"nom_de_la_commune":"VALLE DI MEZZANA","libell_d_acheminement":"VALLE DI MEZZANA","code_postal":"20167","coordonnees_gps":[42.0235582479,8.8195514546],"code_commune_insee":"2A336"},"geometry":{"type":"Point","coordinates":[8.8195514546,42.0235582479]},"record_timestamp":"2016-05-09T15:17:00+02:00"},{"datasetid":"laposte_hexasmal","recordid":"19245ccdc3079552b15536e4ef7d26c3849baa0b","fields":{"nom_de_la_commune":"VERO","libell_d_acheminement":"VERO","code_postal":"20172","coordonnees_gps":[42.0610612103,8.92182128111],"code_commune_insee":"2A345"},"geometry":{"type":"Point","coordinates":[8.92182128111,42.0610612103]},"record_timestamp":"2016-05-09T15:17:00+02:00"},{"datasetid":"laposte_hexasmal","recordid":"1397c91707bd607dd24203d4e5bf1c29950a2120","fields":{"nom_de_la_commune":"ZOZA","libell_d_acheminement":"ZOZA","code_postal":"20112","coordonnees_gps":[41.721546993,9.07173348463],"code_commune_insee":"2A363"},"geometry":{"type":"Point","coordinates":[9.07173348463,41.721546993]},"record_timestamp":"2016-05-09T15:17:00+02:00"},{"datasetid":"laposte_hexasmal","recordid":"ed7a6bf7fd4bbc2c310ec20a06b8fdf7a7386e56","fields":{"nom_de_la_commune":"AGHIONE","libell_d_acheminement":"AGHIONE","code_postal":"20270","coordonnees_gps":[42.0985000918,9.41152525552],"code_commune_insee":"2B002"},"geometry":{"type":"Point","coordinates":[9.41152525552,42.0985000918]},"record_timestamp":"2016-05-09T15:17:00+02:00"},{"datasetid":"laposte_hexasmal","recordid":"dd45ef161b70dfa81d90b181c28974ff579e8cfd","fields":{"nom_de_la_commune":"ALERIA","libell_d_acheminement":"ALERIA","code_postal":"20270","coordonnees_gps":[42.1059105058,9.495645512],"code_commune_insee":"2B009"},"geometry":{"type":"Point","coordinates":[9.495645512,42.1059105058]},"record_timestamp":"2016-05-09T15:17:00+02:00"},{"datasetid":"laposte_hexasmal","recordid":"9714bd37243d1bd5c6695098b982a83656fde971","fields":{"nom_de_la_commune":"BELGODERE","libell_d_acheminement":"BELGODERE","code_postal":"20226","coordonnees_gps":[42.6078945875,9.01429591727],"code_commune_insee":"2B034"},"geometry":{"type":"Point","coordinates":[9.01429591727,42.6078945875]},"record_timestamp":"2016-05-09T15:17:00+02:00"},{"datasetid":"laposte_hexasmal","recordid":"38d9ddcc9a5727fb3d306087c0527ad4324b4391","fields":{"code_postal":"20226","code_commune_insee":"2B034","libell_d_acheminement":"BELGODERE","ligne_5":"LOZARI","nom_de_la_commune":"BELGODERE","coordonnees_gps":[42.6078945875,9.01429591727]},"geometry":{"type":"Point","coordinates":[9.01429591727,42.6078945875]},"record_timestamp":"2016-05-09T15:17:00+02:00"},{"datasetid":"laposte_hexasmal","recordid":"8e1fff12aa90283231cbf7634ffe75e48d02908d","fields":{"nom_de_la_commune":"BIGUGLIA","libell_d_acheminement":"BIGUGLIA","code_postal":"20620","coordonnees_gps":[42.6164219998,9.44048317398],"code_commune_insee":"2B037"},"geometry":{"type":"Point","coordinates":[9.44048317398,42.6164219998]},"record_timestamp":"2016-05-09T15:17:00+02:00"},{"datasetid":"laposte_hexasmal","recordid":"bf274ec42ba3a923b16a7a8be04e5e0fec621186","fields":{"nom_de_la_commune":"BORGO","libell_d_acheminement":"BORGO","code_postal":"20290","coordonnees_gps":[42.573930097,9.45690314359],"code_commune_insee":"2B042"},"geometry":{"type":"Point","coordinates":[9.45690314359,42.573930097]},"record_timestamp":"2016-05-09T15:17:00+02:00"},{"datasetid":"laposte_hexasmal","recordid":"a2ad8af9731178fb2067927d9417066608bf84df","fields":{"nom_de_la_commune":"CAMBIA","libell_d_acheminement":"CAMBIA","code_postal":"20244","coordonnees_gps":[42.3688581376,9.30244187201],"code_commune_insee":"2B051"},"geometry":{"type":"Point","coordinates":[9.30244187201,42.3688581376]},"record_timestamp":"2016-05-09T15:17:00+02:00"},{"datasetid":"laposte_hexasmal","recordid":"19b3dda82fa62f571270009605913aea01e7473a","fields":{"nom_de_la_commune":"CANARI","libell_d_acheminement":"CANARI","code_postal":"20217","coordonnees_gps":[42.8430542103,9.34556643621],"code_commune_insee":"2B058"},"geometry":{"type":"Point","coordinates":[9.34556643621,42.8430542103]},"record_timestamp":"2016-05-09T15:17:00+02:00"},{"datasetid":"laposte_hexasmal","recordid":"82845bf4a101feb733c614b41ac9132c2bee3471","fields":{"nom_de_la_commune":"CASTELLO DI ROSTINO","libell_d_acheminement":"CASTELLO DI ROSTINO","code_postal":"20235","coordonnees_gps":[42.471301177,9.29768308268],"code_commune_insee":"2B079"},"geometry":{"type":"Point","coordinates":[9.29768308268,42.471301177]},"record_timestamp":"2016-05-09T15:17:00+02:00"},{"datasetid":"laposte_hexasmal","recordid":"057217ef7cbf08826b90d5d60aea0407229f3b23","fields":{"nom_de_la_commune":"CENTURI","libell_d_acheminement":"CENTURI","code_postal":"20238","coordonnees_gps":[42.967184653,9.36449852317],"code_commune_insee":"2B086"},"geometry":{"type":"Point","coordinates":[9.36449852317,42.967184653]},"record_timestamp":"2016-05-09T15:17:00+02:00"},{"datasetid":"laposte_hexasmal","recordid":"0dffb6bac4bd4e9d5d51a4c17da2a1cd930a7626","fields":{"nom_de_la_commune":"CROCE","libell_d_acheminement":"CROCE","code_postal":"20237","coordonnees_gps":[42.4077831336,9.35731368031],"code_commune_insee":"2B101"},"geometry":{"type":"Point","coordinates":[9.35731368031,42.4077831336]},"record_timestamp":"2016-05-09T15:17:00+02:00"},{"datasetid":"laposte_hexasmal","recordid":"32225813564c5e25822403d350c750c4b0f25d04","fields":{"nom_de_la_commune":"ERSA","libell_d_acheminement":"ERSA","code_postal":"20275","coordonnees_gps":[42.9871049875,9.38235735891],"code_commune_insee":"2B107"},"geometry":{"type":"Point","coordinates":[9.38235735891,42.9871049875]},"record_timestamp":"2016-05-09T15:17:00+02:00"},{"datasetid":"laposte_hexasmal","recordid":"89cd11c5d7263cf08abc40ce963428ff645db1bc","fields":{"nom_de_la_commune":"LOZZI","libell_d_acheminement":"LOZZI","code_postal":"20224","coordonnees_gps":[42.3625664581,8.98031669387],"code_commune_insee":"2B147"},"geometry":{"type":"Point","coordinates":[8.98031669387,42.3625664581]},"record_timestamp":"2016-05-09T15:17:00+02:00"},{"datasetid":"laposte_hexasmal","recordid":"b1b167c74331ce1be83916fc07a414bc98a80952","fields":{"nom_de_la_commune":"LUMIO","libell_d_acheminement":"LUMIO","code_postal":"20260","coordonnees_gps":[42.5800438458,8.82575573819],"code_commune_insee":"2B150"},"geometry":{"type":"Point","coordinates":[8.82575573819,42.5800438458]},"record_timestamp":"2016-05-09T15:17:00+02:00"},{"datasetid":"laposte_hexasmal","recordid":"b12a7a00da2602c2428a953730b283bf57b8f77c","fields":{"nom_de_la_commune":"LURI","libell_d_acheminement":"LURI","code_postal":"20228","coordonnees_gps":[42.8934435302,9.40987964362],"code_commune_insee":"2B152"},"geometry":{"type":"Point","coordinates":[9.40987964362,42.8934435302]},"record_timestamp":"2016-05-09T15:17:00+02:00"},{"datasetid":"laposte_hexasmal","recordid":"eec467b623e5a2e1327d36bf4984ce75755fd997","fields":{"code_postal":"20228","code_commune_insee":"2B152","libell_d_acheminement":"LURI","ligne_5":"SANTA SEVERA","nom_de_la_commune":"LURI","coordonnees_gps":[42.8934435302,9.40987964362]},"geometry":{"type":"Point","coordinates":[9.40987964362,42.8934435302]},"record_timestamp":"2016-05-09T15:17:00+02:00"},{"datasetid":"laposte_hexasmal","recordid":"76b962f2fce1bf7250c7491c5144f2b807eb3446","fields":{"nom_de_la_commune":"MONACIA D OREZZA","libell_d_acheminement":"MONACIA D OREZZA","code_postal":"20229","coordonnees_gps":[42.3814112942,9.40502593518],"code_commune_insee":"2B164"},"geometry":{"type":"Point","coordinates":[9.40502593518,42.3814112942]},"record_timestamp":"2016-05-09T15:17:00+02:00"},{"datasetid":"laposte_hexasmal","recordid":"56d5fb527920fe98859a5cd7584b86b9348cb9d3","fields":{"nom_de_la_commune":"MONTE","libell_d_acheminement":"MONTE","code_postal":"20290","coordonnees_gps":[42.4830064392,9.40129428843],"code_commune_insee":"2B166"},"geometry":{"type":"Point","coordinates":[9.40129428843,42.4830064392]},"record_timestamp":"2016-05-09T15:17:00+02:00"},{"datasetid":"laposte_hexasmal","recordid":"1fc0e0060791e313376613f0bf8c364c912278d4","fields":{"code_postal":"20214","code_commune_insee":"2B167","libell_d_acheminement":"MONTEGROSSO","ligne_5":"ST RAINIER DE BALAGNE","nom_de_la_commune":"MONTEGROSSO","coordonnees_gps":[42.543505718,8.85623474811]},"geometry":{"type":"Point","coordinates":[8.85623474811,42.543505718]},"record_timestamp":"2016-05-09T15:17:00+02:00"},{"datasetid":"laposte_hexasmal","recordid":"8df67e6cbd43ec1e73a4aeaca6fc9a21b288cbc7","fields":{"code_postal":"20218","code_commune_insee":"2B169","libell_d_acheminement":"MOROSAGLIA","ligne_5":"PONTE LECCIA","nom_de_la_commune":"MOROSAGLIA","coordonnees_gps":[42.4476687598,9.25468558646]},"geometry":{"type":"Point","coordinates":[9.25468558646,42.4476687598]},"record_timestamp":"2016-05-09T15:17:00+02:00"},{"datasetid":"laposte_hexasmal","recordid":"01138644e8376a048165b9e1183136d783d21f87","fields":{"nom_de_la_commune":"MURO","libell_d_acheminement":"MURO","code_postal":"20225","coordonnees_gps":[42.5460439114,8.9171628153],"code_commune_insee":"2B173"},"geometry":{"type":"Point","coordinates":[8.9171628153,42.5460439114]},"record_timestamp":"2016-05-09T15:17:00+02:00"},{"datasetid":"laposte_hexasmal","recordid":"5da8474a79bd5c4c1b06a357aee691b9c13a2a24","fields":{"nom_de_la_commune":"NOCETA","libell_d_acheminement":"NOCETA","code_postal":"20242","coordonnees_gps":[42.2027615346,9.20974478492],"code_commune_insee":"2B177"},"geometry":{"type":"Point","coordinates":[9.20974478492,42.2027615346]},"record_timestamp":"2016-05-09T15:17:00+02:00"},{"datasetid":"laposte_hexasmal","recordid":"803ddb8550b7dde2ac658472b46f87bc13383de7","fields":{"nom_de_la_commune":"NONZA","libell_d_acheminement":"NONZA","code_postal":"20217","coordonnees_gps":[42.7882252962,9.35435781818],"code_commune_insee":"2B178"},"geometry":{"type":"Point","coordinates":[9.35435781818,42.7882252962]},"record_timestamp":"2016-05-09T15:17:00+02:00"},{"datasetid":"laposte_hexasmal","recordid":"7b6b8e7c45a0d9f48b4993d3ac066e57da7834ef","fields":{"nom_de_la_commune":"NOVALE","libell_d_acheminement":"NOVALE","code_postal":"20234","coordonnees_gps":[42.3048180295,9.41089162229],"code_commune_insee":"2B179"},"geometry":{"type":"Point","coordinates":[9.41089162229,42.3048180295]},"record_timestamp":"2016-05-09T15:17:00+02:00"},{"datasetid":"laposte_hexasmal","recordid":"e899fd662ae0245fd940b3624b05f05e281e3266","fields":{"nom_de_la_commune":"OGLIASTRO","libell_d_acheminement":"OGLIASTRO","code_postal":"20217","coordonnees_gps":[42.8221560057,9.35418915293],"code_commune_insee":"2B183"},"geometry":{"type":"Point","coordinates":[9.35418915293,42.8221560057]},"record_timestamp":"2016-05-09T15:17:00+02:00"},{"datasetid":"laposte_hexasmal","recordid":"c06adf60aa48c30c0f2663a9f54a32c0d0fbba76","fields":{"nom_de_la_commune":"OLMO","libell_d_acheminement":"OLMO","code_postal":"20290","coordonnees_gps":[42.5015366466,9.41349985144],"code_commune_insee":"2B192"},"geometry":{"type":"Point","coordinates":[9.41349985144,42.5015366466]},"record_timestamp":"2016-05-09T15:17:00+02:00"},{"datasetid":"laposte_hexasmal","recordid":"dfc122740f1b4ca84bcb2b2b89445f111f71b9de","fields":{"nom_de_la_commune":"PATRIMONIO","libell_d_acheminement":"PATRIMONIO","code_postal":"20253","coordonnees_gps":[42.7066867042,9.3670488048],"code_commune_insee":"2B205"},"geometry":{"type":"Point","coordinates":[9.3670488048,42.7066867042]},"record_timestamp":"2016-05-09T15:17:00+02:00"},{"datasetid":"laposte_hexasmal","recordid":"94b0bbca7d30a151abdf5b679f56759a39d3133a","fields":{"nom_de_la_commune":"PENTA ACQUATELLA","libell_d_acheminement":"PENTA ACQUATELLA","code_postal":"20290","coordonnees_gps":[42.4636442257,9.37213628263],"code_commune_insee":"2B206"},"geometry":{"type":"Point","coordinates":[9.37213628263,42.4636442257]},"record_timestamp":"2016-05-09T15:17:00+02:00"},{"datasetid":"laposte_hexasmal","recordid":"2764b85629948fcfac9e12ba1020346b033904a2","fields":{"nom_de_la_commune":"PIAZZALI","libell_d_acheminement":"PIAZZALI","code_postal":"20234","coordonnees_gps":[42.3198576834,9.40593909318],"code_commune_insee":"2B216"},"geometry":{"type":"Point","coordinates":[9.40593909318,42.3198576834]},"record_timestamp":"2016-05-09T15:17:00+02:00"},{"datasetid":"laposte_hexasmal","recordid":"d8e2c5ee06e38267340bc8a4850e534ab16808a2","fields":{"nom_de_la_commune":"PIAZZOLE","libell_d_acheminement":"PIAZZOLE","code_postal":"20229","coordonnees_gps":[42.3944129733,9.40599362017],"code_commune_insee":"2B217"},"geometry":{"type":"Point","coordinates":[9.40599362017,42.3944129733]},"record_timestamp":"2016-05-09T15:17:00+02:00"},{"datasetid":"laposte_hexasmal","recordid":"ae779631b69571cae12da06d742683029dbb07e1","fields":{"nom_de_la_commune":"PIEDICORTE DI GAGGIO","libell_d_acheminement":"PIEDICORTE DI GAGGIO","code_postal":"20251","coordonnees_gps":[42.2145192461,9.32336450937],"code_commune_insee":"2B218"},"geometry":{"type":"Point","coordinates":[9.32336450937,42.2145192461]},"record_timestamp":"2016-05-09T15:17:00+02:00"},{"datasetid":"laposte_hexasmal","recordid":"1647228ed8a95bfe602c67cc2d650d07cf58ea41","fields":{"nom_de_la_commune":"PIEDIPARTINO","libell_d_acheminement":"PIEDIPARTINO","code_postal":"20229","coordonnees_gps":[42.3571679541,9.34439923246],"code_commune_insee":"2B221"},"geometry":{"type":"Point","coordinates":[9.34439923246,42.3571679541]},"record_timestamp":"2016-05-09T15:17:00+02:00"},{"datasetid":"laposte_hexasmal","recordid":"633e6c6656232c10ac98efee23ce9c0aabf04433","fields":{"nom_de_la_commune":"PIE D OREZZA","libell_d_acheminement":"PIE D OREZZA","code_postal":"20229","coordonnees_gps":[42.3741161221,9.33870632307],"code_commune_insee":"2B222"},"geometry":{"type":"Point","coordinates":[9.33870632307,42.3741161221]},"record_timestamp":"2016-05-09T15:17:00+02:00"},{"datasetid":"laposte_hexasmal","recordid":"4ffc25efd197b6f22859e1e9c740c6f34426fd39","fields":{"nom_de_la_commune":"PIETRASERENA","libell_d_acheminement":"PIETRASERENA","code_postal":"20251","coordonnees_gps":[42.2338486385,9.35461476082],"code_commune_insee":"2B226"},"geometry":{"type":"Point","coordinates":[9.35461476082,42.2338486385]},"record_timestamp":"2016-05-09T15:17:00+02:00"},{"datasetid":"laposte_hexasmal","recordid":"6b61936ab2f0dcddda4401a723885309b0a70f50","fields":{"nom_de_la_commune":"PIETRICAGGIO","libell_d_acheminement":"PIETRICAGGIO","code_postal":"20234","coordonnees_gps":[42.3292404506,9.37688638759],"code_commune_insee":"2B227"},"geometry":{"type":"Point","coordinates":[9.37688638759,42.3292404506]},"record_timestamp":"2016-05-09T15:17:00+02:00"},{"datasetid":"laposte_hexasmal","recordid":"64fdb9d14f4e2286007b5d5a1a21e7fb852925ec","fields":{"nom_de_la_commune":"PIOBETTA","libell_d_acheminement":"PIOBETTA","code_postal":"20234","coordonnees_gps":[42.340337842,9.36784123009],"code_commune_insee":"2B234"},"geometry":{"type":"Point","coordinates":[9.36784123009,42.340337842]},"record_timestamp":"2016-05-09T15:17:00+02:00"},{"datasetid":"laposte_hexasmal","recordid":"08365e52a5adb7f0bf391d406107a2cc6de4575a","fields":{"nom_de_la_commune":"POGGIO MARINACCIO","libell_d_acheminement":"POGGIO MARINACCIO","code_postal":"20237","coordonnees_gps":[42.4359731293,9.34821605679],"code_commune_insee":"2B241"},"geometry":{"type":"Point","coordinates":[9.34821605679,42.4359731293]},"record_timestamp":"2016-05-09T15:17:00+02:00"},{"datasetid":"laposte_hexasmal","recordid":"d2dd608e4637eb3639c4b77e4b42d7b109557b3e","fields":{"nom_de_la_commune":"POPOLASCA","libell_d_acheminement":"POPOLASCA","code_postal":"20218","coordonnees_gps":[42.437399462,9.13509572418],"code_commune_insee":"2B244"},"geometry":{"type":"Point","coordinates":[9.13509572418,42.437399462]},"record_timestamp":"2016-05-09T15:17:00+02:00"},{"datasetid":"laposte_hexasmal","recordid":"0708511d8222b1ebb3a963a90c335f686820b2e1","fields":{"nom_de_la_commune":"LA PORTA","libell_d_acheminement":"LA PORTA","code_postal":"20237","coordonnees_gps":[42.4241824082,9.35847182054],"code_commune_insee":"2B246"},"geometry":{"type":"Point","coordinates":[9.35847182054,42.4241824082]},"record_timestamp":"2016-05-09T15:17:00+02:00"},{"datasetid":"laposte_hexasmal","recordid":"5a528dd2a1a7ee28d54a3ee25e1e710d81282b90","fields":{"code_postal":"20213","code_commune_insee":"2B252","libell_d_acheminement":"PRUNO","ligne_5":"CHAMPLAN","nom_de_la_commune":"PRUNO","coordonnees_gps":[42.4243509668,9.44755598733]},"geometry":{"type":"Point","coordinates":[9.44755598733,42.4243509668]},"record_timestamp":"2016-05-09T15:17:00+02:00"},{"datasetid":"laposte_hexasmal","recordid":"4f99ad8b7cd9f46dcca0bd5dca246dc05f29df88","fields":{"code_postal":"20248","code_commune_insee":"2B261","libell_d_acheminement":"ROGLIANO","ligne_5":"MACINAGGIO","nom_de_la_commune":"ROGLIANO","coordonnees_gps":[42.9720512637,9.42539823747]},"geometry":{"type":"Point","coordinates":[9.42539823747,42.9720512637]},"record_timestamp":"2016-05-09T15:17:00+02:00"},{"datasetid":"laposte_hexasmal","recordid":"307a7bc7c01cbfe5c06d9c33cd8920164c4d10a3","fields":{"nom_de_la_commune":"ROSPIGLIANI","libell_d_acheminement":"ROSPIGLIANI","code_postal":"20242","coordonnees_gps":[42.1937798194,9.237935796],"code_commune_insee":"2B263"},"geometry":{"type":"Point","coordinates":[9.237935796,42.1937798194]},"record_timestamp":"2016-05-09T15:17:00+02:00"},{"datasetid":"laposte_hexasmal","recordid":"d48c0f190dd79a67888e4de9fa04f0f870aaefcb","fields":{"nom_de_la_commune":"SORBO OCAGNANO","libell_d_acheminement":"SORBO OCAGNANO","code_postal":"20213","coordonnees_gps":[42.4824735958,9.48942771888],"code_commune_insee":"2B286"},"geometry":{"type":"Point","coordinates":[9.48942771888,42.4824735958]},"record_timestamp":"2016-05-09T15:17:00+02:00"},{"datasetid":"laposte_hexasmal","recordid":"8bc53a72cf6f7713fa3d0adc6c48649a57175a16","fields":{"nom_de_la_commune":"SANT ANDREA DI COTONE","libell_d_acheminement":"SANT ANDREA DI COTONE","code_postal":"20221","coordonnees_gps":[42.3152789524,9.47199287722],"code_commune_insee":"2B293"},"geometry":{"type":"Point","coordinates":[9.47199287722,42.3152789524]},"record_timestamp":"2016-05-09T15:17:00+02:00"},{"datasetid":"laposte_hexasmal","recordid":"198b82799670dc37e668b78bfcae9f1bcc17ca8e","fields":{"nom_de_la_commune":"SAN MARTINO DI LOTA","libell_d_acheminement":"SAN MARTINO DI LOTA","code_postal":"20200","coordonnees_gps":[42.7323992652,9.43163085599],"code_commune_insee":"2B305"},"geometry":{"type":"Point","coordinates":[9.43163085599,42.7323992652]},"record_timestamp":"2016-05-09T15:17:00+02:00"},{"datasetid":"laposte_hexasmal","recordid":"4e5eb986791ccf571d436e7ed74158b0b7288688","fields":{"code_postal":"20200","code_commune_insee":"2B305","libell_d_acheminement":"SAN MARTINO DI LOTA","ligne_5":"PIETRANERA","nom_de_la_commune":"SAN MARTINO DI LOTA","coordonnees_gps":[42.7323992652,9.43163085599]},"geometry":{"type":"Point","coordinates":[9.43163085599,42.7323992652]},"record_timestamp":"2016-05-09T15:17:00+02:00"},{"datasetid":"laposte_hexasmal","recordid":"e095b15814540e737d602d823e1a29fc58498bc6","fields":{"nom_de_la_commune":"SANTA LUCIA DI MERCURIO","libell_d_acheminement":"SANTA LUCIA DI MERCURIO","code_postal":"20250","coordonnees_gps":[42.317846059,9.22025065863],"code_commune_insee":"2B306"},"geometry":{"type":"Point","coordinates":[9.22025065863,42.317846059]},"record_timestamp":"2016-05-09T15:17:00+02:00"},{"datasetid":"laposte_hexasmal","recordid":"500063f6fe469c2528d1d4eded8ceb9039874d65","fields":{"nom_de_la_commune":"SANTO PIETRO DI VENACO","libell_d_acheminement":"SANTO PIETRO DI VENACO","code_postal":"20250","coordonnees_gps":[42.2451439725,9.16595729369],"code_commune_insee":"2B315"},"geometry":{"type":"Point","coordinates":[9.16595729369,42.2451439725]},"record_timestamp":"2016-05-09T15:17:00+02:00"},{"datasetid":"laposte_hexasmal","recordid":"b6b502dce86f6102bffb6f47f31832584071525c","fields":{"nom_de_la_commune":"VALLE D OREZZA","libell_d_acheminement":"VALLE D OREZZA","code_postal":"20229","coordonnees_gps":[42.3623635376,9.40202286355],"code_commune_insee":"2B338"},"geometry":{"type":"Point","coordinates":[9.40202286355,42.3623635376]},"record_timestamp":"2016-05-09T15:17:00+02:00"},{"datasetid":"laposte_hexasmal","recordid":"ca846b8cad37fe8e2964beb0bed386122fe9a11a","fields":{"nom_de_la_commune":"VENZOLASCA","libell_d_acheminement":"VENZOLASCA","code_postal":"20215","coordonnees_gps":[42.5014054825,9.49333701193],"code_commune_insee":"2B343"},"geometry":{"type":"Point","coordinates":[9.49333701193,42.5014054825]},"record_timestamp":"2016-05-09T15:17:00+02:00"},{"datasetid":"laposte_hexasmal","recordid":"c36006f78d63650a353afa716cdf607269a4e5f6","fields":{"nom_de_la_commune":"VILLE DI PARASO","libell_d_acheminement":"VILLE DI PARASO","code_postal":"20279","coordonnees_gps":[42.5826432898,8.99012410909],"code_commune_insee":"2B352"},"geometry":{"type":"Point","coordinates":[8.99012410909,42.5826432898]},"record_timestamp":"2016-05-09T15:17:00+02:00"},{"datasetid":"laposte_hexasmal","recordid":"1851fe23e93cf2901d8734bc090672957630ce60","fields":{"code_postal":"20219","code_commune_insee":"2B354","libell_d_acheminement":"VIVARIO","ligne_5":"TATTONE","nom_de_la_commune":"VIVARIO","coordonnees_gps":[42.1523820761,9.12065538823]},"geometry":{"type":"Point","coordinates":[9.12065538823,42.1523820761]},"record_timestamp":"2016-05-09T15:17:00+02:00"},{"datasetid":"laposte_hexasmal","recordid":"7e2aaf01a648f52442345f1a8193c9e94c61c723","fields":{"nom_de_la_commune":"ALATA","libell_d_acheminement":"ALATA","code_postal":"20167","coordonnees_gps":[41.9735186682,8.73133206502],"code_commune_insee":"2A006"},"geometry":{"type":"Point","coordinates":[8.73133206502,41.9735186682]},"record_timestamp":"2016-05-09T15:17:00+02:00"},{"datasetid":"laposte_hexasmal","recordid":"713db4978743b04bddcfdcf5d58834f3e0f7a5d6","fields":{"nom_de_la_commune":"AMBIEGNA","libell_d_acheminement":"AMBIEGNA","code_postal":"20151","coordonnees_gps":[42.0878005416,8.77383533017],"code_commune_insee":"2A014"},"geometry":{"type":"Point","coordinates":[8.77383533017,42.0878005416]},"record_timestamp":"2016-05-09T15:17:00+02:00"},{"datasetid":"laposte_hexasmal","recordid":"e665c42acdb3acf328dc67375e215e68f18009ed","fields":{"nom_de_la_commune":"ARRO","libell_d_acheminement":"ARRO","code_postal":"20151","coordonnees_gps":[42.0965260296,8.8040243417],"code_commune_insee":"2A022"},"geometry":{"type":"Point","coordinates":[8.8040243417,42.0965260296]},"record_timestamp":"2016-05-09T15:17:00+02:00"},{"datasetid":"laposte_hexasmal","recordid":"0019bb0e839d888e127d361a8ced5e288af4cfdf","fields":{"nom_de_la_commune":"AZILONE AMPAZA","libell_d_acheminement":"AZILONE AMPAZA","code_postal":"20190","coordonnees_gps":[41.8704409452,9.01683572798],"code_commune_insee":"2A026"},"geometry":{"type":"Point","coordinates":[9.01683572798,41.8704409452]},"record_timestamp":"2016-05-09T15:17:00+02:00"},{"datasetid":"laposte_hexasmal","recordid":"6362a6a862d3c5d87e3c9497b675ccc655273fb3","fields":{"nom_de_la_commune":"BOCOGNANO","libell_d_acheminement":"BOCOGNANO","code_postal":"20136","coordonnees_gps":[42.0887432861,9.07100445274],"code_commune_insee":"2A040"},"geometry":{"type":"Point","coordinates":[9.07100445274,42.0887432861]},"record_timestamp":"2016-05-09T15:17:00+02:00"},{"datasetid":"laposte_hexasmal","recordid":"f9baa9fadcf61343df6122596d9ec184e6165d54","fields":{"nom_de_la_commune":"BONIFACIO","libell_d_acheminement":"BONIFACIO","code_postal":"20169","coordonnees_gps":[41.4354987425,9.18514890376],"code_commune_insee":"2A041"},"geometry":{"type":"Point","coordinates":[9.18514890376,41.4354987425]},"record_timestamp":"2016-05-09T15:17:00+02:00"},{"datasetid":"laposte_hexasmal","recordid":"9eddeb1df92a9dd0ad3f3872eb8134bdec698ac0","fields":{"code_postal":"20118","code_commune_insee":"2A090","libell_d_acheminement":"COGGIA","ligne_5":"SAGONE","nom_de_la_commune":"COGGIA","coordonnees_gps":[42.1117512753,8.73524258056]},"geometry":{"type":"Point","coordinates":[8.73524258056,42.1117512753]},"record_timestamp":"2016-05-09T15:17:00+02:00"},{"datasetid":"laposte_hexasmal","recordid":"080377efe99801bfe5b31474a9fda0fe277310e1","fields":{"nom_de_la_commune":"COGNOCOLI MONTICCHI","libell_d_acheminement":"COGNOCOLI MONTICCHI","code_postal":"20123","coordonnees_gps":[41.8017412239,8.86559828533],"code_commune_insee":"2A091"},"geometry":{"type":"Point","coordinates":[8.86559828533,41.8017412239]},"record_timestamp":"2016-05-09T15:17:00+02:00"},{"datasetid":"laposte_hexasmal","recordid":"54bee901f9a06d1a1652376fa377871e76ded5d2","fields":{"nom_de_la_commune":"COTI CHIAVARI","libell_d_acheminement":"COTI CHIAVARI","code_postal":"20138","coordonnees_gps":[41.769023404,8.75300439301],"code_commune_insee":"2A098"},"geometry":{"type":"Point","coordinates":[8.75300439301,41.769023404]},"record_timestamp":"2016-05-09T15:17:00+02:00"},{"datasetid":"laposte_hexasmal","recordid":"4b5df24a3db10e5580d76871f71107d81ee52507","fields":{"nom_de_la_commune":"EVISA","libell_d_acheminement":"EVISA","code_postal":"20126","coordonnees_gps":[42.285250229,8.82039690418],"code_commune_insee":"2A108"},"geometry":{"type":"Point","coordinates":[8.82039690418,42.285250229]},"record_timestamp":"2016-05-09T15:17:00+02:00"},{"datasetid":"laposte_hexasmal","recordid":"64d2fd412d11929a94ca1709c2daab2f94439f46","fields":{"nom_de_la_commune":"FORCIOLO","libell_d_acheminement":"FORCIOLO","code_postal":"20190","coordonnees_gps":[41.8481431897,9.01587239961],"code_commune_insee":"2A117"},"geometry":{"type":"Point","coordinates":[9.01587239961,41.8481431897]},"record_timestamp":"2016-05-09T15:17:00+02:00"},{"datasetid":"laposte_hexasmal","recordid":"120322486761a58bf450c59c1a864d7ef83975cb","fields":{"code_postal":"20166","code_commune_insee":"2A130","libell_d_acheminement":"GROSSETO PRUGNA","ligne_5":"PORTICCIO","nom_de_la_commune":"GROSSETO PRUGNA","coordonnees_gps":[41.8837141916,8.87384830361]},"geometry":{"type":"Point","coordinates":[8.87384830361,41.8837141916]},"record_timestamp":"2016-05-09T15:17:00+02:00"},{"datasetid":"laposte_hexasmal","recordid":"8411c3f1251aadf3d7a9476f1aec15ca8e409452","fields":{"nom_de_la_commune":"LECCI","libell_d_acheminement":"LECCI","code_postal":"20137","coordonnees_gps":[41.6654830708,9.31906773443],"code_commune_insee":"2A139"},"geometry":{"type":"Point","coordinates":[9.31906773443,41.6654830708]},"record_timestamp":"2016-05-09T15:17:00+02:00"},{"datasetid":"laposte_hexasmal","recordid":"f9b80f7f3f4f5e1d97ed2b0354c47778c45f7eb3","fields":{"nom_de_la_commune":"LEVIE","libell_d_acheminement":"LEVIE","code_postal":"20170","coordonnees_gps":[41.6516390001,9.11567295923],"code_commune_insee":"2A142"},"geometry":{"type":"Point","coordinates":[9.11567295923,41.6516390001]},"record_timestamp":"2016-05-09T15:17:00+02:00"},{"datasetid":"laposte_hexasmal","recordid":"93fc6921bc1599d4bdf6ea872316dd31aba0f152","fields":{"nom_de_la_commune":"LORETO DI TALLANO","libell_d_acheminement":"LORETO DI TALLANO","code_postal":"20165","coordonnees_gps":[41.6987192388,9.03120917248],"code_commune_insee":"2A146"},"geometry":{"type":"Point","coordinates":[9.03120917248,41.6987192388]},"record_timestamp":"2016-05-09T15:17:00+02:00"},{"datasetid":"laposte_hexasmal","recordid":"f1522e52869f6dc3da4ea85fb9191387df7b5dd0","fields":{"nom_de_la_commune":"MARIGNANA","libell_d_acheminement":"MARIGNANA","code_postal":"20141","coordonnees_gps":[42.2083267447,8.72012145017],"code_commune_insee":"2A154"},"geometry":{"type":"Point","coordinates":[8.72012145017,42.2083267447]},"record_timestamp":"2016-05-09T15:17:00+02:00"},{"datasetid":"laposte_hexasmal","recordid":"4c4bbd4277183da3e3e94a3f0fdc293667a6f4d9","fields":{"nom_de_la_commune":"MELA","libell_d_acheminement":"MELA","code_postal":"20112","coordonnees_gps":[41.6843116353,9.09251801465],"code_commune_insee":"2A158"},"geometry":{"type":"Point","coordinates":[9.09251801465,41.6843116353]},"record_timestamp":"2016-05-09T15:17:00+02:00"},{"datasetid":"laposte_hexasmal","recordid":"d09d71c04f7153acef1d05521ead1212965072fd","fields":{"nom_de_la_commune":"MOCA CROCE","libell_d_acheminement":"MOCA CROCE","code_postal":"20140","coordonnees_gps":[41.7880108212,9.00990338011],"code_commune_insee":"2A160"},"geometry":{"type":"Point","coordinates":[9.00990338011,41.7880108212]},"record_timestamp":"2016-05-09T15:17:00+02:00"},{"datasetid":"laposte_hexasmal","recordid":"6d36e8ceb373c61e932d4d27c4b5905a1794b3fc","fields":{"nom_de_la_commune":"OCANA","libell_d_acheminement":"OCANA","code_postal":"20117","coordonnees_gps":[41.9503939626,8.909888839],"code_commune_insee":"2A181"},"geometry":{"type":"Point","coordinates":[8.909888839,41.9503939626]},"record_timestamp":"2016-05-09T15:17:00+02:00"},{"datasetid":"laposte_hexasmal","recordid":"d675024438c8e284b392df6791f965f2d23cc226","fields":{"nom_de_la_commune":"OLMETO","libell_d_acheminement":"OLMETO","code_postal":"20113","coordonnees_gps":[41.7120554576,8.90482669447],"code_commune_insee":"2A189"},"geometry":{"type":"Point","coordinates":[8.90482669447,41.7120554576]},"record_timestamp":"2016-05-09T15:17:00+02:00"},{"datasetid":"laposte_hexasmal","recordid":"c1e99a0ee92478e429601b8e40f91eb318e1bdde","fields":{"nom_de_la_commune":"OLMICCIA","libell_d_acheminement":"OLMICCIA","code_postal":"20112","coordonnees_gps":[41.6701338778,9.03297164192],"code_commune_insee":"2A191"},"geometry":{"type":"Point","coordinates":[9.03297164192,41.6701338778]},"record_timestamp":"2016-05-09T15:17:00+02:00"},{"datasetid":"laposte_hexasmal","recordid":"edb0848f8f5e6b2b4666b0f352c34d01f0d3ef1c","fields":{"nom_de_la_commune":"PERI","libell_d_acheminement":"PERI","code_postal":"20167","coordonnees_gps":[42.003934282,8.91155032834],"code_commune_insee":"2A209"},"geometry":{"type":"Point","coordinates":[8.91155032834,42.003934282]},"record_timestamp":"2016-05-09T15:17:00+02:00"},{"datasetid":"laposte_hexasmal","recordid":"e4f14dbe8097bd94902d8953062f475e8b8e38c1","fields":{"nom_de_la_commune":"QUASQUARA","libell_d_acheminement":"QUASQUARA","code_postal":"20142","coordonnees_gps":[41.9087537102,9.00836117907],"code_commune_insee":"2A253"},"geometry":{"type":"Point","coordinates":[9.00836117907,41.9087537102]},"record_timestamp":"2016-05-09T15:17:00+02:00"},{"datasetid":"laposte_hexasmal","recordid":"c907d3e7c8a8ea6ccbfbec82048027186e7c4427","fields":{"nom_de_la_commune":"SARROLA CARCOPINO","libell_d_acheminement":"SARROLA CARCOPINO","code_postal":"20167","coordonnees_gps":[42.0010171951,8.83437893445],"code_commune_insee":"2A271"},"geometry":{"type":"Point","coordinates":[8.83437893445,42.0010171951]},"record_timestamp":"2016-05-09T15:17:00+02:00"},{"datasetid":"laposte_hexasmal","recordid":"ce9e9867ac674656a25a49ed14ff4c1478094ac8","fields":{"nom_de_la_commune":"SARTENE","libell_d_acheminement":"SARTENE","code_postal":"20100","coordonnees_gps":[41.5718443328,8.93538107497],"code_commune_insee":"2A272"},"geometry":{"type":"Point","coordinates":[8.93538107497,41.5718443328]},"record_timestamp":"2016-05-09T15:17:00+02:00"},{"datasetid":"laposte_hexasmal","recordid":"49bea154fb69fa589fa5ae690ee7e075a58fa9ce","fields":{"nom_de_la_commune":"SERRIERA","libell_d_acheminement":"SERRIERA","code_postal":"20147","coordonnees_gps":[42.307049386,8.73249922249],"code_commune_insee":"2A279"},"geometry":{"type":"Point","coordinates":[8.73249922249,42.307049386]},"record_timestamp":"2016-05-09T15:17:00+02:00"},{"datasetid":"laposte_hexasmal","recordid":"056071c039bf39a65f993e179b1494982b41e6f9","fields":{"nom_de_la_commune":"SOCCIA","libell_d_acheminement":"SOCCIA","code_postal":"20125","coordonnees_gps":[42.2094271559,8.92258883331],"code_commune_insee":"2A282"},"geometry":{"type":"Point","coordinates":[8.92258883331,42.2094271559]},"record_timestamp":"2016-05-09T15:17:00+02:00"},{"datasetid":"laposte_hexasmal","recordid":"19dea2469523a8c4a7a5f6773fee90772bfad089","fields":{"nom_de_la_commune":"SOLLACARO","libell_d_acheminement":"SOLLACARO","code_postal":"20140","coordonnees_gps":[41.7417710939,8.88010382989],"code_commune_insee":"2A284"},"geometry":{"type":"Point","coordinates":[8.88010382989,41.7417710939]},"record_timestamp":"2016-05-09T15:17:00+02:00"},{"datasetid":"laposte_hexasmal","recordid":"fa921d56ad28124e9b58fe8ae7ee45642dfce6cb","fields":{"nom_de_la_commune":"SOTTA","libell_d_acheminement":"SOTTA","code_postal":"20146","coordonnees_gps":[41.555960372,9.18208356103],"code_commune_insee":"2A288"},"geometry":{"type":"Point","coordinates":[9.18208356103,41.555960372]},"record_timestamp":"2016-05-09T15:17:00+02:00"},{"datasetid":"laposte_hexasmal","recordid":"7faef2395e6aede3f9baa1814e1e4831dba70217","fields":{"nom_de_la_commune":"SANTA MARIA FIGANIELLA","libell_d_acheminement":"SANTA MARIA FIGANIELLA","code_postal":"20143","coordonnees_gps":[41.725389582,9.00886511105],"code_commune_insee":"2A310"},"geometry":{"type":"Point","coordinates":[9.00886511105,41.725389582]},"record_timestamp":"2016-05-09T15:17:00+02:00"},{"datasetid":"laposte_hexasmal","recordid":"9c86655d6a25249065553d0c912574e1447ad102","fields":{"nom_de_la_commune":"URBALACONE","libell_d_acheminement":"URBALACONE","code_postal":"20128","coordonnees_gps":[41.8260298884,8.94923394489],"code_commune_insee":"2A331"},"geometry":{"type":"Point","coordinates":[8.94923394489,41.8260298884]},"record_timestamp":"2016-05-09T15:17:00+02:00"},{"datasetid":"laposte_hexasmal","recordid":"f1a35cfb0e6fcab7743e5c0d571ee3a6e9e5e62c","fields":{"code_postal":"20118","code_commune_insee":"2A348","libell_d_acheminement":"VICO","ligne_5":"SAGONE","nom_de_la_commune":"VICO","coordonnees_gps":[42.1506390695,8.73051107045]},"geometry":{"type":"Point","coordinates":[8.73051107045,42.1506390695]},"record_timestamp":"2016-05-09T15:17:00+02:00"},{"datasetid":"laposte_hexasmal","recordid":"941b5b4beca4f801d99642c09a6e03b88528de31","fields":{"nom_de_la_commune":"VILLANOVA","libell_d_acheminement":"VILLANOVA","code_postal":"20167","coordonnees_gps":[41.9635153362,8.66974621605],"code_commune_insee":"2A351"},"geometry":{"type":"Point","coordinates":[8.66974621605,41.9635153362]},"record_timestamp":"2016-05-09T15:17:00+02:00"},{"datasetid":"laposte_hexasmal","recordid":"cbdcef6c014245ba1e32e48d3589d988f336d808","fields":{"code_postal":"20224","code_commune_insee":"2B007","libell_d_acheminement":"ALBERTACCE","ligne_5":"VERGIO","nom_de_la_commune":"ALBERTACCE","coordonnees_gps":[42.3117941076,8.92423033485]},"geometry":{"type":"Point","coordinates":[8.92423033485,42.3117941076]},"record_timestamp":"2016-05-09T15:17:00+02:00"},{"datasetid":"laposte_hexasmal","recordid":"c5aa18e97b8c6e08206103dace8267d85172fda6","fields":{"code_postal":"20270","code_commune_insee":"2B009","libell_d_acheminement":"ALERIA","ligne_5":"VACAJA","nom_de_la_commune":"ALERIA","coordonnees_gps":[42.1059105058,9.495645512]},"geometry":{"type":"Point","coordinates":[9.495645512,42.1059105058]},"record_timestamp":"2016-05-09T15:17:00+02:00"},{"datasetid":"laposte_hexasmal","recordid":"7aa4162a7c454b23e366e72818f603b7ad6e5af8","fields":{"nom_de_la_commune":"ALZI","libell_d_acheminement":"ALZI","code_postal":"20212","coordonnees_gps":[42.312646335,9.3147546564],"code_commune_insee":"2B013"},"geometry":{"type":"Point","coordinates":[9.3147546564,42.312646335]},"record_timestamp":"2016-05-09T15:17:00+02:00"},{"datasetid":"laposte_hexasmal","recordid":"60a6eb32fc8967a84aa006f195133f633c1789a0","fields":{"nom_de_la_commune":"ASCO","libell_d_acheminement":"ASCO","code_postal":"20276","coordonnees_gps":[42.4346334244,8.99704854725],"code_commune_insee":"2B023"},"geometry":{"type":"Point","coordinates":[8.99704854725,42.4346334244]},"record_timestamp":"2016-05-09T15:17:00+02:00"},{"datasetid":"laposte_hexasmal","recordid":"694bbc2cecc55f1489dc9be92dc5aa1454b3108a","fields":{"nom_de_la_commune":"AVAPESSA","libell_d_acheminement":"AVAPESSA","code_postal":"20225","coordonnees_gps":[42.5591666963,8.89434767169],"code_commune_insee":"2B025"},"geometry":{"type":"Point","coordinates":[8.89434767169,42.5591666963]},"record_timestamp":"2016-05-09T15:17:00+02:00"},{"datasetid":"laposte_hexasmal","recordid":"da6f38ebc722bdaf1525348fef1b578cfd6fe3aa","fields":{"code_postal":"20200","code_commune_insee":"2B033","libell_d_acheminement":"BASTIA","ligne_5":"CARDO","nom_de_la_commune":"BASTIA","coordonnees_gps":[42.6864768806,9.42502133338]},"geometry":{"type":"Point","coordinates":[9.42502133338,42.6864768806]},"record_timestamp":"2016-05-09T15:17:00+02:00"},{"datasetid":"laposte_hexasmal","recordid":"fa44914ecc220181a5f7507fef7a9278236f33c5","fields":{"nom_de_la_commune":"BIGORNO","libell_d_acheminement":"BIGORNO","code_postal":"20252","coordonnees_gps":[42.5310349596,9.30225902799],"code_commune_insee":"2B036"},"geometry":{"type":"Point","coordinates":[9.30225902799,42.5310349596]},"record_timestamp":"2016-05-09T15:17:00+02:00"},{"datasetid":"laposte_hexasmal","recordid":"0ac1c15cce6f248844799725e3fc81c40148ed6e","fields":{"code_postal":"20620","code_commune_insee":"2B037","libell_d_acheminement":"BIGUGLIA","ligne_5":"CASATORRA","nom_de_la_commune":"BIGUGLIA","coordonnees_gps":[42.6164219998,9.44048317398]},"geometry":{"type":"Point","coordinates":[9.44048317398,42.6164219998]},"record_timestamp":"2016-05-09T15:17:00+02:00"},{"datasetid":"laposte_hexasmal","recordid":"72e0b9b4367be7d92e384098c5e21ec04caa3da8","fields":{"nom_de_la_commune":"BISINCHI","libell_d_acheminement":"BISINCHI","code_postal":"20235","coordonnees_gps":[42.485929834,9.31902586907],"code_commune_insee":"2B039"},"geometry":{"type":"Point","coordinates":[9.31902586907,42.485929834]},"record_timestamp":"2016-05-09T15:17:00+02:00"},{"datasetid":"laposte_hexasmal","recordid":"c9c922e31f19d0a48b8fa3678c34c228409e47a0","fields":{"code_postal":"20222","code_commune_insee":"2B043","libell_d_acheminement":"BRANDO","ligne_5":"LAVASINA","nom_de_la_commune":"BRANDO","coordonnees_gps":[42.7792996993,9.45029993821]},"geometry":{"type":"Point","coordinates":[9.45029993821,42.7792996993]},"record_timestamp":"2016-05-09T15:17:00+02:00"},{"datasetid":"laposte_hexasmal","recordid":"462afc02a837ac02ffb615c70946697f1844c2dc","fields":{"nom_de_la_commune":"BUSTANICO","libell_d_acheminement":"BUSTANICO","code_postal":"20212","coordonnees_gps":[42.3272213954,9.30862060139],"code_commune_insee":"2B045"},"geometry":{"type":"Point","coordinates":[9.30862060139,42.3272213954]},"record_timestamp":"2016-05-09T15:17:00+02:00"},{"datasetid":"laposte_hexasmal","recordid":"537d9ae69a04558ad1fdf5ea4046b843970840c0","fields":{"nom_de_la_commune":"CALENZANA","libell_d_acheminement":"CALENZANA","code_postal":"20214","coordonnees_gps":[42.4784267166,8.80369225001],"code_commune_insee":"2B049"},"geometry":{"type":"Point","coordinates":[8.80369225001,42.4784267166]},"record_timestamp":"2016-05-09T15:17:00+02:00"},{"datasetid":"laposte_hexasmal","recordid":"012fc310c8361f765acb28701150975a85577ebf","fields":{"nom_de_la_commune":"CALVI","libell_d_acheminement":"CALVI","code_postal":"20260","coordonnees_gps":[42.5454874755,8.7595487404],"code_commune_insee":"2B050"},"geometry":{"type":"Point","coordinates":[8.7595487404,42.5454874755]},"record_timestamp":"2016-05-09T15:17:00+02:00"},{"datasetid":"laposte_hexasmal","recordid":"47fe7efd536c6b237f197522cb7c5c1cf1c9cfca","fields":{"nom_de_la_commune":"CAMPANA","libell_d_acheminement":"CAMPANA","code_postal":"20229","coordonnees_gps":[42.3886009558,9.33996817013],"code_commune_insee":"2B052"},"geometry":{"type":"Point","coordinates":[9.33996817013,42.3886009558]},"record_timestamp":"2016-05-09T15:17:00+02:00"},{"datasetid":"laposte_hexasmal","recordid":"22da75a3888878b0f728db410d5f7c393beaca2c","fields":{"nom_de_la_commune":"CANALE DI VERDE","libell_d_acheminement":"CANALE DI VERDE","code_postal":"20230","coordonnees_gps":[42.2649423913,9.50202161228],"code_commune_insee":"2B057"},"geometry":{"type":"Point","coordinates":[9.50202161228,42.2649423913]},"record_timestamp":"2016-05-09T15:17:00+02:00"},{"datasetid":"laposte_hexasmal","recordid":"dc75b938971f30eb9e7719353753b8703ee5f838","fields":{"nom_de_la_commune":"CANAVAGGIA","libell_d_acheminement":"CANAVAGGIA","code_postal":"20235","coordonnees_gps":[42.4966282507,9.23425707415],"code_commune_insee":"2B059"},"geometry":{"type":"Point","coordinates":[9.23425707415,42.4966282507]},"record_timestamp":"2016-05-09T15:17:00+02:00"},{"datasetid":"laposte_hexasmal","recordid":"b8eb338e8c47a829f0c0f5e104623884cffb9d6e","fields":{"nom_de_la_commune":"CASABIANCA","libell_d_acheminement":"CASABIANCA","code_postal":"20237","coordonnees_gps":[42.4472062738,9.37216855737],"code_commune_insee":"2B069"},"geometry":{"type":"Point","coordinates":[9.37216855737,42.4472062738]},"record_timestamp":"2016-05-09T15:17:00+02:00"},{"datasetid":"laposte_hexasmal","recordid":"cd1b521857341be95387764035c32e8916e55338","fields":{"nom_de_la_commune":"CASAMACCIOLI","libell_d_acheminement":"CASAMACCIOLI","code_postal":"20224","coordonnees_gps":[42.2828810078,8.9950833348],"code_commune_insee":"2B073"},"geometry":{"type":"Point","coordinates":[8.9950833348,42.2828810078]},"record_timestamp":"2016-05-09T15:17:00+02:00"},{"datasetid":"laposte_hexasmal","recordid":"dd8c206017825695447438923e97189b937471cd","fields":{"nom_de_la_commune":"CASTIFAO","libell_d_acheminement":"CASTIFAO","code_postal":"20218","coordonnees_gps":[42.5259960689,9.11827028996],"code_commune_insee":"2B080"},"geometry":{"type":"Point","coordinates":[9.11827028996,42.5259960689]},"record_timestamp":"2016-05-09T15:17:00+02:00"},{"datasetid":"laposte_hexasmal","recordid":"56d34d34dd2f09d0860f63f2e56a198ea7f371d3","fields":{"nom_de_la_commune":"CERVIONE","libell_d_acheminement":"CERVIONE","code_postal":"20221","coordonnees_gps":[42.3210930584,9.5154262188],"code_commune_insee":"2B087"},"geometry":{"type":"Point","coordinates":[9.5154262188,42.3210930584]},"record_timestamp":"2016-05-09T15:17:00+02:00"},{"datasetid":"laposte_hexasmal","recordid":"db5951151be9949d260a248d96c882829872aa17","fields":{"nom_de_la_commune":"FELICETO","libell_d_acheminement":"FELICETO","code_postal":"20225","coordonnees_gps":[42.5493282775,8.93994072673],"code_commune_insee":"2B112"},"geometry":{"type":"Point","coordinates":[8.93994072673,42.5493282775]},"record_timestamp":"2016-05-09T15:17:00+02:00"},{"datasetid":"laposte_hexasmal","recordid":"be9573ec575a2e8db070d9de185f0d7de0d99608","fields":{"nom_de_la_commune":"GAVIGNANO","libell_d_acheminement":"GAVIGNANO","code_postal":"20218","coordonnees_gps":[42.4228249345,9.25981637428],"code_commune_insee":"2B122"},"geometry":{"type":"Point","coordinates":[9.25981637428,42.4228249345]},"record_timestamp":"2016-05-09T15:17:00+02:00"},{"datasetid":"laposte_hexasmal","recordid":"5c97e98899b1b635e9f8ca5041a5b631f74064cc","fields":{"nom_de_la_commune":"GHISONACCIA","libell_d_acheminement":"GHISONACCIA","code_postal":"20240","coordonnees_gps":[42.0437178075,9.42260770968],"code_commune_insee":"2B123"},"geometry":{"type":"Point","coordinates":[9.42260770968,42.0437178075]},"record_timestamp":"2016-05-09T15:17:00+02:00"},{"datasetid":"laposte_hexasmal","recordid":"a998f2cf697da3e8ffcf211a13175e4f531fd08d","fields":{"code_postal":"20240","code_commune_insee":"2B123","libell_d_acheminement":"GHISONACCIA","ligne_5":"ALZITONE","nom_de_la_commune":"GHISONACCIA","coordonnees_gps":[42.0437178075,9.42260770968]},"geometry":{"type":"Point","coordinates":[9.42260770968,42.0437178075]},"record_timestamp":"2016-05-09T15:17:00+02:00"},{"datasetid":"laposte_hexasmal","recordid":"f706211f95840cd8469c832e5077d04aae09ee94","fields":{"nom_de_la_commune":"L ILE ROUSSE","libell_d_acheminement":"L ILE ROUSSE","code_postal":"20220","coordonnees_gps":[42.631545096,8.93355970672],"code_commune_insee":"2B134"},"geometry":{"type":"Point","coordinates":[8.93355970672,42.631545096]},"record_timestamp":"2016-05-09T15:17:00+02:00"},{"datasetid":"laposte_hexasmal","recordid":"d11b0e7ac4275fc2c7e0b233b5654c9196a49a24","fields":{"nom_de_la_commune":"LANO","libell_d_acheminement":"LANO","code_postal":"20244","coordonnees_gps":[42.3789860605,9.23567141765],"code_commune_insee":"2B137"},"geometry":{"type":"Point","coordinates":[9.23567141765,42.3789860605]},"record_timestamp":"2016-05-09T15:17:00+02:00"},{"datasetid":"laposte_hexasmal","recordid":"8925bbfcc24f0544a29d4e1f57ccf34891eb4bdb","fields":{"nom_de_la_commune":"LINGUIZZETTA","libell_d_acheminement":"LINGUIZZETTA","code_postal":"20230","coordonnees_gps":[42.2176450793,9.51024497679],"code_commune_insee":"2B143"},"geometry":{"type":"Point","coordinates":[9.51024497679,42.2176450793]},"record_timestamp":"2016-05-09T15:17:00+02:00"},{"datasetid":"laposte_hexasmal","recordid":"b3f501d25e0ba3ef74334efa72e2529fc7effc11","fields":{"nom_de_la_commune":"LUCCIANA","libell_d_acheminement":"LUCCIANA","code_postal":"20290","coordonnees_gps":[42.5413974263,9.47269139438],"code_commune_insee":"2B148"},"geometry":{"type":"Point","coordinates":[9.47269139438,42.5413974263]},"record_timestamp":"2016-05-09T15:17:00+02:00"},{"datasetid":"laposte_hexasmal","recordid":"04bd5ceab9cb81911ba197fcc56c17ecbf2ca279","fields":{"code_postal":"20214","code_commune_insee":"2B167","libell_d_acheminement":"MONTEGROSSO","ligne_5":"CASSANO","nom_de_la_commune":"MONTEGROSSO","coordonnees_gps":[42.543505718,8.85623474811]},"geometry":{"type":"Point","coordinates":[8.85623474811,42.543505718]},"record_timestamp":"2016-05-09T15:17:00+02:00"},{"datasetid":"laposte_hexasmal","recordid":"aa07ccd7a250885177f5f680cfd4135bd3cbd3ed","fields":{"code_postal":"20214","code_commune_insee":"2B167","libell_d_acheminement":"MONTEGROSSO","ligne_5":"MONTEMAGGIORE","nom_de_la_commune":"MONTEGROSSO","coordonnees_gps":[42.543505718,8.85623474811]},"geometry":{"type":"Point","coordinates":[8.85623474811,42.543505718]},"record_timestamp":"2016-05-09T15:17:00+02:00"},{"datasetid":"laposte_hexasmal","recordid":"4b531f84aaf8b2966861da7ce67961ca1db296ca","fields":{"nom_de_la_commune":"MURATO","libell_d_acheminement":"MURATO","code_postal":"20239","coordonnees_gps":[42.5671895141,9.32704854356],"code_commune_insee":"2B172"},"geometry":{"type":"Point","coordinates":[9.32704854356,42.5671895141]},"record_timestamp":"2016-05-09T15:17:00+02:00"},{"datasetid":"laposte_hexasmal","recordid":"3981dd4f8064ca94c96930a89d006121a3b83036","fields":{"nom_de_la_commune":"OLETTA","libell_d_acheminement":"OLETTA","code_postal":"20232","coordonnees_gps":[42.6416261877,9.33321314144],"code_commune_insee":"2B185"},"geometry":{"type":"Point","coordinates":[9.33321314144,42.6416261877]},"record_timestamp":"2016-05-09T15:17:00+02:00"},{"datasetid":"laposte_hexasmal","recordid":"91a0e5f598cb1b320a085e8dfff5019e952154de","fields":{"nom_de_la_commune":"OLMETA DI TUDA","libell_d_acheminement":"OLMETA DI TUDA","code_postal":"20232","coordonnees_gps":[42.6122409049,9.36435910828],"code_commune_insee":"2B188"},"geometry":{"type":"Point","coordinates":[9.36435910828,42.6122409049]},"record_timestamp":"2016-05-09T15:17:00+02:00"},{"datasetid":"laposte_hexasmal","recordid":"54a9ef042abcb3cddeb3707ba0d3e2abc6c99b83","fields":{"code_postal":"20236","code_commune_insee":"2B193","libell_d_acheminement":"OMESSA","ligne_5":"FRANCARDO","nom_de_la_commune":"OMESSA","coordonnees_gps":[42.3827760667,9.19362569461]},"geometry":{"type":"Point","coordinates":[9.19362569461,42.3827760667]},"record_timestamp":"2016-05-09T15:17:00+02:00"},{"datasetid":"laposte_hexasmal","recordid":"4867b5bdb4dbe6f3a580614194464cf5fd494037","fields":{"nom_de_la_commune":"PERO CASEVECCHIE","libell_d_acheminement":"PERO CASEVECCHIE","code_postal":"20230","coordonnees_gps":[42.4163942737,9.46376889393],"code_commune_insee":"2B210"},"geometry":{"type":"Point","coordinates":[9.46376889393,42.4163942737]},"record_timestamp":"2016-05-09T15:17:00+02:00"},{"datasetid":"laposte_hexasmal","recordid":"a7c5c37fd47836c73ee396d923c511b03d41f11b","fields":{"nom_de_la_commune":"PIANELLO","libell_d_acheminement":"PIANELLO","code_postal":"20272","coordonnees_gps":[42.2974342822,9.3564849258],"code_commune_insee":"2B213"},"geometry":{"type":"Point","coordinates":[9.3564849258,42.2974342822]},"record_timestamp":"2016-05-09T15:17:00+02:00"},{"datasetid":"laposte_hexasmal","recordid":"b598e2b96c42f25bd72aec9cfb2c320b3cb14ed4","fields":{"nom_de_la_commune":"PIETRALBA","libell_d_acheminement":"PIETRALBA","code_postal":"20218","coordonnees_gps":[42.5426494388,9.18325880414],"code_commune_insee":"2B223"},"geometry":{"type":"Point","coordinates":[9.18325880414,42.5426494388]},"record_timestamp":"2016-05-09T15:17:00+02:00"},{"datasetid":"laposte_hexasmal","recordid":"4ee147bd20162b2f684d3de9a06a784f8be23631","fields":{"nom_de_la_commune":"PRUNELLI DI CASACCONI","libell_d_acheminement":"PRUNELLI DI CASACCONI","code_postal":"20290","coordonnees_gps":[42.5104109341,9.40561122356],"code_commune_insee":"2B250"},"geometry":{"type":"Point","coordinates":[9.40561122356,42.5104109341]},"record_timestamp":"2016-05-09T15:17:00+02:00"},{"datasetid":"laposte_hexasmal","recordid":"78b853fe5b1ac5f76e2bf4c3bf0fd962be64b4df","fields":{"nom_de_la_commune":"PRUNELLI DI FIUMORBO","libell_d_acheminement":"PRUNELLI DI FIUMORBO","code_postal":"20243","coordonnees_gps":[42.0072330034,9.36772895124],"code_commune_insee":"2B251"},"geometry":{"type":"Point","coordinates":[9.36772895124,42.0072330034]},"record_timestamp":"2016-05-09T15:17:00+02:00"},{"datasetid":"laposte_hexasmal","recordid":"4eb1aa70efda5ef00d1b214565ec3953d7cb4658","fields":{"code_postal":"20243","code_commune_insee":"2B251","libell_d_acheminement":"PRUNELLI DI FIUMORBO","ligne_5":"MORTA","nom_de_la_commune":"PRUNELLI DI FIUMORBO","coordonnees_gps":[42.0072330034,9.36772895124]},"geometry":{"type":"Point","coordinates":[9.36772895124,42.0072330034]},"record_timestamp":"2016-05-09T15:17:00+02:00"},{"datasetid":"laposte_hexasmal","recordid":"30dc48a7099161e23574837b65552e02b885014b","fields":{"nom_de_la_commune":"PRUNO","libell_d_acheminement":"PRUNO","code_postal":"20213","coordonnees_gps":[42.4243509668,9.44755598733],"code_commune_insee":"2B252"},"geometry":{"type":"Point","coordinates":[9.44755598733,42.4243509668]},"record_timestamp":"2016-05-09T15:17:00+02:00"},{"datasetid":"laposte_hexasmal","recordid":"3d34992bca05fcaad72762b1255502f3a0509abb","fields":{"nom_de_la_commune":"RUSIO","libell_d_acheminement":"RUSIO","code_postal":"20244","coordonnees_gps":[42.3537749145,9.25853604756],"code_commune_insee":"2B264"},"geometry":{"type":"Point","coordinates":[9.25853604756,42.3537749145]},"record_timestamp":"2016-05-09T15:17:00+02:00"},{"datasetid":"laposte_hexasmal","recordid":"231c7b2bb835095f4724e3e3038690284d3c81a5","fields":{"nom_de_la_commune":"RUTALI","libell_d_acheminement":"RUTALI","code_postal":"20239","coordonnees_gps":[42.5827324452,9.38160373146],"code_commune_insee":"2B265"},"geometry":{"type":"Point","coordinates":[9.38160373146,42.5827324452]},"record_timestamp":"2016-05-09T15:17:00+02:00"},{"datasetid":"laposte_hexasmal","recordid":"11e137ee9d2dfe7ddd06af981cfd1727b8c4f541","fields":{"nom_de_la_commune":"SCOLCA","libell_d_acheminement":"SCOLCA","code_postal":"20290","coordonnees_gps":[42.5393358572,9.36456503602],"code_commune_insee":"2B274"},"geometry":{"type":"Point","coordinates":[9.36456503602,42.5393358572]},"record_timestamp":"2016-05-09T15:17:00+02:00"},{"datasetid":"laposte_hexasmal","recordid":"70c66e16e6084c4feb65a102b1c2437a67237419","fields":{"nom_de_la_commune":"SPELONCATO","libell_d_acheminement":"SPELONCATO","code_postal":"20226","coordonnees_gps":[42.5743163085,8.96966763769],"code_commune_insee":"2B290"},"geometry":{"type":"Point","coordinates":[8.96966763769,42.5743163085]},"record_timestamp":"2016-05-09T15:17:00+02:00"},{"datasetid":"laposte_hexasmal","recordid":"d0a165146b2c3bb94edf42abbfcd1460ecc710dd","fields":{"nom_de_la_commune":"SANT ANTONINO","libell_d_acheminement":"SANT ANTONINO","code_postal":"20220","coordonnees_gps":[42.5845277906,8.90827098079],"code_commune_insee":"2B296"},"geometry":{"type":"Point","coordinates":[8.90827098079,42.5845277906]},"record_timestamp":"2016-05-09T15:17:00+02:00"},{"datasetid":"laposte_hexasmal","recordid":"819d8469a6c0b1362868f305f1fbf6d084dff0c6","fields":{"nom_de_la_commune":"ST FLORENT","libell_d_acheminement":"ST FLORENT","code_postal":"20217","coordonnees_gps":[42.6872130129,9.28317002062],"code_commune_insee":"2B298"},"geometry":{"type":"Point","coordinates":[9.28317002062,42.6872130129]},"record_timestamp":"2016-05-09T15:17:00+02:00"},{"datasetid":"laposte_hexasmal","recordid":"4b170e90ccb5d5da73a2aa5143337b9c2d3c67d4","fields":{"nom_de_la_commune":"SANTA MARIA DI LOTA","libell_d_acheminement":"SANTA MARIA DI LOTA","code_postal":"20200","coordonnees_gps":[42.7511136181,9.42463745833],"code_commune_insee":"2B309"},"geometry":{"type":"Point","coordinates":[9.42463745833,42.7511136181]},"record_timestamp":"2016-05-09T15:17:00+02:00"},{"datasetid":"laposte_hexasmal","recordid":"eb41a528287f36f39a5acc15e97068c4a65ce39f","fields":{"nom_de_la_commune":"SANTA REPARATA DI BALAGNA","libell_d_acheminement":"SANTA REPARATA DI BALAGNA","code_postal":"20220","coordonnees_gps":[42.6011280818,8.93155852318],"code_commune_insee":"2B316"},"geometry":{"type":"Point","coordinates":[8.93155852318,42.6011280818]},"record_timestamp":"2016-05-09T15:17:00+02:00"},{"datasetid":"laposte_hexasmal","recordid":"97c67e43f06a802330b08324324f7760af91ecd1","fields":{"nom_de_la_commune":"SANTA REPARATA DI MORIANI","libell_d_acheminement":"SANTA REPARATA DI MORIANI","code_postal":"20230","coordonnees_gps":[42.3511091684,9.45558469245],"code_commune_insee":"2B317"},"geometry":{"type":"Point","coordinates":[9.45558469245,42.3511091684]},"record_timestamp":"2016-05-09T15:17:00+02:00"},{"datasetid":"laposte_hexasmal","recordid":"f08e3974a6dcc443369c948acffa58a338f89a72","fields":{"nom_de_la_commune":"TALASANI","libell_d_acheminement":"TALASANI","code_postal":"20230","coordonnees_gps":[42.4178789576,9.50731616445],"code_commune_insee":"2B319"},"geometry":{"type":"Point","coordinates":[9.50731616445,42.4178789576]},"record_timestamp":"2016-05-09T15:17:00+02:00"},{"datasetid":"laposte_hexasmal","recordid":"783c921ea07bdfa5ef976918bad4ec88a5db1d0f","fields":{"code_postal":"20230","code_commune_insee":"2B319","libell_d_acheminement":"TALASANI","ligne_5":"FIGARETTO","nom_de_la_commune":"TALASANI","coordonnees_gps":[42.4178789576,9.50731616445]},"geometry":{"type":"Point","coordinates":[9.50731616445,42.4178789576]},"record_timestamp":"2016-05-09T15:17:00+02:00"},{"datasetid":"laposte_hexasmal","recordid":"fe67fa209cfd32f462ba6e39b05deb83654111fa","fields":{"nom_de_la_commune":"VERDESE","libell_d_acheminement":"VERDESE","code_postal":"20229","coordonnees_gps":[42.3941662475,9.37311777417],"code_commune_insee":"2B344"},"geometry":{"type":"Point","coordinates":[9.37311777417,42.3941662475]},"record_timestamp":"2016-05-09T15:17:00+02:00"},{"datasetid":"laposte_hexasmal","recordid":"038d147df0e3df049e5d5e803eaab5f972cb0cf5","fields":{"nom_de_la_commune":"VESCOVATO","libell_d_acheminement":"VESCOVATO","code_postal":"20215","coordonnees_gps":[42.5156004933,9.47327679289],"code_commune_insee":"2B346"},"geometry":{"type":"Point","coordinates":[9.47327679289,42.5156004933]},"record_timestamp":"2016-05-09T15:17:00+02:00"},{"datasetid":"laposte_hexasmal","recordid":"de2cba02221fc793d83a15bffe06c0803f9386f7","fields":{"nom_de_la_commune":"VILLE DI PIETRABUGNO","libell_d_acheminement":"VILLE DI PIETRABUGNO","code_postal":"20200","coordonnees_gps":[42.7159914002,9.42737933318],"code_commune_insee":"2B353"},"geometry":{"type":"Point","coordinates":[9.42737933318,42.7159914002]},"record_timestamp":"2016-05-09T15:17:00+02:00"},{"datasetid":"laposte_hexasmal","recordid":"4d9746e705b879a65f299fb03bc0ef8103874837","fields":{"nom_de_la_commune":"ZILIA","libell_d_acheminement":"ZILIA","code_postal":"20214","coordonnees_gps":[42.5186011027,8.90376320006],"code_commune_insee":"2B361"},"geometry":{"type":"Point","coordinates":[8.90376320006,42.5186011027]},"record_timestamp":"2016-05-09T15:17:00+02:00"},{"datasetid":"laposte_hexasmal","recordid":"b65d7436a3780242c734e7000bc073418c00b782","fields":{"nom_de_la_commune":"SAN GAVINO DI FIUMORBO","libell_d_acheminement":"SAN GAVINO DI FIUMORBO","code_postal":"20243","coordonnees_gps":[41.9714498244,9.24775602009],"code_commune_insee":"2B365"},"geometry":{"type":"Point","coordinates":[9.24775602009,41.9714498244]},"record_timestamp":"2016-05-09T15:17:00+02:00"},{"datasetid":"laposte_hexasmal","recordid":"6142ab0173cf2445354e77e5035a309ca9cea2a9","fields":{"nom_de_la_commune":"AJACCIO","libell_d_acheminement":"AJACCIO","code_postal":"20000","coordonnees_gps":[41.9347926638,8.70132275974],"code_commune_insee":"2A004"},"geometry":{"type":"Point","coordinates":[8.70132275974,41.9347926638]},"record_timestamp":"2016-05-09T15:17:00+02:00"},{"datasetid":"laposte_hexasmal","recordid":"698a1c980dba8439efba1e6c229cc4ce53c3c84e","fields":{"nom_de_la_commune":"AULLENE","libell_d_acheminement":"AULLENE","code_postal":"20116","coordonnees_gps":[41.8067898223,9.09266751602],"code_commune_insee":"2A024"},"geometry":{"type":"Point","coordinates":[9.09266751602,41.8067898223]},"record_timestamp":"2016-05-09T15:17:00+02:00"},{"datasetid":"laposte_hexasmal","recordid":"2a7a02bba0b96592fcf3d025f84eb010bc097891","fields":{"nom_de_la_commune":"BASTELICA","libell_d_acheminement":"BASTELICA","code_postal":"20119","coordonnees_gps":[41.988063407,9.04861808353],"code_commune_insee":"2A031"},"geometry":{"type":"Point","coordinates":[9.04861808353,41.988063407]},"record_timestamp":"2016-05-09T15:17:00+02:00"},{"datasetid":"laposte_hexasmal","recordid":"73b0b3ce5d9273296b6adb899e4ccc145f3ea76a","fields":{"nom_de_la_commune":"BASTELICACCIA","libell_d_acheminement":"BASTELICACCIA","code_postal":"20129","coordonnees_gps":[41.9352135675,8.83650751371],"code_commune_insee":"2A032"},"geometry":{"type":"Point","coordinates":[8.83650751371,41.9352135675]},"record_timestamp":"2016-05-09T15:17:00+02:00"},{"datasetid":"laposte_hexasmal","recordid":"a7f6584fda25c53e286f327dc3ddb90c33e26015","fields":{"nom_de_la_commune":"BILIA","libell_d_acheminement":"BILIA","code_postal":"20100","coordonnees_gps":[41.6222677793,8.90493830672],"code_commune_insee":"2A038"},"geometry":{"type":"Point","coordinates":[8.90493830672,41.6222677793]},"record_timestamp":"2016-05-09T15:17:00+02:00"},{"datasetid":"laposte_hexasmal","recordid":"c5f1c4e44a18de32634348a04a7ff3f385533e0f","fields":{"nom_de_la_commune":"CANNELLE","libell_d_acheminement":"CANNELLE","code_postal":"20151","coordonnees_gps":[42.047981907,8.81689575558],"code_commune_insee":"2A060"},"geometry":{"type":"Point","coordinates":[8.81689575558,42.047981907]},"record_timestamp":"2016-05-09T15:17:00+02:00"},{"datasetid":"laposte_hexasmal","recordid":"e52ecbb83353c092aceebc3b188c0855003bc91a","fields":{"nom_de_la_commune":"CARBINI","libell_d_acheminement":"CARBINI","code_postal":"20170","coordonnees_gps":[41.6757000728,9.16018139778],"code_commune_insee":"2A061"},"geometry":{"type":"Point","coordinates":[9.16018139778,41.6757000728]},"record_timestamp":"2016-05-09T15:17:00+02:00"},{"datasetid":"laposte_hexasmal","recordid":"8bb014bd70e926e6102277800c913462e7af2789","fields":{"nom_de_la_commune":"CARBUCCIA","libell_d_acheminement":"CARBUCCIA","code_postal":"20133","coordonnees_gps":[42.0302927596,8.93626600653],"code_commune_insee":"2A062"},"geometry":{"type":"Point","coordinates":[8.93626600653,42.0302927596]},"record_timestamp":"2016-05-09T15:17:00+02:00"},{"datasetid":"laposte_hexasmal","recordid":"f72db5f60836b044f69791b0fa5a74bd56da125d","fields":{"nom_de_la_commune":"CAURO","libell_d_acheminement":"CAURO","code_postal":"20117","coordonnees_gps":[41.9042036105,8.89390218223],"code_commune_insee":"2A085"},"geometry":{"type":"Point","coordinates":[8.89390218223,41.9042036105]},"record_timestamp":"2016-05-09T15:17:00+02:00"},{"datasetid":"laposte_hexasmal","recordid":"701f31c38d48c8adc89101ac0f275af701a89a08","fields":{"nom_de_la_commune":"ECCICA SUARELLA","libell_d_acheminement":"ECCICA SUARELLA","code_postal":"20117","coordonnees_gps":[41.9231596216,8.89401261483],"code_commune_insee":"2A104"},"geometry":{"type":"Point","coordinates":[8.89401261483,41.9231596216]},"record_timestamp":"2016-05-09T15:17:00+02:00"},{"datasetid":"laposte_hexasmal","recordid":"909db8b89ebf348790ffbb67d0fd3ce0d3e38300","fields":{"nom_de_la_commune":"FIGARI","libell_d_acheminement":"FIGARI","code_postal":"20114","coordonnees_gps":[41.5163043789,9.12059415829],"code_commune_insee":"2A114"},"geometry":{"type":"Point","coordinates":[9.12059415829,41.5163043789]},"record_timestamp":"2016-05-09T15:17:00+02:00"},{"datasetid":"laposte_hexasmal","recordid":"fd1e1bc6521955cd807ec3af04cb018d3d35e0c6","fields":{"nom_de_la_commune":"GRANACE","libell_d_acheminement":"GRANACE","code_postal":"20100","coordonnees_gps":[41.6403012602,9.01221939492],"code_commune_insee":"2A128"},"geometry":{"type":"Point","coordinates":[9.01221939492,41.6403012602]},"record_timestamp":"2016-05-09T15:17:00+02:00"},{"datasetid":"laposte_hexasmal","recordid":"9cdb3c92212a7e0e568ed3b44a5e3ae86bb81515","fields":{"nom_de_la_commune":"GUITERA LES BAINS","libell_d_acheminement":"GUITERA LES BAINS","code_postal":"20153","coordonnees_gps":[41.9219361648,9.07857366526],"code_commune_insee":"2A133"},"geometry":{"type":"Point","coordinates":[9.07857366526,41.9219361648]},"record_timestamp":"2016-05-09T15:17:00+02:00"},{"datasetid":"laposte_hexasmal","recordid":"f955390a2e38644b69eec56c9a175fca13b76da6","fields":{"nom_de_la_commune":"LETIA","libell_d_acheminement":"LETIA","code_postal":"20160","coordonnees_gps":[42.214927495,8.87701144967],"code_commune_insee":"2A141"},"geometry":{"type":"Point","coordinates":[8.87701144967,42.214927495]},"record_timestamp":"2016-05-09T15:17:00+02:00"},{"datasetid":"laposte_hexasmal","recordid":"f581eca465d9bb9be396595e922c99422449e24a","fields":{"nom_de_la_commune":"OLIVESE","libell_d_acheminement":"OLIVESE","code_postal":"20140","coordonnees_gps":[41.8404362861,9.06885180924],"code_commune_insee":"2A186"},"geometry":{"type":"Point","coordinates":[9.06885180924,41.8404362861]},"record_timestamp":"2016-05-09T15:17:00+02:00"},{"datasetid":"laposte_hexasmal","recordid":"9843f8cd233af24e10601a5f22bb94571a78b3ac","fields":{"nom_de_la_commune":"OSANI","libell_d_acheminement":"OSANI","code_postal":"20147","coordonnees_gps":[42.3435694896,8.62327012341],"code_commune_insee":"2A197"},"geometry":{"type":"Point","coordinates":[8.62327012341,42.3435694896]},"record_timestamp":"2016-05-09T15:17:00+02:00"},{"datasetid":"laposte_hexasmal","recordid":"e08267c8a6ee0d68494e9603c309725ad6bf742a","fields":{"code_postal":"20150","code_commune_insee":"2A198","libell_d_acheminement":"OTA","ligne_5":"PORTO","nom_de_la_commune":"OTA","coordonnees_gps":[42.2548660718,8.73294026195]},"geometry":{"type":"Point","coordinates":[8.73294026195,42.2548660718]},"record_timestamp":"2016-05-09T15:17:00+02:00"},{"datasetid":"laposte_hexasmal","recordid":"891b7ef1e307cd8a78f3fe38b1a179a95e021c32","fields":{"nom_de_la_commune":"PARTINELLO","libell_d_acheminement":"PARTINELLO","code_postal":"20147","coordonnees_gps":[42.3189049324,8.68973829673],"code_commune_insee":"2A203"},"geometry":{"type":"Point","coordinates":[8.68973829673,42.3189049324]},"record_timestamp":"2016-05-09T15:17:00+02:00"},{"datasetid":"laposte_hexasmal","recordid":"87bece3a4770ff8f0eacff8c2c0d9eab538026de","fields":{"nom_de_la_commune":"PASTRICCIOLA","libell_d_acheminement":"PASTRICCIOLA","code_postal":"20121","coordonnees_gps":[42.1434520228,9.01623489472],"code_commune_insee":"2A204"},"geometry":{"type":"Point","coordinates":[9.01623489472,42.1434520228]},"record_timestamp":"2016-05-09T15:17:00+02:00"},{"datasetid":"laposte_hexasmal","recordid":"0be5756fafc6d322cb403deff82baec92156d156","fields":{"nom_de_la_commune":"PETRETO BICCHISANO","libell_d_acheminement":"PETRETO BICCHISANO","code_postal":"20140","coordonnees_gps":[41.7703606471,8.96953349207],"code_commune_insee":"2A211"},"geometry":{"type":"Point","coordinates":[8.96953349207,41.7703606471]},"record_timestamp":"2016-05-09T15:17:00+02:00"},{"datasetid":"laposte_hexasmal","recordid":"95c7e903677b813a0437462796974eb68b8f3d5e","fields":{"nom_de_la_commune":"PIANOTTOLI CALDARELLO","libell_d_acheminement":"PIANOTTOLI CALDARELLO","code_postal":"20131","coordonnees_gps":[41.5046258305,9.04899145818],"code_commune_insee":"2A215"},"geometry":{"type":"Point","coordinates":[9.04899145818,41.5046258305]},"record_timestamp":"2016-05-09T15:17:00+02:00"},{"datasetid":"laposte_hexasmal","recordid":"e447a53da7271261305bac440889e2f5d0693dc2","fields":{"nom_de_la_commune":"PORTO VECCHIO","libell_d_acheminement":"PORTO VECCHIO","code_postal":"20137","coordonnees_gps":[41.5924932873,9.25363087024],"code_commune_insee":"2A247"},"geometry":{"type":"Point","coordinates":[9.25363087024,41.5924932873]},"record_timestamp":"2016-05-09T15:17:00+02:00"},{"datasetid":"laposte_hexasmal","recordid":"95aea8431b41db99e50be492727612b0b8c6f595","fields":{"nom_de_la_commune":"SALICE","libell_d_acheminement":"SALICE","code_postal":"20121","coordonnees_gps":[42.1045072661,8.90188848529],"code_commune_insee":"2A266"},"geometry":{"type":"Point","coordinates":[8.90188848529,42.1045072661]},"record_timestamp":"2016-05-09T15:17:00+02:00"},{"datasetid":"laposte_hexasmal","recordid":"c149cc9f42a9b68cdd7c7ed10e7602fd4de3285b","fields":{"nom_de_la_commune":"SANT ANDREA D ORCINO","libell_d_acheminement":"SANT ANDREA D ORCINO","code_postal":"20151","coordonnees_gps":[42.0443583536,8.78903370453],"code_commune_insee":"2A295"},"geometry":{"type":"Point","coordinates":[8.78903370453,42.0443583536]},"record_timestamp":"2016-05-09T15:17:00+02:00"},{"datasetid":"laposte_hexasmal","recordid":"cd070debb6b73959f4f0893e9e908fd490632051","fields":{"nom_de_la_commune":"SAN GAVINO DI CARBINI","libell_d_acheminement":"SAN GAVINO DI CARBINI","code_postal":"20170","coordonnees_gps":[41.6806017168,9.23310910423],"code_commune_insee":"2A300"},"geometry":{"type":"Point","coordinates":[9.23310910423,41.6806017168]},"record_timestamp":"2016-05-09T15:17:00+02:00"},{"datasetid":"laposte_hexasmal","recordid":"70eef4bf33fac6d4cd86b4383158de2fb9a47458","fields":{"code_postal":"20144","code_commune_insee":"2A362","libell_d_acheminement":"ZONZA","ligne_5":"STE LUCIE DE PORTO VECCHIO","nom_de_la_commune":"ZONZA","coordonnees_gps":[41.7213730193,9.26624005547]},"geometry":{"type":"Point","coordinates":[9.26624005547,41.7213730193]},"record_timestamp":"2016-05-09T15:17:00+02:00"},{"datasetid":"laposte_hexasmal","recordid":"55f8a6b4f22e3201489e36a6ae7442d6e80df7fe","fields":{"nom_de_la_commune":"AITI","libell_d_acheminement":"AITI","code_postal":"20244","coordonnees_gps":[42.4043178377,9.22873647306],"code_commune_insee":"2B003"},"geometry":{"type":"Point","coordinates":[9.22873647306,42.4043178377]},"record_timestamp":"2016-05-09T15:17:00+02:00"},{"datasetid":"laposte_hexasmal","recordid":"469b7f334b8e63fb4c34ff906e11fc10cd898a32","fields":{"nom_de_la_commune":"ALANDO","libell_d_acheminement":"ALANDO","code_postal":"20212","coordonnees_gps":[42.3072494054,9.28630204632],"code_commune_insee":"2B005"},"geometry":{"type":"Point","coordinates":[9.28630204632,42.3072494054]},"record_timestamp":"2016-05-09T15:17:00+02:00"},{"datasetid":"laposte_hexasmal","recordid":"908c68e0f6852d1d1eb800c097e3008cf2ae64a2","fields":{"nom_de_la_commune":"BARBAGGIO","libell_d_acheminement":"BARBAGGIO","code_postal":"20253","coordonnees_gps":[42.6841491468,9.36802297003],"code_commune_insee":"2B029"},"geometry":{"type":"Point","coordinates":[9.36802297003,42.6841491468]},"record_timestamp":"2016-05-09T15:17:00+02:00"},{"datasetid":"laposte_hexasmal","recordid":"5acd659fdc80e04a05ac0e4710deb5d3aac6fe00","fields":{"nom_de_la_commune":"BASTIA","libell_d_acheminement":"BASTIA","code_postal":"20600","coordonnees_gps":[42.6864768806,9.42502133338],"code_commune_insee":"2B033"},"geometry":{"type":"Point","coordinates":[9.42502133338,42.6864768806]},"record_timestamp":"2016-05-09T15:17:00+02:00"},{"datasetid":"laposte_hexasmal","recordid":"3fc7a4eaaf5131ca0cabcee4b1977a22e08ad458","fields":{"code_postal":"20222","code_commune_insee":"2B043","libell_d_acheminement":"BRANDO","ligne_5":"ERBALUNGA","nom_de_la_commune":"BRANDO","coordonnees_gps":[42.7792996993,9.45029993821]},"geometry":{"type":"Point","coordinates":[9.45029993821,42.7792996993]},"record_timestamp":"2016-05-09T15:17:00+02:00"},{"datasetid":"laposte_hexasmal","recordid":"b52b37dfba734d159ec26d3758d8825de968098f","fields":{"nom_de_la_commune":"CAGNANO","libell_d_acheminement":"CAGNANO","code_postal":"20228","coordonnees_gps":[42.8719957241,9.44402317459],"code_commune_insee":"2B046"},"geometry":{"type":"Point","coordinates":[9.44402317459,42.8719957241]},"record_timestamp":"2016-05-09T15:17:00+02:00"},{"datasetid":"laposte_hexasmal","recordid":"8c0813f7120e3a6745fcfcc73d7ec26ac15f623f","fields":{"code_postal":"20214","code_commune_insee":"2B049","libell_d_acheminement":"CALENZANA","ligne_5":"SUARE","nom_de_la_commune":"CALENZANA","coordonnees_gps":[42.4784267166,8.80369225001]},"geometry":{"type":"Point","coordinates":[8.80369225001,42.4784267166]},"record_timestamp":"2016-05-09T15:17:00+02:00"},{"datasetid":"laposte_hexasmal","recordid":"5303caa42c3cbd04d8958b21afa78ba8c1232a1c","fields":{"nom_de_la_commune":"CARPINETO","libell_d_acheminement":"CARPINETO","code_postal":"20229","coordonnees_gps":[42.3559945667,9.37993794819],"code_commune_insee":"2B067"},"geometry":{"type":"Point","coordinates":[9.37993794819,42.3559945667]},"record_timestamp":"2016-05-09T15:17:00+02:00"},{"datasetid":"laposte_hexasmal","recordid":"b3316d4750128ef2083667d1e32e9b9fbfcbf20d","fields":{"nom_de_la_commune":"CARTICASI","libell_d_acheminement":"CARTICASI","code_postal":"20244","coordonnees_gps":[42.3479242987,9.30372029952],"code_commune_insee":"2B068"},"geometry":{"type":"Point","coordinates":[9.30372029952,42.3479242987]},"record_timestamp":"2016-05-09T15:17:00+02:00"},{"datasetid":"laposte_hexasmal","recordid":"672e43802211c2d1f58280182b82a1fc8eb3a537","fields":{"nom_de_la_commune":"CASEVECCHIE","libell_d_acheminement":"CASEVECCHIE","code_postal":"20270","coordonnees_gps":[42.1355350741,9.36806507914],"code_commune_insee":"2B075"},"geometry":{"type":"Point","coordinates":[9.36806507914,42.1355350741]},"record_timestamp":"2016-05-09T15:17:00+02:00"},{"datasetid":"laposte_hexasmal","recordid":"d7d38f23444e9ba0995b9fb524c150eb262ffba8","fields":{"nom_de_la_commune":"CASTELLARE DI CASINCA","libell_d_acheminement":"CASTELLARE DI CASINCA","code_postal":"20213","coordonnees_gps":[42.4705671665,9.50131455475],"code_commune_insee":"2B077"},"geometry":{"type":"Point","coordinates":[9.50131455475,42.4705671665]},"record_timestamp":"2016-05-09T15:17:00+02:00"},{"datasetid":"laposte_hexasmal","recordid":"5b9b7440ce127814b4d58a1928a0abb01a8a2161","fields":{"nom_de_la_commune":"CASTELLARE DI MERCURIO","libell_d_acheminement":"CASTELLARE DI MERCURIO","code_postal":"20212","coordonnees_gps":[42.310112696,9.24655263263],"code_commune_insee":"2B078"},"geometry":{"type":"Point","coordinates":[9.24655263263,42.310112696]},"record_timestamp":"2016-05-09T15:17:00+02:00"},{"datasetid":"laposte_hexasmal","recordid":"b7d882adf4569c4857fdb9d19ee2403c197fcaca","fields":{"nom_de_la_commune":"CASTINETA","libell_d_acheminement":"CASTINETA","code_postal":"20218","coordonnees_gps":[42.4281629327,9.27331954769],"code_commune_insee":"2B082"},"geometry":{"type":"Point","coordinates":[9.27331954769,42.4281629327]},"record_timestamp":"2016-05-09T15:17:00+02:00"},{"datasetid":"laposte_hexasmal","recordid":"6b0b05a657bc69cd89bdc9f2d683ca7740b87907","fields":{"code_postal":"20221","code_commune_insee":"2B087","libell_d_acheminement":"CERVIONE","ligne_5":"PRUNETE","nom_de_la_commune":"CERVIONE","coordonnees_gps":[42.3210930584,9.5154262188]},"geometry":{"type":"Point","coordinates":[9.5154262188,42.3210930584]},"record_timestamp":"2016-05-09T15:17:00+02:00"},{"datasetid":"laposte_hexasmal","recordid":"d86825ee8734c698f249e054a288e06835575613","fields":{"nom_de_la_commune":"CORBARA","libell_d_acheminement":"CORBARA","code_postal":"20220","coordonnees_gps":[42.6171380337,8.90165227126],"code_commune_insee":"2B093"},"geometry":{"type":"Point","coordinates":[8.90165227126,42.6171380337]},"record_timestamp":"2016-05-09T15:17:00+02:00"},{"datasetid":"laposte_hexasmal","recordid":"86fce28a49f17aa5f4811e305f5ba3fd35c3bb2c","fields":{"nom_de_la_commune":"CORBARA","libell_d_acheminement":"CORBARA","code_postal":"20256","coordonnees_gps":[42.6171380337,8.90165227126],"code_commune_insee":"2B093"},"geometry":{"type":"Point","coordinates":[8.90165227126,42.6171380337]},"record_timestamp":"2016-05-09T15:17:00+02:00"},{"datasetid":"laposte_hexasmal","recordid":"e1ad80014c53166cef4668ac2ba9468b70835b68","fields":{"nom_de_la_commune":"CORSCIA","libell_d_acheminement":"CORSCIA","code_postal":"20224","coordonnees_gps":[42.3691487665,9.05557667176],"code_commune_insee":"2B095"},"geometry":{"type":"Point","coordinates":[9.05557667176,42.3691487665]},"record_timestamp":"2016-05-09T15:17:00+02:00"},{"datasetid":"laposte_hexasmal","recordid":"2577e3d6d0478728381249bada97f177115c02cc","fields":{"nom_de_la_commune":"CROCICCHIA","libell_d_acheminement":"CROCICCHIA","code_postal":"20290","coordonnees_gps":[42.4737480696,9.3523598624],"code_commune_insee":"2B102"},"geometry":{"type":"Point","coordinates":[9.3523598624,42.4737480696]},"record_timestamp":"2016-05-09T15:17:00+02:00"},{"datasetid":"laposte_hexasmal","recordid":"7719587b71a6313b4d4cebc37f0b0f9cf9b3c077","fields":{"nom_de_la_commune":"ERBAJOLO","libell_d_acheminement":"ERBAJOLO","code_postal":"20212","coordonnees_gps":[42.2523377533,9.26307967113],"code_commune_insee":"2B105"},"geometry":{"type":"Point","coordinates":[9.26307967113,42.2523377533]},"record_timestamp":"2016-05-09T15:17:00+02:00"},{"datasetid":"laposte_hexasmal","recordid":"8bc11fba47840ea5b70cae4d12fd1c55580d4ddf","fields":{"nom_de_la_commune":"FELCE","libell_d_acheminement":"FELCE","code_postal":"20234","coordonnees_gps":[42.3462578102,9.42479183294],"code_commune_insee":"2B111"},"geometry":{"type":"Point","coordinates":[9.42479183294,42.3462578102]},"record_timestamp":"2016-05-09T15:17:00+02:00"},{"datasetid":"laposte_hexasmal","recordid":"8afe1ab6eb1bcaea8ce1c29847f5d5ba3babe637","fields":{"nom_de_la_commune":"FOCICCHIA","libell_d_acheminement":"FOCICCHIA","code_postal":"20212","coordonnees_gps":[42.250040051,9.29254377168],"code_commune_insee":"2B116"},"geometry":{"type":"Point","coordinates":[9.29254377168,42.250040051]},"record_timestamp":"2016-05-09T15:17:00+02:00"},{"datasetid":"laposte_hexasmal","recordid":"798926cbf57c9764d905fb85a442f716752e7c3b","fields":{"nom_de_la_commune":"FURIANI","libell_d_acheminement":"FURIANI","code_postal":"20600","coordonnees_gps":[42.6523411195,9.4172647007],"code_commune_insee":"2B120"},"geometry":{"type":"Point","coordinates":[9.4172647007,42.6523411195]},"record_timestamp":"2016-05-09T15:17:00+02:00"},{"datasetid":"laposte_hexasmal","recordid":"de1c1caf2dc4f3fe23969439066c86f965d523bd","fields":{"nom_de_la_commune":"GHISONI","libell_d_acheminement":"GHISONI","code_postal":"20227","coordonnees_gps":[42.0908261041,9.21026781601],"code_commune_insee":"2B124"},"geometry":{"type":"Point","coordinates":[9.21026781601,42.0908261041]},"record_timestamp":"2016-05-09T15:17:00+02:00"},{"datasetid":"laposte_hexasmal","recordid":"311d52a7af9ddcfee2b11884860f5f450c7b8bb5","fields":{"nom_de_la_commune":"GIOCATOJO","libell_d_acheminement":"GIOCATOJO","code_postal":"20237","coordonnees_gps":[42.4437069082,9.34587387627],"code_commune_insee":"2B125"},"geometry":{"type":"Point","coordinates":[9.34587387627,42.4437069082]},"record_timestamp":"2016-05-09T15:17:00+02:00"},{"datasetid":"laposte_hexasmal","recordid":"0c584a55b6b3f7df7a35378f6df5cf57c2b8c555","fields":{"code_postal":"20243","code_commune_insee":"2B135","libell_d_acheminement":"ISOLACCIO DI FIUMORBO","ligne_5":"PIETRAPOLA","nom_de_la_commune":"ISOLACCIO DI FIUMORBO","coordonnees_gps":[42.0157488768,9.26439576415]},"geometry":{"type":"Point","coordinates":[9.26439576415,42.0157488768]},"record_timestamp":"2016-05-09T15:17:00+02:00"},{"datasetid":"laposte_hexasmal","recordid":"77d1f1c5ed52bfe9284802acee33c8855b1d3f32","fields":{"nom_de_la_commune":"MATRA","libell_d_acheminement":"MATRA","code_postal":"20270","coordonnees_gps":[42.2832313551,9.38756967026],"code_commune_insee":"2B155"},"geometry":{"type":"Point","coordinates":[9.38756967026,42.2832313551]},"record_timestamp":"2016-05-09T15:17:00+02:00"},{"datasetid":"laposte_hexasmal","recordid":"74d7d58dad99a81221cf67ca68c25287313a8997","fields":{"nom_de_la_commune":"MERIA","libell_d_acheminement":"MERIA","code_postal":"20287","coordonnees_gps":[42.9200015376,9.4368174556],"code_commune_insee":"2B159"},"geometry":{"type":"Point","coordinates":[9.4368174556,42.9200015376]},"record_timestamp":"2016-05-09T15:17:00+02:00"},{"datasetid":"laposte_hexasmal","recordid":"78f7779482cac455c86788aacf4aa57a6ec1c9e2","fields":{"nom_de_la_commune":"MOLTIFAO","libell_d_acheminement":"MOLTIFAO","code_postal":"20218","coordonnees_gps":[42.4744158583,9.12322901577],"code_commune_insee":"2B162"},"geometry":{"type":"Point","coordinates":[9.12322901577,42.4744158583]},"record_timestamp":"2016-05-09T15:17:00+02:00"},{"datasetid":"laposte_hexasmal","recordid":"321ddbcc8c3c1eb9e269e8b1d1d80be3becf243e","fields":{"nom_de_la_commune":"MONCALE","libell_d_acheminement":"MONCALE","code_postal":"20214","coordonnees_gps":[42.5033810267,8.81947177573],"code_commune_insee":"2B165"},"geometry":{"type":"Point","coordinates":[8.81947177573,42.5033810267]},"record_timestamp":"2016-05-09T15:17:00+02:00"},{"datasetid":"laposte_hexasmal","recordid":"01a8441411733bd1ed6c164130ffbbb682024fa0","fields":{"nom_de_la_commune":"MONTICELLO","libell_d_acheminement":"MONTICELLO","code_postal":"20220","coordonnees_gps":[42.6216923341,8.96127656939],"code_commune_insee":"2B168"},"geometry":{"type":"Point","coordinates":[8.96127656939,42.6216923341]},"record_timestamp":"2016-05-09T15:17:00+02:00"},{"datasetid":"laposte_hexasmal","recordid":"8009e8f9d6367623fb324725573f6ca5a3175ea7","fields":{"nom_de_la_commune":"MOROSAGLIA","libell_d_acheminement":"MOROSAGLIA","code_postal":"20218","coordonnees_gps":[42.4476687598,9.25468558646],"code_commune_insee":"2B169"},"geometry":{"type":"Point","coordinates":[9.25468558646,42.4476687598]},"record_timestamp":"2016-05-09T15:17:00+02:00"},{"datasetid":"laposte_hexasmal","recordid":"0d9524515c280fe0e7241b900147381ec4afc052","fields":{"nom_de_la_commune":"MORSIGLIA","libell_d_acheminement":"MORSIGLIA","code_postal":"20238","coordonnees_gps":[42.9359197477,9.37347710388],"code_commune_insee":"2B170"},"geometry":{"type":"Point","coordinates":[9.37347710388,42.9359197477]},"record_timestamp":"2016-05-09T15:17:00+02:00"},{"datasetid":"laposte_hexasmal","recordid":"139d8d23f691540d08a19de1d28f7cb22c8d020c","fields":{"nom_de_la_commune":"NOCARIO","libell_d_acheminement":"NOCARIO","code_postal":"20229","coordonnees_gps":[42.3951851178,9.34913150736],"code_commune_insee":"2B176"},"geometry":{"type":"Point","coordinates":[9.34913150736,42.3951851178]},"record_timestamp":"2016-05-09T15:17:00+02:00"},{"datasetid":"laposte_hexasmal","recordid":"23e64ea7c35edb1f5b41541a4cc91a2ac1005ddf","fields":{"nom_de_la_commune":"OLCANI","libell_d_acheminement":"OLCANI","code_postal":"20217","coordonnees_gps":[42.8060476882,9.38654004779],"code_commune_insee":"2B184"},"geometry":{"type":"Point","coordinates":[9.38654004779,42.8060476882]},"record_timestamp":"2016-05-09T15:17:00+02:00"},{"datasetid":"laposte_hexasmal","recordid":"18c79a34025b6a5fa4cf270f0a33f56606f0bc3a","fields":{"nom_de_la_commune":"OLMI CAPPELLA","libell_d_acheminement":"OLMI CAPPELLA","code_postal":"20259","coordonnees_gps":[42.5203092978,9.02008756946],"code_commune_insee":"2B190"},"geometry":{"type":"Point","coordinates":[9.02008756946,42.5203092978]},"record_timestamp":"2016-05-09T15:17:00+02:00"},{"datasetid":"laposte_hexasmal","recordid":"908d210de1cf5969a9c2bc1da2c13941e8764cf9","fields":{"nom_de_la_commune":"OMESSA","libell_d_acheminement":"OMESSA","code_postal":"20236","coordonnees_gps":[42.3827760667,9.19362569461],"code_commune_insee":"2B193"},"geometry":{"type":"Point","coordinates":[9.19362569461,42.3827760667]},"record_timestamp":"2016-05-09T15:17:00+02:00"},{"datasetid":"laposte_hexasmal","recordid":"9f2d85f8e53f159fdd6cdd01c749ac8494c82ce7","fields":{"nom_de_la_commune":"ORTALE","libell_d_acheminement":"ORTALE","code_postal":"20234","coordonnees_gps":[42.3108287185,9.43462429228],"code_commune_insee":"2B194"},"geometry":{"type":"Point","coordinates":[9.43462429228,42.3108287185]},"record_timestamp":"2016-05-09T15:17:00+02:00"},{"datasetid":"laposte_hexasmal","recordid":"077e24c915a9c843705c8aea164c5a5f9a644533","fields":{"nom_de_la_commune":"PANCHERACCIA","libell_d_acheminement":"PANCHERACCIA","code_postal":"20251","coordonnees_gps":[42.1964708452,9.40495119655],"code_commune_insee":"2B201"},"geometry":{"type":"Point","coordinates":[9.40495119655,42.1964708452]},"record_timestamp":"2016-05-09T15:17:00+02:00"},{"datasetid":"laposte_hexasmal","recordid":"dbec73f2ace39d2cf0c20d02cf7d0ad508eff0c3","fields":{"nom_de_la_commune":"PENTA DI CASINCA","libell_d_acheminement":"PENTA DI CASINCA","code_postal":"20213","coordonnees_gps":[42.4548433729,9.49604243043],"code_commune_insee":"2B207"},"geometry":{"type":"Point","coordinates":[9.49604243043,42.4548433729]},"record_timestamp":"2016-05-09T15:17:00+02:00"},{"datasetid":"laposte_hexasmal","recordid":"6e6c83f8f37c27ac75751636890bd581d583d234","fields":{"nom_de_la_commune":"PERELLI","libell_d_acheminement":"PERELLI","code_postal":"20234","coordonnees_gps":[42.3142542051,9.38908614142],"code_commune_insee":"2B208"},"geometry":{"type":"Point","coordinates":[9.38908614142,42.3142542051]},"record_timestamp":"2016-05-09T15:17:00+02:00"},{"datasetid":"laposte_hexasmal","recordid":"153ad708881a427daccf2b0053ecfaa9f4c8fa0a","fields":{"nom_de_la_commune":"PIETRA DI VERDE","libell_d_acheminement":"PIETRA DI VERDE","code_postal":"20230","coordonnees_gps":[42.2923417061,9.44429684997],"code_commune_insee":"2B225"},"geometry":{"type":"Point","coordinates":[9.44429684997,42.2923417061]},"record_timestamp":"2016-05-09T15:17:00+02:00"},{"datasetid":"laposte_hexasmal","recordid":"d6fcf71526923dd4f139e1930a2cc9190e3d761c","fields":{"nom_de_la_commune":"PIETROSO","libell_d_acheminement":"PIETROSO","code_postal":"20242","coordonnees_gps":[42.1256196536,9.30101859911],"code_commune_insee":"2B229"},"geometry":{"type":"Point","coordinates":[9.30101859911,42.1256196536]},"record_timestamp":"2016-05-09T15:17:00+02:00"},{"datasetid":"laposte_hexasmal","recordid":"39b6de45d4f0e279c8c1df32c256751236528a59","fields":{"nom_de_la_commune":"PIEVE","libell_d_acheminement":"PIEVE","code_postal":"20246","coordonnees_gps":[42.5857060069,9.27821414573],"code_commune_insee":"2B230"},"geometry":{"type":"Point","coordinates":[9.27821414573,42.5857060069]},"record_timestamp":"2016-05-09T15:17:00+02:00"},{"datasetid":"laposte_hexasmal","recordid":"687018135f00622f58dbbefd059cae5df3562715","fields":{"nom_de_la_commune":"POGGIO DI VENACO","libell_d_acheminement":"POGGIO DI VENACO","code_postal":"20250","coordonnees_gps":[42.2684750583,9.20706783524],"code_commune_insee":"2B238"},"geometry":{"type":"Point","coordinates":[9.20706783524,42.2684750583]},"record_timestamp":"2016-05-09T15:17:00+02:00"},{"datasetid":"laposte_hexasmal","recordid":"b74c73a0e31376fcf4e07b0710adb086a5a08858","fields":{"nom_de_la_commune":"POGGIO MEZZANA","libell_d_acheminement":"POGGIO MEZZANA","code_postal":"20230","coordonnees_gps":[42.40140902,9.51195735668],"code_commune_insee":"2B242"},"geometry":{"type":"Point","coordinates":[9.51195735668,42.40140902]},"record_timestamp":"2016-05-09T15:17:00+02:00"},{"datasetid":"laposte_hexasmal","recordid":"0412379033b9f44b176120b1ad2a51d12d0ea2ae","fields":{"nom_de_la_commune":"POLVEROSO","libell_d_acheminement":"POLVEROSO","code_postal":"20229","coordonnees_gps":[42.4013407453,9.36126897942],"code_commune_insee":"2B243"},"geometry":{"type":"Point","coordinates":[9.36126897942,42.4013407453]},"record_timestamp":"2016-05-09T15:17:00+02:00"},{"datasetid":"laposte_hexasmal","recordid":"9dc7065a7a68335804a9a4a2aa4861371025af74","fields":{"nom_de_la_commune":"PORRI","libell_d_acheminement":"PORRI","code_postal":"20215","coordonnees_gps":[42.4493786063,9.44236110212],"code_commune_insee":"2B245"},"geometry":{"type":"Point","coordinates":[9.44236110212,42.4493786063]},"record_timestamp":"2016-05-09T15:17:00+02:00"},{"datasetid":"laposte_hexasmal","recordid":"ea1b98da52bc22722de6b2a574cb731de1877244","fields":{"nom_de_la_commune":"RAPALE","libell_d_acheminement":"RAPALE","code_postal":"20246","coordonnees_gps":[42.6204498836,9.29645877204],"code_commune_insee":"2B257"},"geometry":{"type":"Point","coordinates":[9.29645877204,42.6204498836]},"record_timestamp":"2016-05-09T15:17:00+02:00"},{"datasetid":"laposte_hexasmal","recordid":"49e8e643a58d6071f6d6a43119ebff94a8fa2620","fields":{"nom_de_la_commune":"ROGLIANO","libell_d_acheminement":"ROGLIANO","code_postal":"20247","coordonnees_gps":[42.9720512637,9.42539823747],"code_commune_insee":"2B261"},"geometry":{"type":"Point","coordinates":[9.42539823747,42.9720512637]},"record_timestamp":"2016-05-09T15:17:00+02:00"},{"datasetid":"laposte_hexasmal","recordid":"fa7b8f59c8b5183d1c8126bfbe97f1a096d72a33","fields":{"nom_de_la_commune":"SERRA DI FIUMORBO","libell_d_acheminement":"SERRA DI FIUMORBO","code_postal":"20243","coordonnees_gps":[41.9716708905,9.33015262464],"code_commune_insee":"2B277"},"geometry":{"type":"Point","coordinates":[9.33015262464,41.9716708905]},"record_timestamp":"2016-05-09T15:17:00+02:00"},{"datasetid":"laposte_hexasmal","recordid":"e7e12551e6d1dfe46068395b891d98ccc2bf8b4b","fields":{"nom_de_la_commune":"SORIO","libell_d_acheminement":"SORIO","code_postal":"20246","coordonnees_gps":[42.5778173926,9.24430317014],"code_commune_insee":"2B287"},"geometry":{"type":"Point","coordinates":[9.24430317014,42.5778173926]},"record_timestamp":"2016-05-09T15:17:00+02:00"},{"datasetid":"laposte_hexasmal","recordid":"03cb06c42f789e5cc1f8ccda44751eec025446ff","fields":{"nom_de_la_commune":"SAN GAVINO D AMPUGNANI","libell_d_acheminement":"SAN GAVINO D AMPUGNANI","code_postal":"20213","coordonnees_gps":[42.4174866723,9.42542764593],"code_commune_insee":"2B299"},"geometry":{"type":"Point","coordinates":[9.42542764593,42.4174866723]},"record_timestamp":"2016-05-09T15:17:00+02:00"},{"datasetid":"laposte_hexasmal","recordid":"7ad1ef59bc3d6deb2820dc88f879de441469d600","fields":{"nom_de_la_commune":"SAN GAVINO DI TENDA","libell_d_acheminement":"SAN GAVINO DI TENDA","code_postal":"20246","coordonnees_gps":[42.6530617344,9.15172283351],"code_commune_insee":"2B301"},"geometry":{"type":"Point","coordinates":[9.15172283351,42.6530617344]},"record_timestamp":"2016-05-09T15:17:00+02:00"},{"datasetid":"laposte_hexasmal","recordid":"eddefc25ce83e5d45d79ab97d3caa15b1e542e28","fields":{"code_postal":"20230","code_commune_insee":"2B303","libell_d_acheminement":"SAN GIULIANO","ligne_5":"ALISTRO","nom_de_la_commune":"SAN GIULIANO","coordonnees_gps":[42.2880809404,9.52881178736]},"geometry":{"type":"Point","coordinates":[9.52881178736,42.2880809404]},"record_timestamp":"2016-05-09T15:17:00+02:00"},{"datasetid":"laposte_hexasmal","recordid":"c5b48b4c8b44d06662d6085f89f891dd18d1dc3f","fields":{"code_postal":"20200","code_commune_insee":"2B309","libell_d_acheminement":"SANTA MARIA DI LOTA","ligne_5":"MIOMO","nom_de_la_commune":"SANTA MARIA DI LOTA","coordonnees_gps":[42.7511136181,9.42463745833]},"geometry":{"type":"Point","coordinates":[9.42463745833,42.7511136181]},"record_timestamp":"2016-05-09T15:17:00+02:00"},{"datasetid":"laposte_hexasmal","recordid":"ad81ca61b2e542deab2c3ef8aa52f2fa2204ffb4","fields":{"nom_de_la_commune":"SANTO PIETRO DI TENDA","libell_d_acheminement":"SANTO PIETRO DI TENDA","code_postal":"20246","coordonnees_gps":[42.6724371425,9.20380969804],"code_commune_insee":"2B314"},"geometry":{"type":"Point","coordinates":[9.20380969804,42.6724371425]},"record_timestamp":"2016-05-09T15:17:00+02:00"},{"datasetid":"laposte_hexasmal","recordid":"d8566124cd96a6589d9140930e48567e479c8f77","fields":{"nom_de_la_commune":"TALLONE","libell_d_acheminement":"TALLONE","code_postal":"20270","coordonnees_gps":[42.1844920407,9.46562453139],"code_commune_insee":"2B320"},"geometry":{"type":"Point","coordinates":[9.46562453139,42.1844920407]},"record_timestamp":"2016-05-09T15:17:00+02:00"},{"datasetid":"laposte_hexasmal","recordid":"99a044a90965801824d4f1b5bb97fa57aa3efdd6","fields":{"code_postal":"20270","code_commune_insee":"2B320","libell_d_acheminement":"TALLONE","ligne_5":"PIANICCIA","nom_de_la_commune":"TALLONE","coordonnees_gps":[42.1844920407,9.46562453139]},"geometry":{"type":"Point","coordinates":[9.46562453139,42.1844920407]},"record_timestamp":"2016-05-09T15:17:00+02:00"},{"datasetid":"laposte_hexasmal","recordid":"293e4774a5aa4909abad98d0108dcf0a1a668167","fields":{"nom_de_la_commune":"TARRANO","libell_d_acheminement":"TARRANO","code_postal":"20234","coordonnees_gps":[42.3442277413,9.40173128284],"code_commune_insee":"2B321"},"geometry":{"type":"Point","coordinates":[9.40173128284,42.3442277413]},"record_timestamp":"2016-05-09T15:17:00+02:00"},{"datasetid":"laposte_hexasmal","recordid":"b32df821ff8ba30022d0a413098892a79a2f5658","fields":{"nom_de_la_commune":"TOMINO","libell_d_acheminement":"TOMINO","code_postal":"20248","coordonnees_gps":[42.9440187067,9.44630145154],"code_commune_insee":"2B327"},"geometry":{"type":"Point","coordinates":[9.44630145154,42.9440187067]},"record_timestamp":"2016-05-09T15:17:00+02:00"},{"datasetid":"laposte_hexasmal","recordid":"78e76e4ee3d5e4e485397cdb6b647082c23e9f4b","fields":{"nom_de_la_commune":"TOX","libell_d_acheminement":"TOX","code_postal":"20270","coordonnees_gps":[42.2442032331,9.44292921906],"code_commune_insee":"2B328"},"geometry":{"type":"Point","coordinates":[9.44292921906,42.2442032331]},"record_timestamp":"2016-05-09T15:17:00+02:00"},{"datasetid":"laposte_hexasmal","recordid":"70d4c22b63e65626b3b1d8aef0983d7b4cbec1d5","fields":{"nom_de_la_commune":"URTACA","libell_d_acheminement":"URTACA","code_postal":"20218","coordonnees_gps":[42.6207885418,9.14775307705],"code_commune_insee":"2B332"},"geometry":{"type":"Point","coordinates":[9.14775307705,42.6207885418]},"record_timestamp":"2016-05-09T15:17:00+02:00"},{"datasetid":"laposte_hexasmal","recordid":"d04d7aff77b2b4b7575fbbca162258c78a0a254c","fields":{"nom_de_la_commune":"VENTISERI","libell_d_acheminement":"VENTISERI","code_postal":"20240","coordonnees_gps":[41.9410129854,9.36287097036],"code_commune_insee":"2B342"},"geometry":{"type":"Point","coordinates":[9.36287097036,41.9410129854]},"record_timestamp":"2016-05-09T15:17:00+02:00"},{"datasetid":"laposte_hexasmal","recordid":"111434125113464c680811deeb62128005b268f7","fields":{"code_postal":"20240","code_commune_insee":"2B342","libell_d_acheminement":"VENTISERI","ligne_5":"MIGNATAJA","nom_de_la_commune":"VENTISERI","coordonnees_gps":[41.9410129854,9.36287097036]},