[{"datasetid":"laposte_hexasmal","recordid":"d60f5f8f1c4e5e37ee1cea8e1978a9efe3ac83ab","fields":{"nom_de_la_commune":"AIGURANDE","libell_d_acheminement":"AIGURANDE","code_postal":"36140","coordonnees_gps":[46.455684191,1.83976972145],"code_commune_insee":"36001"},"geometry":{"type":"Point","coordinates":[1.83976972145,46.455684191]},"record_timestamp":"2016-05-09T15:17:00+02:00"},{"datasetid":"laposte_hexasmal","recordid":"8ec1e40add1e6a3003b910b7e33df73c2f241622","fields":{"nom_de_la_commune":"ARDENTES","libell_d_acheminement":"ARDENTES","code_postal":"36120","coordonnees_gps":[46.7359618133,1.82403149268],"code_commune_insee":"36005"},"geometry":{"type":"Point","coordinates":[1.82403149268,46.7359618133]},"record_timestamp":"2016-05-09T15:17:00+02:00"},{"datasetid":"laposte_hexasmal","recordid":"83729f4ce7cf8b709a56a57ba758fb637e060dd8","fields":{"nom_de_la_commune":"ARGY","libell_d_acheminement":"ARGY","code_postal":"36500","coordonnees_gps":[46.9410833796,1.46153298844],"code_commune_insee":"36007"},"geometry":{"type":"Point","coordinates":[1.46153298844,46.9410833796]},"record_timestamp":"2016-05-09T15:17:00+02:00"},{"datasetid":"laposte_hexasmal","recordid":"32274ab9eb03b56a44688b1b889a2953f58f227f","fields":{"nom_de_la_commune":"ARTHON","libell_d_acheminement":"ARTHON","code_postal":"36330","coordonnees_gps":[46.6931304896,1.71130740486],"code_commune_insee":"36009"},"geometry":{"type":"Point","coordinates":[1.71130740486,46.6931304896]},"record_timestamp":"2016-05-09T15:17:00+02:00"},{"datasetid":"laposte_hexasmal","recordid":"d5862d35493a00b7bf307011e743ffa6c40c8cf9","fields":{"nom_de_la_commune":"BAGNEUX","libell_d_acheminement":"BAGNEUX","code_postal":"36210","coordonnees_gps":[47.1677532735,1.75606280452],"code_commune_insee":"36011"},"geometry":{"type":"Point","coordinates":[1.75606280452,47.1677532735]},"record_timestamp":"2016-05-09T15:17:00+02:00"},{"datasetid":"laposte_hexasmal","recordid":"79863f3d342442bbd5eb2a315b16ea3e2ee60488","fields":{"nom_de_la_commune":"LE BLANC","libell_d_acheminement":"LE BLANC","code_postal":"36300","coordonnees_gps":[46.6346200347,1.10013221164],"code_commune_insee":"36018"},"geometry":{"type":"Point","coordinates":[1.10013221164,46.6346200347]},"record_timestamp":"2016-05-09T15:17:00+02:00"},{"datasetid":"laposte_hexasmal","recordid":"eb682805b70a7ec085315ad419ef4d906b973396","fields":{"nom_de_la_commune":"LES BORDES","libell_d_acheminement":"LES BORDES","code_postal":"36100","coordonnees_gps":[46.9845708216,1.9639586533],"code_commune_insee":"36021"},"geometry":{"type":"Point","coordinates":[1.9639586533,46.9845708216]},"record_timestamp":"2016-05-09T15:17:00+02:00"},{"datasetid":"laposte_hexasmal","recordid":"43c73bc5d2094406069548448ec6f1e041b4945d","fields":{"nom_de_la_commune":"BOUGES LE CHATEAU","libell_d_acheminement":"BOUGES LE CHATEAU","code_postal":"36110","coordonnees_gps":[47.0315026435,1.66537369681],"code_commune_insee":"36023"},"geometry":{"type":"Point","coordinates":[1.66537369681,47.0315026435]},"record_timestamp":"2016-05-09T15:17:00+02:00"},{"datasetid":"laposte_hexasmal","recordid":"d4e0806aacadb7ea212454f16cdf380dbb19e102","fields":{"nom_de_la_commune":"BRIANTES","libell_d_acheminement":"BRIANTES","code_postal":"36400","coordonnees_gps":[46.5505241827,2.02422131668],"code_commune_insee":"36025"},"geometry":{"type":"Point","coordinates":[2.02422131668,46.5505241827]},"record_timestamp":"2016-05-09T15:17:00+02:00"},{"datasetid":"laposte_hexasmal","recordid":"285bc46e01f7c939c94054653a8ab0d45a364b1c","fields":{"nom_de_la_commune":"BRION","libell_d_acheminement":"BRION","code_postal":"36110","coordonnees_gps":[46.9498101823,1.72891694176],"code_commune_insee":"36026"},"geometry":{"type":"Point","coordinates":[1.72891694176,46.9498101823]},"record_timestamp":"2016-05-09T15:17:00+02:00"},{"datasetid":"laposte_hexasmal","recordid":"f5c1384208293d54c9485bd24e5147c2eb569991","fields":{"nom_de_la_commune":"CHALAIS","libell_d_acheminement":"CHALAIS","code_postal":"36370","coordonnees_gps":[46.5430861576,1.22189914233],"code_commune_insee":"36036"},"geometry":{"type":"Point","coordinates":[1.22189914233,46.5430861576]},"record_timestamp":"2016-05-09T15:17:00+02:00"},{"datasetid":"laposte_hexasmal","recordid":"b6ff93bf18c65f869885ca168f16450f697576f9","fields":{"nom_de_la_commune":"LA CHAMPENOISE","libell_d_acheminement":"LA CHAMPENOISE","code_postal":"36100","coordonnees_gps":[46.9393942859,1.79291889355],"code_commune_insee":"36037"},"geometry":{"type":"Point","coordinates":[1.79291889355,46.9393942859]},"record_timestamp":"2016-05-09T15:17:00+02:00"},{"datasetid":"laposte_hexasmal","recordid":"3f9b880d0147904d9e050e4211304f12b05cd219","fields":{"nom_de_la_commune":"CHATEAUROUX","libell_d_acheminement":"CHATEAUROUX","code_postal":"36000","coordonnees_gps":[46.8029617828,1.69399812001],"code_commune_insee":"36044"},"geometry":{"type":"Point","coordinates":[1.69399812001,46.8029617828]},"record_timestamp":"2016-05-09T15:17:00+02:00"},{"datasetid":"laposte_hexasmal","recordid":"fe8630f8c7145e02ea6680789611c109fd759acc","fields":{"nom_de_la_commune":"LA CHATRE","libell_d_acheminement":"LA CHATRE","code_postal":"36400","coordonnees_gps":[46.5738617061,1.99112468906],"code_commune_insee":"36046"},"geometry":{"type":"Point","coordinates":[1.99112468906,46.5738617061]},"record_timestamp":"2016-05-09T15:17:00+02:00"},{"datasetid":"laposte_hexasmal","recordid":"cf4ebdbf84814870d0e6dc43196ca9124fbddc36","fields":{"nom_de_la_commune":"LA CHATRE LANGLIN","libell_d_acheminement":"LA CHATRE LANGLIN","code_postal":"36170","coordonnees_gps":[46.4097629737,1.38754317805],"code_commune_insee":"36047"},"geometry":{"type":"Point","coordinates":[1.38754317805,46.4097629737]},"record_timestamp":"2016-05-09T15:17:00+02:00"},{"datasetid":"laposte_hexasmal","recordid":"40971cd416c179206b621d1478367fb4d52fe1c1","fields":{"nom_de_la_commune":"CREVANT","libell_d_acheminement":"CREVANT","code_postal":"36140","coordonnees_gps":[46.4692924616,1.93707320558],"code_commune_insee":"36060"},"geometry":{"type":"Point","coordinates":[1.93707320558,46.4692924616]},"record_timestamp":"2016-05-09T15:17:00+02:00"},{"datasetid":"laposte_hexasmal","recordid":"6247bc9229ff5395b8655fee517bdda4768e549a","fields":{"nom_de_la_commune":"DIOU","libell_d_acheminement":"DIOU","code_postal":"36260","coordonnees_gps":[47.0454733452,2.00611539537],"code_commune_insee":"36065"},"geometry":{"type":"Point","coordinates":[2.00611539537,47.0454733452]},"record_timestamp":"2016-05-09T15:17:00+02:00"},{"datasetid":"laposte_hexasmal","recordid":"c1d4dbdfb58cdb91d8bc8712beaa0f4f3d6e23e2","fields":{"nom_de_la_commune":"DUN LE POELIER","libell_d_acheminement":"DUN LE POELIER","code_postal":"36210","coordonnees_gps":[47.2189643606,1.7473439973],"code_commune_insee":"36068"},"geometry":{"type":"Point","coordinates":[1.7473439973,47.2189643606]},"record_timestamp":"2016-05-09T15:17:00+02:00"},{"datasetid":"laposte_hexasmal","recordid":"ee0a7acd9694c7de05c9226fb92ba22b52ae43e4","fields":{"nom_de_la_commune":"HEUGNES","libell_d_acheminement":"HEUGNES","code_postal":"36180","coordonnees_gps":[47.0279062029,1.38544122322],"code_commune_insee":"36086"},"geometry":{"type":"Point","coordinates":[1.38544122322,47.0279062029]},"record_timestamp":"2016-05-09T15:17:00+02:00"},{"datasetid":"laposte_hexasmal","recordid":"bf097fea2bd1a27be94eeb3c1f025419759a7637","fields":{"code_postal":"36110","code_commune_insee":"36093","libell_d_acheminement":"LEVROUX","ligne_5":"ST MARTIN DE LAMPS","nom_de_la_commune":"LEVROUX","coordonnees_gps":[46.9727032392,1.63027138239]},"geometry":{"type":"Point","coordinates":[1.63027138239,46.9727032392]},"record_timestamp":"2016-05-09T15:17:00+02:00"},{"datasetid":"laposte_hexasmal","recordid":"7591d45bea00e5fd7a122d32a4515cb43d5209dc","fields":{"nom_de_la_commune":"LOURDOUEIX ST MICHEL","libell_d_acheminement":"LOURDOUEIX ST MICHEL","code_postal":"36140","coordonnees_gps":[46.4167963752,1.7255656955],"code_commune_insee":"36099"},"geometry":{"type":"Point","coordinates":[1.7255656955,46.4167963752]},"record_timestamp":"2016-05-09T15:17:00+02:00"},{"datasetid":"laposte_hexasmal","recordid":"b3af6925ff204f43202ffa2b8fb2dadc1b406961","fields":{"nom_de_la_commune":"LUANT","libell_d_acheminement":"LUANT","code_postal":"36350","coordonnees_gps":[46.7276279837,1.56239391822],"code_commune_insee":"36101"},"geometry":{"type":"Point","coordinates":[1.56239391822,46.7276279837]},"record_timestamp":"2016-05-09T15:17:00+02:00"},{"datasetid":"laposte_hexasmal","recordid":"c75f75cd80f7d2a0f1a5e1e565250b6ef4b97e2c","fields":{"nom_de_la_commune":"LUZERET","libell_d_acheminement":"LUZERET","code_postal":"36800","coordonnees_gps":[46.5476228385,1.38528688826],"code_commune_insee":"36106"},"geometry":{"type":"Point","coordinates":[1.38528688826,46.5476228385]},"record_timestamp":"2016-05-09T15:17:00+02:00"},{"datasetid":"laposte_hexasmal","recordid":"07bf47432c8b0f0877619415c2e822f07a2490f0","fields":{"nom_de_la_commune":"LYE","libell_d_acheminement":"LYE","code_postal":"36600","coordonnees_gps":[47.2209145383,1.47358421341],"code_commune_insee":"36107"},"geometry":{"type":"Point","coordinates":[1.47358421341,47.2209145383]},"record_timestamp":"2016-05-09T15:17:00+02:00"},{"datasetid":"laposte_hexasmal","recordid":"a4064b5cce48d264c5425b6edbfe0347bbd8947c","fields":{"nom_de_la_commune":"MARON","libell_d_acheminement":"MARON","code_postal":"36120","coordonnees_gps":[46.8006352308,1.85819593148],"code_commune_insee":"36112"},"geometry":{"type":"Point","coordinates":[1.85819593148,46.8006352308]},"record_timestamp":"2016-05-09T15:17:00+02:00"},{"datasetid":"laposte_hexasmal","recordid":"1a7a152153b6c51850abd90b75ca24ce6ff181d6","fields":{"nom_de_la_commune":"MERIGNY","libell_d_acheminement":"MERIGNY","code_postal":"36220","coordonnees_gps":[46.6307715976,0.932899384485],"code_commune_insee":"36119"},"geometry":{"type":"Point","coordinates":[0.932899384485,46.6307715976]},"record_timestamp":"2016-05-09T15:17:00+02:00"},{"datasetid":"laposte_hexasmal","recordid":"a80e53de206d08ddc3572d4602984cdb6e85a9b5","fields":{"nom_de_la_commune":"MIGNE","libell_d_acheminement":"MIGNE","code_postal":"36800","coordonnees_gps":[46.7122971226,1.30178557971],"code_commune_insee":"36124"},"geometry":{"type":"Point","coordinates":[1.30178557971,46.7122971226]},"record_timestamp":"2016-05-09T15:17:00+02:00"},{"datasetid":"laposte_hexasmal","recordid":"7f398f5dffcf4ac90a6db2613b882fad60ec194a","fields":{"nom_de_la_commune":"MONTIERCHAUME","libell_d_acheminement":"MONTIERCHAUME","code_postal":"36130","coordonnees_gps":[46.8664822009,1.77844723224],"code_commune_insee":"36128"},"geometry":{"type":"Point","coordinates":[1.77844723224,46.8664822009]},"record_timestamp":"2016-05-09T15:17:00+02:00"},{"datasetid":"laposte_hexasmal","recordid":"0f2995b69e0c1567135124a0ba46e6bb0d86dd37","fields":{"nom_de_la_commune":"MONTLEVICQ","libell_d_acheminement":"MONTLEVICQ","code_postal":"36400","coordonnees_gps":[46.5799416307,2.08420798792],"code_commune_insee":"36130"},"geometry":{"type":"Point","coordinates":[2.08420798792,46.5799416307]},"record_timestamp":"2016-05-09T15:17:00+02:00"},{"datasetid":"laposte_hexasmal","recordid":"f55958926bc35adc04cf264f59447e09478e1326","fields":{"nom_de_la_commune":"NEONS SUR CREUSE","libell_d_acheminement":"NEONS SUR CREUSE","code_postal":"36220","coordonnees_gps":[46.734899055,0.917095458404],"code_commune_insee":"36137"},"geometry":{"type":"Point","coordinates":[0.917095458404,46.734899055]},"record_timestamp":"2016-05-09T15:17:00+02:00"},{"datasetid":"laposte_hexasmal","recordid":"e43c1e6a04df938cde7757b20e29f70b98ff9942","fields":{"nom_de_la_commune":"NEUVY PAILLOUX","libell_d_acheminement":"NEUVY PAILLOUX","code_postal":"36100","coordonnees_gps":[46.9035481163,1.85857404368],"code_commune_insee":"36140"},"geometry":{"type":"Point","coordinates":[1.85857404368,46.9035481163]},"record_timestamp":"2016-05-09T15:17:00+02:00"},{"datasetid":"laposte_hexasmal","recordid":"0e1e05eee96e458fa0ffe73768504d3a08a8bbbe","fields":{"nom_de_la_commune":"PALLUAU SUR INDRE","libell_d_acheminement":"PALLUAU SUR INDRE","code_postal":"36500","coordonnees_gps":[46.9503340872,1.30699854717],"code_commune_insee":"36149"},"geometry":{"type":"Point","coordinates":[1.30699854717,46.9503340872]},"record_timestamp":"2016-05-09T15:17:00+02:00"},{"datasetid":"laposte_hexasmal","recordid":"d2da2524bdc3deb3bf67b7a91a8c93410c90e225","fields":{"nom_de_la_commune":"PERASSAY","libell_d_acheminement":"PERASSAY","code_postal":"36160","coordonnees_gps":[46.4754394815,2.14469333686],"code_commune_insee":"36156"},"geometry":{"type":"Point","coordinates":[2.14469333686,46.4754394815]},"record_timestamp":"2016-05-09T15:17:00+02:00"},{"datasetid":"laposte_hexasmal","recordid":"3ebfa9d040ee887b6f0484e466e6903b7d232813","fields":{"nom_de_la_commune":"POMMIERS","libell_d_acheminement":"POMMIERS","code_postal":"36190","coordonnees_gps":[46.521846173,1.65349444143],"code_commune_insee":"36160"},"geometry":{"type":"Point","coordinates":[1.65349444143,46.521846173]},"record_timestamp":"2016-05-09T15:17:00+02:00"},{"datasetid":"laposte_hexasmal","recordid":"0244154c90ba0e8b29f33c4cb6d997149bcaa8a2","fields":{"nom_de_la_commune":"POULIGNY ST MARTIN","libell_d_acheminement":"POULIGNY ST MARTIN","code_postal":"36160","coordonnees_gps":[46.5149038846,2.00555545984],"code_commune_insee":"36164"},"geometry":{"type":"Point","coordinates":[2.00555545984,46.5149038846]},"record_timestamp":"2016-05-09T15:17:00+02:00"},{"datasetid":"laposte_hexasmal","recordid":"ea3984396561bbca589c6dd4e71f8184fa1fb9b7","fields":{"nom_de_la_commune":"ROUVRES LES BOIS","libell_d_acheminement":"ROUVRES LES BOIS","code_postal":"36110","coordonnees_gps":[47.0727033689,1.65279278952],"code_commune_insee":"36175"},"geometry":{"type":"Point","coordinates":[1.65279278952,47.0727033689]},"record_timestamp":"2016-05-09T15:17:00+02:00"},{"datasetid":"laposte_hexasmal","recordid":"8a7a4458902ce42fab1cb0ad1d4e1fc3b7698e61","fields":{"nom_de_la_commune":"ST AUBIN","libell_d_acheminement":"ST AUBIN","code_postal":"36100","coordonnees_gps":[46.861488808,2.03208809042],"code_commune_insee":"36181"},"geometry":{"type":"Point","coordinates":[2.03208809042,46.861488808]},"record_timestamp":"2016-05-09T15:17:00+02:00"},{"datasetid":"laposte_hexasmal","recordid":"4889c8e825c2d78aeec4d57cf54791b54630b1bb","fields":{"nom_de_la_commune":"ST CHARTIER","libell_d_acheminement":"ST CHARTIER","code_postal":"36400","coordonnees_gps":[46.6758816931,1.98233064219],"code_commune_insee":"36184"},"geometry":{"type":"Point","coordinates":[1.98233064219,46.6758816931]},"record_timestamp":"2016-05-09T15:17:00+02:00"},{"datasetid":"laposte_hexasmal","recordid":"75f188f782c17c0c62b0261eea6c3f87a62460e5","fields":{"nom_de_la_commune":"ST CIVRAN","libell_d_acheminement":"ST CIVRAN","code_postal":"36170","coordonnees_gps":[46.4938472391,1.40425431776],"code_commune_insee":"36187"},"geometry":{"type":"Point","coordinates":[1.40425431776,46.4938472391]},"record_timestamp":"2016-05-09T15:17:00+02:00"},{"datasetid":"laposte_hexasmal","recordid":"3d56f4fab374c5908e5395abe9528ef9c0ca0955","fields":{"nom_de_la_commune":"ST CYRAN DU JAMBOT","libell_d_acheminement":"ST CYRAN DU JAMBOT","code_postal":"36700","coordonnees_gps":[47.0224840365,1.15675534886],"code_commune_insee":"36188"},"geometry":{"type":"Point","coordinates":[1.15675534886,47.0224840365]},"record_timestamp":"2016-05-09T15:17:00+02:00"},{"datasetid":"laposte_hexasmal","recordid":"c7026619124316cdbb93399aee59a6c48d3c2b14","fields":{"nom_de_la_commune":"ST GAULTIER","libell_d_acheminement":"ST GAULTIER","code_postal":"36800","coordonnees_gps":[46.6480131941,1.43032381865],"code_commune_insee":"36192"},"geometry":{"type":"Point","coordinates":[1.43032381865,46.6480131941]},"record_timestamp":"2016-05-09T15:17:00+02:00"},{"datasetid":"laposte_hexasmal","recordid":"0e55b53fe0e9360d603f2b5f692462615fcf6a55","fields":{"nom_de_la_commune":"ST MARCEL","libell_d_acheminement":"ST MARCEL","code_postal":"36200","coordonnees_gps":[46.6083971335,1.52347471994],"code_commune_insee":"36200"},"geometry":{"type":"Point","coordinates":[1.52347471994,46.6083971335]},"record_timestamp":"2016-05-09T15:17:00+02:00"},{"datasetid":"laposte_hexasmal","recordid":"ee1afd95f500045a9a8529e272610b8103c7b7f0","fields":{"nom_de_la_commune":"ST MAUR","libell_d_acheminement":"ST MAUR","code_postal":"36250","coordonnees_gps":[46.7890918907,1.62343965566],"code_commune_insee":"36202"},"geometry":{"type":"Point","coordinates":[1.62343965566,46.7890918907]},"record_timestamp":"2016-05-09T15:17:00+02:00"},{"datasetid":"laposte_hexasmal","recordid":"9c49119eda847a9a1ba161ef5b3b5bb3f81a8c8f","fields":{"nom_de_la_commune":"STE SEVERE SUR INDRE","libell_d_acheminement":"STE SEVERE SUR INDRE","code_postal":"36160","coordonnees_gps":[46.5042219323,2.06769602901],"code_commune_insee":"36208"},"geometry":{"type":"Point","coordinates":[2.06769602901,46.5042219323]},"record_timestamp":"2016-05-09T15:17:00+02:00"},{"datasetid":"laposte_hexasmal","recordid":"51158611516b74ecfccf4a50f6d8709479ad55e7","fields":{"nom_de_la_commune":"SAZERAY","libell_d_acheminement":"SAZERAY","code_postal":"36160","coordonnees_gps":[46.4467096197,2.04531579946],"code_commune_insee":"36214"},"geometry":{"type":"Point","coordinates":[2.04531579946,46.4467096197]},"record_timestamp":"2016-05-09T15:17:00+02:00"},{"datasetid":"laposte_hexasmal","recordid":"ad84b74faa128501b197939e31342d0a65cad291","fields":{"nom_de_la_commune":"SEGRY","libell_d_acheminement":"SEGRY","code_postal":"36100","coordonnees_gps":[46.8846862374,2.09589433359],"code_commune_insee":"36215"},"geometry":{"type":"Point","coordinates":[2.09589433359,46.8846862374]},"record_timestamp":"2016-05-09T15:17:00+02:00"},{"datasetid":"laposte_hexasmal","recordid":"ae5b811cedc35bbed1f31f8483e8ce4a88c4e71b","fields":{"nom_de_la_commune":"SOUGE","libell_d_acheminement":"SOUGE","code_postal":"36500","coordonnees_gps":[46.9659142337,1.48046775044],"code_commune_insee":"36218"},"geometry":{"type":"Point","coordinates":[1.48046775044,46.9659142337]},"record_timestamp":"2016-05-09T15:17:00+02:00"},{"datasetid":"laposte_hexasmal","recordid":"2a81a2d2a17fd6704124e3265fa236cbae175b4b","fields":{"nom_de_la_commune":"TOURNON ST MARTIN","libell_d_acheminement":"TOURNON ST MARTIN","code_postal":"36220","coordonnees_gps":[46.7300364978,0.983181764115],"code_commune_insee":"36224"},"geometry":{"type":"Point","coordinates":[0.983181764115,46.7300364978]},"record_timestamp":"2016-05-09T15:17:00+02:00"},{"datasetid":"laposte_hexasmal","recordid":"ce4eb48342f40c6008bba2088b8765f1dcb098b0","fields":{"nom_de_la_commune":"VALENCAY","libell_d_acheminement":"VALENCAY","code_postal":"36600","coordonnees_gps":[47.1558433483,1.55858540806],"code_commune_insee":"36228"},"geometry":{"type":"Point","coordinates":[1.55858540806,47.1558433483]},"record_timestamp":"2016-05-09T15:17:00+02:00"},{"datasetid":"laposte_hexasmal","recordid":"4380df905dac2008fc88a01d6631913e9a32867a","fields":{"nom_de_la_commune":"VELLES","libell_d_acheminement":"VELLES","code_postal":"36330","coordonnees_gps":[46.69976205,1.63686768845],"code_commune_insee":"36231"},"geometry":{"type":"Point","coordinates":[1.63686768845,46.69976205]},"record_timestamp":"2016-05-09T15:17:00+02:00"},{"datasetid":"laposte_hexasmal","recordid":"d04f140bf0509da51de4fdc987302676501e97cb","fields":{"nom_de_la_commune":"VENDOEUVRES","libell_d_acheminement":"VENDOEUVRES","code_postal":"36500","coordonnees_gps":[46.7879906602,1.3602788548],"code_commune_insee":"36232"},"geometry":{"type":"Point","coordinates":[1.3602788548,46.7879906602]},"record_timestamp":"2016-05-09T15:17:00+02:00"},{"datasetid":"laposte_hexasmal","recordid":"46b01a645f675f3210d723f318fff6bb78b418d7","fields":{"nom_de_la_commune":"VERNEUIL SUR IGNERAIE","libell_d_acheminement":"VERNEUIL SUR IGNERAIE","code_postal":"36400","coordonnees_gps":[46.6542492124,2.01447840786],"code_commune_insee":"36234"},"geometry":{"type":"Point","coordinates":[2.01447840786,46.6542492124]},"record_timestamp":"2016-05-09T15:17:00+02:00"},{"datasetid":"laposte_hexasmal","recordid":"40441516dc66f1c831ce8a24d87ef3cd7311715d","fields":{"nom_de_la_commune":"VILLEGONGIS","libell_d_acheminement":"VILLEGONGIS","code_postal":"36110","coordonnees_gps":[46.9241338236,1.58960758667],"code_commune_insee":"36242"},"geometry":{"type":"Point","coordinates":[1.58960758667,46.9241338236]},"record_timestamp":"2016-05-09T15:17:00+02:00"},{"datasetid":"laposte_hexasmal","recordid":"500893cd2ad5a30ab6582e99681e5a4cd72e0ceb","fields":{"nom_de_la_commune":"AZAY LE FERRON","libell_d_acheminement":"AZAY LE FERRON","code_postal":"36290","coordonnees_gps":[46.8459784921,1.08124698726],"code_commune_insee":"36010"},"geometry":{"type":"Point","coordinates":[1.08124698726,46.8459784921]},"record_timestamp":"2016-05-09T15:17:00+02:00"},{"datasetid":"laposte_hexasmal","recordid":"5800da5b4d54bf153a0fcdf50546d597f00c07d2","fields":{"nom_de_la_commune":"BARAIZE","libell_d_acheminement":"BARAIZE","code_postal":"36270","coordonnees_gps":[46.480854966,1.57028016137],"code_commune_insee":"36012"},"geometry":{"type":"Point","coordinates":[1.57028016137,46.480854966]},"record_timestamp":"2016-05-09T15:17:00+02:00"},{"datasetid":"laposte_hexasmal","recordid":"58fd88227ab91dbdd60de35ab925a0529354f034","fields":{"nom_de_la_commune":"BAUDRES","libell_d_acheminement":"BAUDRES","code_postal":"36110","coordonnees_gps":[47.0521492475,1.57305496545],"code_commune_insee":"36013"},"geometry":{"type":"Point","coordinates":[1.57305496545,47.0521492475]},"record_timestamp":"2016-05-09T15:17:00+02:00"},{"datasetid":"laposte_hexasmal","recordid":"56fc2c05f4dfa2269bec509f671daf7ab3c112fc","fields":{"nom_de_la_commune":"BRIVES","libell_d_acheminement":"BRIVES","code_postal":"36100","coordonnees_gps":[46.8571427122,1.92583011127],"code_commune_insee":"36027"},"geometry":{"type":"Point","coordinates":[1.92583011127,46.8571427122]},"record_timestamp":"2016-05-09T15:17:00+02:00"},{"datasetid":"laposte_hexasmal","recordid":"d42edf74c74740f28df3f5091c8b447d8dd25b7a","fields":{"nom_de_la_commune":"CELON","libell_d_acheminement":"CELON","code_postal":"36200","coordonnees_gps":[46.5315916798,1.51221513652],"code_commune_insee":"36033"},"geometry":{"type":"Point","coordinates":[1.51221513652,46.5315916798]},"record_timestamp":"2016-05-09T15:17:00+02:00"},{"datasetid":"laposte_hexasmal","recordid":"edf8bd702336967d3953ebd6c669dad9c1cf3885","fields":{"nom_de_la_commune":"LA CHAPELLE ORTHEMALE","libell_d_acheminement":"LA CHAPELLE ORTHEMALE","code_postal":"36500","coordonnees_gps":[46.8327873497,1.45197774217],"code_commune_insee":"36040"},"geometry":{"type":"Point","coordinates":[1.45197774217,46.8327873497]},"record_timestamp":"2016-05-09T15:17:00+02:00"},{"datasetid":"laposte_hexasmal","recordid":"d1d1f715e05cf567a9877eba84b4635ecb70b2b8","fields":{"nom_de_la_commune":"LA CHAPELLE ST LAURIAN","libell_d_acheminement":"LA CHAPELLE ST LAURIAN","code_postal":"36150","coordonnees_gps":[47.0547841685,1.78297349808],"code_commune_insee":"36041"},"geometry":{"type":"Point","coordinates":[1.78297349808,47.0547841685]},"record_timestamp":"2016-05-09T15:17:00+02:00"},{"datasetid":"laposte_hexasmal","recordid":"077509274432eac025a8fed949616c38cdb9d9fc","fields":{"nom_de_la_commune":"CHASSIGNOLLES","libell_d_acheminement":"CHASSIGNOLLES","code_postal":"36400","coordonnees_gps":[46.5288369456,1.93596735168],"code_commune_insee":"36043"},"geometry":{"type":"Point","coordinates":[1.93596735168,46.5288369456]},"record_timestamp":"2016-05-09T15:17:00+02:00"},{"datasetid":"laposte_hexasmal","recordid":"cbf813dfe2a06c5666e678054c740cdf4404ea0b","fields":{"nom_de_la_commune":"CHATILLON SUR INDRE","libell_d_acheminement":"CHATILLON SUR INDRE","code_postal":"36700","coordonnees_gps":[46.9917064296,1.17509631629],"code_commune_insee":"36045"},"geometry":{"type":"Point","coordinates":[1.17509631629,46.9917064296]},"record_timestamp":"2016-05-09T15:17:00+02:00"},{"datasetid":"laposte_hexasmal","recordid":"242af8c08e23967b3ba3ef34d434273d8d0615dd","fields":{"nom_de_la_commune":"CHAVIN","libell_d_acheminement":"CHAVIN","code_postal":"36200","coordonnees_gps":[46.5625110461,1.61164678911],"code_commune_insee":"36048"},"geometry":{"type":"Point","coordinates":[1.61164678911,46.5625110461]},"record_timestamp":"2016-05-09T15:17:00+02:00"},{"datasetid":"laposte_hexasmal","recordid":"2136b40910e427196cdc285b54c82a5d9660809d","fields":{"nom_de_la_commune":"CHEZELLES","libell_d_acheminement":"CHEZELLES","code_postal":"36500","coordonnees_gps":[46.8939222483,1.56256220067],"code_commune_insee":"36050"},"geometry":{"type":"Point","coordinates":[1.56256220067,46.8939222483]},"record_timestamp":"2016-05-09T15:17:00+02:00"},{"datasetid":"laposte_hexasmal","recordid":"82c5c1ac2168f7e8d60a7ff61e9b454dfada4b05","fields":{"nom_de_la_commune":"CONCREMIERS","libell_d_acheminement":"CONCREMIERS","code_postal":"36300","coordonnees_gps":[46.5939953457,1.01591887364],"code_commune_insee":"36058"},"geometry":{"type":"Point","coordinates":[1.01591887364,46.5939953457]},"record_timestamp":"2016-05-09T15:17:00+02:00"},{"datasetid":"laposte_hexasmal","recordid":"053788c7ddfd109ef8ffb508a1cbd71509a9e5be","fields":{"nom_de_la_commune":"CROZON SUR VAUVRE","libell_d_acheminement":"CROZON SUR VAUVRE","code_postal":"36140","coordonnees_gps":[46.481288114,1.88194807348],"code_commune_insee":"36061"},"geometry":{"type":"Point","coordinates":[1.88194807348,46.481288114]},"record_timestamp":"2016-05-09T15:17:00+02:00"},{"datasetid":"laposte_hexasmal","recordid":"3f2231b8d7d608ab2e58b3aaf922428e548ba8db","fields":{"nom_de_la_commune":"CUZION","libell_d_acheminement":"CUZION","code_postal":"36190","coordonnees_gps":[46.4715144043,1.61693641258],"code_commune_insee":"36062"},"geometry":{"type":"Point","coordinates":[1.61693641258,46.4715144043]},"record_timestamp":"2016-05-09T15:17:00+02:00"},{"datasetid":"laposte_hexasmal","recordid":"c4a0ac06e689c5470e793ed1256fbf20d62e9828","fields":{"nom_de_la_commune":"FONTGUENAND","libell_d_acheminement":"FONTGUENAND","code_postal":"36600","coordonnees_gps":[47.2019729432,1.53449343992],"code_commune_insee":"36077"},"geometry":{"type":"Point","coordinates":[1.53449343992,47.2019729432]},"record_timestamp":"2016-05-09T15:17:00+02:00"},{"datasetid":"laposte_hexasmal","recordid":"952761598ff7567162b198cda8efc32ae4f19584","fields":{"nom_de_la_commune":"FOUGEROLLES","libell_d_acheminement":"FOUGEROLLES","code_postal":"36230","coordonnees_gps":[46.568597267,1.86981174393],"code_commune_insee":"36078"},"geometry":{"type":"Point","coordinates":[1.86981174393,46.568597267]},"record_timestamp":"2016-05-09T15:17:00+02:00"},{"datasetid":"laposte_hexasmal","recordid":"f5d842e7b3d4e2ba05c2ff7f6b3d34b360427b00","fields":{"nom_de_la_commune":"FREDILLE","libell_d_acheminement":"FREDILLE","code_postal":"36180","coordonnees_gps":[47.001803975,1.47736111614],"code_commune_insee":"36080"},"geometry":{"type":"Point","coordinates":[1.47736111614,47.001803975]},"record_timestamp":"2016-05-09T15:17:00+02:00"},{"datasetid":"laposte_hexasmal","recordid":"f0f3f4f70fad5a2afea79895bdb7c6a8a71290e7","fields":{"nom_de_la_commune":"ISSOUDUN","libell_d_acheminement":"ISSOUDUN","code_postal":"36100","coordonnees_gps":[46.9489390293,2.00053790133],"code_commune_insee":"36088"},"geometry":{"type":"Point","coordinates":[2.00053790133,46.9489390293]},"record_timestamp":"2016-05-09T15:17:00+02:00"},{"datasetid":"laposte_hexasmal","recordid":"f187527d151b763511763addcdeea8fecea646a5","fields":{"nom_de_la_commune":"JEU LES BOIS","libell_d_acheminement":"JEU LES BOIS","code_postal":"36120","coordonnees_gps":[46.6818941747,1.79462790894],"code_commune_insee":"36089"},"geometry":{"type":"Point","coordinates":[1.79462790894,46.6818941747]},"record_timestamp":"2016-05-09T15:17:00+02:00"},{"datasetid":"laposte_hexasmal","recordid":"8f51dbfeb7be0bddcfdbae342cb55fe8ef313146","fields":{"nom_de_la_commune":"LINIEZ","libell_d_acheminement":"LINIEZ","code_postal":"36150","coordonnees_gps":[47.0142256884,1.75629782161],"code_commune_insee":"36097"},"geometry":{"type":"Point","coordinates":[1.75629782161,47.0142256884]},"record_timestamp":"2016-05-09T15:17:00+02:00"},{"datasetid":"laposte_hexasmal","recordid":"1ecf92090e5e950e3cd2f5ac8c843a65003962b6","fields":{"nom_de_la_commune":"LOUROUER ST LAURENT","libell_d_acheminement":"LOUROUER ST LAURENT","code_postal":"36400","coordonnees_gps":[46.6194091093,2.01790100072],"code_commune_insee":"36100"},"geometry":{"type":"Point","coordinates":[2.01790100072,46.6194091093]},"record_timestamp":"2016-05-09T15:17:00+02:00"},{"datasetid":"laposte_hexasmal","recordid":"62773766134e79e0f141f2818afa2f0759905552","fields":{"nom_de_la_commune":"LYS ST GEORGES","libell_d_acheminement":"LYS ST GEORGES","code_postal":"36230","coordonnees_gps":[46.6459003254,1.81677559242],"code_commune_insee":"36108"},"geometry":{"type":"Point","coordinates":[1.81677559242,46.6459003254]},"record_timestamp":"2016-05-09T15:17:00+02:00"},{"datasetid":"laposte_hexasmal","recordid":"337174104fdf1974504311283eb5d120a5cba42a","fields":{"nom_de_la_commune":"LE MAGNY","libell_d_acheminement":"LE MAGNY","code_postal":"36400","coordonnees_gps":[46.5566903776,1.95895779843],"code_commune_insee":"36109"},"geometry":{"type":"Point","coordinates":[1.95895779843,46.5566903776]},"record_timestamp":"2016-05-09T15:17:00+02:00"},{"datasetid":"laposte_hexasmal","recordid":"8eea4a3c19be09a5c5bbb546fb44f8c4b0e5ccdb","fields":{"nom_de_la_commune":"MENETREOLS SOUS VATAN","libell_d_acheminement":"MENETREOLS SOUS VATAN","code_postal":"36150","coordonnees_gps":[47.0086528841,1.83457489496],"code_commune_insee":"36116"},"geometry":{"type":"Point","coordinates":[1.83457489496,47.0086528841]},"record_timestamp":"2016-05-09T15:17:00+02:00"},{"datasetid":"laposte_hexasmal","recordid":"c4d5ef22312832f36c7041fd1e4a2c0e5eda385f","fields":{"nom_de_la_commune":"LE MENOUX","libell_d_acheminement":"LE MENOUX","code_postal":"36200","coordonnees_gps":[46.5579151463,1.57409340054],"code_commune_insee":"36117"},"geometry":{"type":"Point","coordinates":[1.57409340054,46.5579151463]},"record_timestamp":"2016-05-09T15:17:00+02:00"},{"datasetid":"laposte_hexasmal","recordid":"e0a2a72f0e065ed2ec6bb441dae185d95396a32a","fields":{"nom_de_la_commune":"MONTIPOURET","libell_d_acheminement":"MONTIPOURET","code_postal":"36230","coordonnees_gps":[46.6568299962,1.91357333323],"code_commune_insee":"36129"},"geometry":{"type":"Point","coordinates":[1.91357333323,46.6568299962]},"record_timestamp":"2016-05-09T15:17:00+02:00"},{"datasetid":"laposte_hexasmal","recordid":"1be7728555d551be9029166b8396930d26363b37","fields":{"nom_de_la_commune":"MOUHET","libell_d_acheminement":"MOUHET","code_postal":"36170","coordonnees_gps":[46.3892514963,1.44265053138],"code_commune_insee":"36134"},"geometry":{"type":"Point","coordinates":[1.44265053138,46.3892514963]},"record_timestamp":"2016-05-09T15:17:00+02:00"},{"datasetid":"laposte_hexasmal","recordid":"08ea7b9c9ad11cd18a12d3f9f878020c72129bfa","fields":{"nom_de_la_commune":"MURS","libell_d_acheminement":"MURS","code_postal":"36700","coordonnees_gps":[46.925404896,1.16199898894],"code_commune_insee":"36136"},"geometry":{"type":"Point","coordinates":[1.16199898894,46.925404896]},"record_timestamp":"2016-05-09T15:17:00+02:00"},{"datasetid":"laposte_hexasmal","recordid":"13a6ff56460798454ab71fb8ec374a46387e12a6","fields":{"nom_de_la_commune":"NIHERNE","libell_d_acheminement":"NIHERNE","code_postal":"36250","coordonnees_gps":[46.8018622942,1.55801304217],"code_commune_insee":"36142"},"geometry":{"type":"Point","coordinates":[1.55801304217,46.8018622942]},"record_timestamp":"2016-05-09T15:17:00+02:00"},{"datasetid":"laposte_hexasmal","recordid":"59215ba94953c1af75a046f4b2e2bc42e7dc66de","fields":{"nom_de_la_commune":"OBTERRE","libell_d_acheminement":"OBTERRE","code_postal":"36290","coordonnees_gps":[46.9072520176,1.06310600327],"code_commune_insee":"36145"},"geometry":{"type":"Point","coordinates":[1.06310600327,46.9072520176]},"record_timestamp":"2016-05-09T15:17:00+02:00"},{"datasetid":"laposte_hexasmal","recordid":"c68cb3ec83a9cd6a42219194965cda78cc7dffa9","fields":{"nom_de_la_commune":"PARNAC","libell_d_acheminement":"PARNAC","code_postal":"36170","coordonnees_gps":[46.4410252486,1.46522668172],"code_commune_insee":"36150"},"geometry":{"type":"Point","coordinates":[1.46522668172,46.4410252486]},"record_timestamp":"2016-05-09T15:17:00+02:00"},{"datasetid":"laposte_hexasmal","recordid":"c8c5334f60b29e361ccd8e9aeb48981bf864b0fb","fields":{"nom_de_la_commune":"LE PECHEREAU","libell_d_acheminement":"LE PECHEREAU","code_postal":"36200","coordonnees_gps":[46.5845928645,1.57047280121],"code_commune_insee":"36154"},"geometry":{"type":"Point","coordinates":[1.57047280121,46.5845928645]},"record_timestamp":"2016-05-09T15:17:00+02:00"},{"datasetid":"laposte_hexasmal","recordid":"d48cf77d7a858df090dc267bd9989d2a48547d84","fields":{"nom_de_la_commune":"LE POINCONNET","libell_d_acheminement":"LE POINCONNET","code_postal":"36330","coordonnees_gps":[46.7565614091,1.72996377685],"code_commune_insee":"36159"},"geometry":{"type":"Point","coordinates":[1.72996377685,46.7565614091]},"record_timestamp":"2016-05-09T15:17:00+02:00"},{"datasetid":"laposte_hexasmal","recordid":"9c57ddf56583ee14cf668e6ff67800db1e2411aa","fields":{"nom_de_la_commune":"POULIGNY ST PIERRE","libell_d_acheminement":"POULIGNY ST PIERRE","code_postal":"36300","coordonnees_gps":[46.684081947,1.04652871345],"code_commune_insee":"36165"},"geometry":{"type":"Point","coordinates":[1.04652871345,46.684081947]},"record_timestamp":"2016-05-09T15:17:00+02:00"},{"datasetid":"laposte_hexasmal","recordid":"c15d9fd7ea78177a0888f710c8df1572ce67706d","fields":{"nom_de_la_commune":"PRUNIERS","libell_d_acheminement":"PRUNIERS","code_postal":"36120","coordonnees_gps":[46.7812910587,2.05837343794],"code_commune_insee":"36169"},"geometry":{"type":"Point","coordinates":[2.05837343794,46.7812910587]},"record_timestamp":"2016-05-09T15:17:00+02:00"},{"datasetid":"laposte_hexasmal","recordid":"4d99aaaff9436459ef4eaa2aec0ba41bdcbc2f4d","fields":{"nom_de_la_commune":"ROSNAY","libell_d_acheminement":"ROSNAY","code_postal":"36300","coordonnees_gps":[46.7081092632,1.20629298649],"code_commune_insee":"36173"},"geometry":{"type":"Point","coordinates":[1.20629298649,46.7081092632]},"record_timestamp":"2016-05-09T15:17:00+02:00"},{"datasetid":"laposte_hexasmal","recordid":"a59883ef4158243cbb581d871bb53b5e7936da7a","fields":{"nom_de_la_commune":"ST AIGNY","libell_d_acheminement":"ST AIGNY","code_postal":"36300","coordonnees_gps":[46.6332010189,1.00576918514],"code_commune_insee":"36178"},"geometry":{"type":"Point","coordinates":[1.00576918514,46.6332010189]},"record_timestamp":"2016-05-09T15:17:00+02:00"},{"datasetid":"laposte_hexasmal","recordid":"62a32bc7620608ecdb6fe8558f691069d7a4e783","fields":{"nom_de_la_commune":"ST LACTENCIN","libell_d_acheminement":"ST LACTENCIN","code_postal":"36500","coordonnees_gps":[46.8956769207,1.49717761772],"code_commune_insee":"36198"},"geometry":{"type":"Point","coordinates":[1.49717761772,46.8956769207]},"record_timestamp":"2016-05-09T15:17:00+02:00"},{"datasetid":"laposte_hexasmal","recordid":"328530d634d10ccf876b7123385f89bea7e389d4","fields":{"nom_de_la_commune":"ST PIERRE DE JARDS","libell_d_acheminement":"ST PIERRE DE JARDS","code_postal":"36260","coordonnees_gps":[47.1019578321,1.96965662578],"code_commune_insee":"36205"},"geometry":{"type":"Point","coordinates":[1.96965662578,47.1019578321]},"record_timestamp":"2016-05-09T15:17:00+02:00"},{"datasetid":"laposte_hexasmal","recordid":"6d20d34122f794ba11ef8916c577274b5bee5144","fields":{"nom_de_la_commune":"SASSIERGES ST GERMAIN","libell_d_acheminement":"SASSIERGES ST GERMAIN","code_postal":"36120","coordonnees_gps":[46.7550023432,1.89054741912],"code_commune_insee":"36211"},"geometry":{"type":"Point","coordinates":[1.89054741912,46.7550023432]},"record_timestamp":"2016-05-09T15:17:00+02:00"},{"datasetid":"laposte_hexasmal","recordid":"4bbe54b6127ab3cb69947d6f6608ab6142a183fc","fields":{"nom_de_la_commune":"SAULNAY","libell_d_acheminement":"SAULNAY","code_postal":"36290","coordonnees_gps":[46.8684293874,1.25671383741],"code_commune_insee":"36212"},"geometry":{"type":"Point","coordinates":[1.25671383741,46.8684293874]},"record_timestamp":"2016-05-09T15:17:00+02:00"},{"datasetid":"laposte_hexasmal","recordid":"4b23549664acc5b9180dc26cf6646c8262855d0a","fields":{"nom_de_la_commune":"SELLES SUR NAHON","libell_d_acheminement":"SELLES SUR NAHON","code_postal":"36180","coordonnees_gps":[47.0177325936,1.45548749764],"code_commune_insee":"36216"},"geometry":{"type":"Point","coordinates":[1.45548749764,47.0177325936]},"record_timestamp":"2016-05-09T15:17:00+02:00"},{"datasetid":"laposte_hexasmal","recordid":"2b4f30df0dc8c8a9f0c9e0caef29558e0db917bc","fields":{"nom_de_la_commune":"TENDU","libell_d_acheminement":"TENDU","code_postal":"36200","coordonnees_gps":[46.6521648275,1.56566205857],"code_commune_insee":"36219"},"geometry":{"type":"Point","coordinates":[1.56566205857,46.6521648275]},"record_timestamp":"2016-05-09T15:17:00+02:00"},{"datasetid":"laposte_hexasmal","recordid":"9277588b2c16382de5970633406d330aeed5c402","fields":{"code_postal":"36210","code_commune_insee":"36229","libell_d_acheminement":"VAL FOUZON","ligne_5":"PARPECAY","nom_de_la_commune":"VAL FOUZON","coordonnees_gps":[47.2049167423,1.59155940646]},"geometry":{"type":"Point","coordinates":[1.59155940646,47.2049167423]},"record_timestamp":"2016-05-09T15:17:00+02:00"},{"datasetid":"laposte_hexasmal","recordid":"667bc782a8ee4bc3c7b7a8c87d78b80d14cef03b","fields":{"code_postal":"36210","code_commune_insee":"36229","libell_d_acheminement":"VAL FOUZON","ligne_5":"VARENNES SUR FOUZON","nom_de_la_commune":"VAL FOUZON","coordonnees_gps":[47.2049167423,1.59155940646]},"geometry":{"type":"Point","coordinates":[1.59155940646,47.2049167423]},"record_timestamp":"2016-05-09T15:17:00+02:00"},{"datasetid":"laposte_hexasmal","recordid":"d014f6cbd33e3a61f1ab4df03b2afc532aa8f17e","fields":{"nom_de_la_commune":"VATAN","libell_d_acheminement":"VATAN","code_postal":"36150","coordonnees_gps":[47.0538873718,1.82531478025],"code_commune_insee":"36230"},"geometry":{"type":"Point","coordinates":[1.82531478025,47.0538873718]},"record_timestamp":"2016-05-09T15:17:00+02:00"},{"datasetid":"laposte_hexasmal","recordid":"3eb3b911792c01d8a21f8d3cdc2bb32445e46d5a","fields":{"nom_de_la_commune":"LA VERNELLE","libell_d_acheminement":"LA VERNELLE","code_postal":"36600","coordonnees_gps":[47.242881421,1.56367685749],"code_commune_insee":"36233"},"geometry":{"type":"Point","coordinates":[1.56367685749,47.242881421]},"record_timestamp":"2016-05-09T15:17:00+02:00"},{"datasetid":"laposte_hexasmal","recordid":"a92e9076fc7bcd50afe1649554e44426c96ed868","fields":{"nom_de_la_commune":"VICQ SUR NAHON","libell_d_acheminement":"VICQ SUR NAHON","code_postal":"36600","coordonnees_gps":[47.1002749222,1.55803357778],"code_commune_insee":"36237"},"geometry":{"type":"Point","coordinates":[1.55803357778,47.1002749222]},"record_timestamp":"2016-05-09T15:17:00+02:00"},{"datasetid":"laposte_hexasmal","recordid":"7707173142a23f687d1e4b8fc55b77967efffb1d","fields":{"nom_de_la_commune":"VIGOUX","libell_d_acheminement":"VIGOUX","code_postal":"36170","coordonnees_gps":[46.517396736,1.47441263851],"code_commune_insee":"36239"},"geometry":{"type":"Point","coordinates":[1.47441263851,46.517396736]},"record_timestamp":"2016-05-09T15:17:00+02:00"},{"datasetid":"laposte_hexasmal","recordid":"b2083d434bbab90dc58d1c6b5d69d9508712fb84","fields":{"nom_de_la_commune":"VOUILLON","libell_d_acheminement":"VOUILLON","code_postal":"36100","coordonnees_gps":[46.8199826355,1.9132066864],"code_commune_insee":"36248"},"geometry":{"type":"Point","coordinates":[1.9132066864,46.8199826355]},"record_timestamp":"2016-05-09T15:17:00+02:00"},{"datasetid":"laposte_hexasmal","recordid":"d803dc2f9521f716c756c84732292102e451def3","fields":{"nom_de_la_commune":"AIZE","libell_d_acheminement":"AIZE","code_postal":"36150","coordonnees_gps":[47.1078990064,1.70661723859],"code_commune_insee":"36002"},"geometry":{"type":"Point","coordinates":[1.70661723859,47.1078990064]},"record_timestamp":"2016-05-09T15:17:00+02:00"},{"datasetid":"laposte_hexasmal","recordid":"3771e2ef538c6f616863f5ba7e48e1e2f292ff63","fields":{"nom_de_la_commune":"ANJOUIN","libell_d_acheminement":"ANJOUIN","code_postal":"36210","coordonnees_gps":[47.2008943989,1.80745396051],"code_commune_insee":"36004"},"geometry":{"type":"Point","coordinates":[1.80745396051,47.2008943989]},"record_timestamp":"2016-05-09T15:17:00+02:00"},{"datasetid":"laposte_hexasmal","recordid":"fcc6b31eedc9fc80e19b9e271eaa29dce797854c","fields":{"nom_de_la_commune":"ARPHEUILLES","libell_d_acheminement":"ARPHEUILLES","code_postal":"36700","coordonnees_gps":[46.8997863068,1.27397966099],"code_commune_insee":"36008"},"geometry":{"type":"Point","coordinates":[1.27397966099,46.8997863068]},"record_timestamp":"2016-05-09T15:17:00+02:00"},{"datasetid":"laposte_hexasmal","recordid":"ef7e66e968548bfe58bc14dc60706abd4cd49dbf","fields":{"nom_de_la_commune":"BEAULIEU","libell_d_acheminement":"BEAULIEU","code_postal":"36310","coordonnees_gps":[46.3854812968,1.29760988524],"code_commune_insee":"36015"},"geometry":{"type":"Point","coordinates":[1.29760988524,46.3854812968]},"record_timestamp":"2016-05-09T15:17:00+02:00"},{"datasetid":"laposte_hexasmal","recordid":"9ed050e9c1fb75c30816d0041d9719d725cab8f6","fields":{"nom_de_la_commune":"BELABRE","libell_d_acheminement":"BELABRE","code_postal":"36370","coordonnees_gps":[46.5555750256,1.16199318259],"code_commune_insee":"36016"},"geometry":{"type":"Point","coordinates":[1.16199318259,46.5555750256]},"record_timestamp":"2016-05-09T15:17:00+02:00"},{"datasetid":"laposte_hexasmal","recordid":"2364a38a46de70987e84caead8ce823900850b66","fields":{"nom_de_la_commune":"BRETAGNE","libell_d_acheminement":"BRETAGNE","code_postal":"36110","coordonnees_gps":[46.999120025,1.69787130226],"code_commune_insee":"36024"},"geometry":{"type":"Point","coordinates":[1.69787130226,46.999120025]},"record_timestamp":"2016-05-09T15:17:00+02:00"},{"datasetid":"laposte_hexasmal","recordid":"463979e75edf5fee2bcb36af6ff141bcbdd6d573","fields":{"nom_de_la_commune":"BUXEUIL","libell_d_acheminement":"BUXEUIL","code_postal":"36150","coordonnees_gps":[47.1269218412,1.69487135534],"code_commune_insee":"36029"},"geometry":{"type":"Point","coordinates":[1.69487135534,47.1269218412]},"record_timestamp":"2016-05-09T15:17:00+02:00"},{"datasetid":"laposte_hexasmal","recordid":"3f182028399836d95591085f1f2c6c42f69fc6f4","fields":{"nom_de_la_commune":"CEAULMONT","libell_d_acheminement":"CEAULMONT","code_postal":"36200","coordonnees_gps":[46.5302709049,1.55681464943],"code_commune_insee":"36032"},"geometry":{"type":"Point","coordinates":[1.55681464943,46.5302709049]},"record_timestamp":"2016-05-09T15:17:00+02:00"},{"datasetid":"laposte_hexasmal","recordid":"bda5a924f5fcf489f672cbde32e05b91db2a6e3a","fields":{"nom_de_la_commune":"CHABRIS","libell_d_acheminement":"CHABRIS","code_postal":"36210","coordonnees_gps":[47.2519122488,1.66198740226],"code_commune_insee":"36034"},"geometry":{"type":"Point","coordinates":[1.66198740226,47.2519122488]},"record_timestamp":"2016-05-09T15:17:00+02:00"},{"datasetid":"laposte_hexasmal","recordid":"f015e4246b4f7ec61677117eb31ed8b4401604f1","fields":{"nom_de_la_commune":"CHAILLAC","libell_d_acheminement":"CHAILLAC","code_postal":"36310","coordonnees_gps":[46.4260014616,1.2915620907],"code_commune_insee":"36035"},"geometry":{"type":"Point","coordinates":[1.2915620907,46.4260014616]},"record_timestamp":"2016-05-09T15:17:00+02:00"},{"datasetid":"laposte_hexasmal","recordid":"43b48a567509517f175d90c84dd953aef8a3d3e6","fields":{"nom_de_la_commune":"CHAMPILLET","libell_d_acheminement":"CHAMPILLET","code_postal":"36160","coordonnees_gps":[46.5468094689,2.10739016471],"code_commune_insee":"36038"},"geometry":{"type":"Point","coordinates":[2.10739016471,46.5468094689]},"record_timestamp":"2016-05-09T15:17:00+02:00"},{"datasetid":"laposte_hexasmal","recordid":"76324fba26c99b67e65eb8c5d1c48767a0bb8f9a","fields":{"nom_de_la_commune":"CHITRAY","libell_d_acheminement":"CHITRAY","code_postal":"36800","coordonnees_gps":[46.6594985934,1.35961781194],"code_commune_insee":"36051"},"geometry":{"type":"Point","coordinates":[1.35961781194,46.6594985934]},"record_timestamp":"2016-05-09T15:17:00+02:00"},{"datasetid":"laposte_hexasmal","recordid":"09440183a37681b0f63ad8ccc6827a9088664a8b","fields":{"nom_de_la_commune":"DUNET","libell_d_acheminement":"DUNET","code_postal":"36310","coordonnees_gps":[46.4695171037,1.28603119899],"code_commune_insee":"36067"},"geometry":{"type":"Point","coordinates":[1.28603119899,46.4695171037]},"record_timestamp":"2016-05-09T15:17:00+02:00"},{"datasetid":"laposte_hexasmal","recordid":"a77d1907162da3f17fa3dc6c8ac2dc66750c72ac","fields":{"nom_de_la_commune":"FEUSINES","libell_d_acheminement":"FEUSINES","code_postal":"36160","coordonnees_gps":[46.5123371526,2.10013659358],"code_commune_insee":"36073"},"geometry":{"type":"Point","coordinates":[2.10013659358,46.5123371526]},"record_timestamp":"2016-05-09T15:17:00+02:00"},{"datasetid":"laposte_hexasmal","recordid":"b6d1cc4f4bc602221e06e1a592f3725910df2ce4","fields":{"nom_de_la_commune":"FRANCILLON","libell_d_acheminement":"FRANCILLON","code_postal":"36110","coordonnees_gps":[46.9464450461,1.55776812764],"code_commune_insee":"36079"},"geometry":{"type":"Point","coordinates":[1.55776812764,46.9464450461]},"record_timestamp":"2016-05-09T15:17:00+02:00"},{"datasetid":"laposte_hexasmal","recordid":"f5e587384ac50aa19f773f80e2f292ff4920393f","fields":{"nom_de_la_commune":"GOURNAY","libell_d_acheminement":"GOURNAY","code_postal":"36230","coordonnees_gps":[46.5963808086,1.73496195112],"code_commune_insee":"36084"},"geometry":{"type":"Point","coordinates":[1.73496195112,46.5963808086]},"record_timestamp":"2016-05-09T15:17:00+02:00"},{"datasetid":"laposte_hexasmal","recordid":"1fd82579a34b445c3c43a8348e452a50cbdfdd45","fields":{"nom_de_la_commune":"GUILLY","libell_d_acheminement":"GUILLY","code_postal":"36150","coordonnees_gps":[47.0854429758,1.73470769593],"code_commune_insee":"36085"},"geometry":{"type":"Point","coordinates":[1.73470769593,47.0854429758]},"record_timestamp":"2016-05-09T15:17:00+02:00"},{"datasetid":"laposte_hexasmal","recordid":"7ccab2412b5a44c83a24dd35c9c9bbb2b21e47ca","fields":{"nom_de_la_commune":"JEU MALOCHES","libell_d_acheminement":"JEU MALOCHES","code_postal":"36240","coordonnees_gps":[47.0475431378,1.44169166133],"code_commune_insee":"36090"},"geometry":{"type":"Point","coordinates":[1.44169166133,47.0475431378]},"record_timestamp":"2016-05-09T15:17:00+02:00"},{"datasetid":"laposte_hexasmal","recordid":"156a8131ac65ac18b0ca387cee61770d46e2b754","fields":{"nom_de_la_commune":"LACS","libell_d_acheminement":"LACS","code_postal":"36400","coordonnees_gps":[46.5913517222,2.03649976093],"code_commune_insee":"36091"},"geometry":{"type":"Point","coordinates":[2.03649976093,46.5913517222]},"record_timestamp":"2016-05-09T15:17:00+02:00"},{"datasetid":"laposte_hexasmal","recordid":"afe374e01c331f805089025fcff6f279e452ed18","fields":{"nom_de_la_commune":"LANGE","libell_d_acheminement":"LANGE","code_postal":"36600","coordonnees_gps":[47.0739529202,1.50748224415],"code_commune_insee":"36092"},"geometry":{"type":"Point","coordinates":[1.50748224415,47.0739529202]},"record_timestamp":"2016-05-09T15:17:00+02:00"},{"datasetid":"laposte_hexasmal","recordid":"a1fccac595bae8355990d1cce3e8520fc1220791","fields":{"nom_de_la_commune":"LIZERAY","libell_d_acheminement":"LIZERAY","code_postal":"36100","coordonnees_gps":[46.9850879886,1.9034021028],"code_commune_insee":"36098"},"geometry":{"type":"Point","coordinates":[1.9034021028,46.9850879886]},"record_timestamp":"2016-05-09T15:17:00+02:00"},{"datasetid":"laposte_hexasmal","recordid":"6adfe3ac210249996b6589966af313529bf5f0f4","fields":{"nom_de_la_commune":"LURAIS","libell_d_acheminement":"LURAIS","code_postal":"36220","coordonnees_gps":[46.6878513491,0.937216531821],"code_commune_insee":"36104"},"geometry":{"type":"Point","coordinates":[0.937216531821,46.6878513491]},"record_timestamp":"2016-05-09T15:17:00+02:00"},{"datasetid":"laposte_hexasmal","recordid":"1ecc4017d4527ad2a3b12a3f978e1e8c1c1aa498","fields":{"nom_de_la_commune":"LUREUIL","libell_d_acheminement":"LUREUIL","code_postal":"36220","coordonnees_gps":[46.7464715422,1.03810161496],"code_commune_insee":"36105"},"geometry":{"type":"Point","coordinates":[1.03810161496,46.7464715422]},"record_timestamp":"2016-05-09T15:17:00+02:00"},{"datasetid":"laposte_hexasmal","recordid":"a67d53506db74c3be34a83309b84f1133b9e6a7a","fields":{"nom_de_la_commune":"MARTIZAY","libell_d_acheminement":"MARTIZAY","code_postal":"36220","coordonnees_gps":[46.7999203381,1.03953209001],"code_commune_insee":"36113"},"geometry":{"type":"Point","coordinates":[1.03953209001,46.7999203381]},"record_timestamp":"2016-05-09T15:17:00+02:00"},{"datasetid":"laposte_hexasmal","recordid":"c34c79f7f531312d6bab3d3234e4de4942d2d982","fields":{"nom_de_la_commune":"MENETOU SUR NAHON","libell_d_acheminement":"MENETOU SUR NAHON","code_postal":"36210","coordonnees_gps":[47.2239556606,1.63663736153],"code_commune_insee":"36115"},"geometry":{"type":"Point","coordinates":[1.63663736153,47.2239556606]},"record_timestamp":"2016-05-09T15:17:00+02:00"},{"datasetid":"laposte_hexasmal","recordid":"889a990c0a2baf507159e8004308f4ad59df06b0","fields":{"nom_de_la_commune":"MIGNY","libell_d_acheminement":"MIGNY","code_postal":"36260","coordonnees_gps":[47.0162486536,2.05279742123],"code_commune_insee":"36125"},"geometry":{"type":"Point","coordinates":[2.05279742123,47.0162486536]},"record_timestamp":"2016-05-09T15:17:00+02:00"},{"datasetid":"laposte_hexasmal","recordid":"50681bb94c8f8816a1c4e7749ee39992737482de","fields":{"nom_de_la_commune":"MONTGIVRAY","libell_d_acheminement":"MONTGIVRAY","code_postal":"36400","coordonnees_gps":[46.5962273498,1.96629767733],"code_commune_insee":"36127"},"geometry":{"type":"Point","coordinates":[1.96629767733,46.5962273498]},"record_timestamp":"2016-05-09T15:17:00+02:00"},{"datasetid":"laposte_hexasmal","recordid":"8ba1b4990a8e4d5744e80dbece3a95d920c52f52","fields":{"nom_de_la_commune":"NERET","libell_d_acheminement":"NERET","code_postal":"36400","coordonnees_gps":[46.5724464938,2.14124450374],"code_commune_insee":"36138"},"geometry":{"type":"Point","coordinates":[2.14124450374,46.5724464938]},"record_timestamp":"2016-05-09T15:17:00+02:00"},{"datasetid":"laposte_hexasmal","recordid":"9870d9225b909cc0a12bcd1d56d23e7e09784de0","fields":{"nom_de_la_commune":"NOHANT VIC","libell_d_acheminement":"NOHANT VIC","code_postal":"36400","coordonnees_gps":[46.6401357121,1.95677952761],"code_commune_insee":"36143"},"geometry":{"type":"Point","coordinates":[1.95677952761,46.6401357121]},"record_timestamp":"2016-05-09T15:17:00+02:00"},{"datasetid":"laposte_hexasmal","recordid":"9c9ace113399d722461080c1788c1191ec1ab88a","fields":{"nom_de_la_commune":"PAUDY","libell_d_acheminement":"PAUDY","code_postal":"36260","coordonnees_gps":[47.0346681884,1.92029512181],"code_commune_insee":"36152"},"geometry":{"type":"Point","coordinates":[1.92029512181,47.0346681884]},"record_timestamp":"2016-05-09T15:17:00+02:00"},{"datasetid":"laposte_hexasmal","recordid":"800461f68c530b0429a1586838033acb848c8fed","fields":{"nom_de_la_commune":"LA PEROUILLE","libell_d_acheminement":"LA PEROUILLE","code_postal":"36350","coordonnees_gps":[46.7096405826,1.51526051031],"code_commune_insee":"36157"},"geometry":{"type":"Point","coordinates":[1.51526051031,46.7096405826]},"record_timestamp":"2016-05-09T15:17:00+02:00"},{"datasetid":"laposte_hexasmal","recordid":"64927987396188b2137492527d98eb587dbfd8fa","fields":{"nom_de_la_commune":"PREAUX","libell_d_acheminement":"PREAUX","code_postal":"36240","coordonnees_gps":[47.0305164797,1.30603010451],"code_commune_insee":"36166"},"geometry":{"type":"Point","coordinates":[1.30603010451,47.0305164797]},"record_timestamp":"2016-05-09T15:17:00+02:00"},{"datasetid":"laposte_hexasmal","recordid":"fcb2f2d8060d6ba944a53bdfce284e4ffc2870ae","fields":{"nom_de_la_commune":"PREUILLY LA VILLE","libell_d_acheminement":"PREUILLY LA VILLE","code_postal":"36220","coordonnees_gps":[46.6980523069,0.980437469492],"code_commune_insee":"36167"},"geometry":{"type":"Point","coordinates":[0.980437469492,46.6980523069]},"record_timestamp":"2016-05-09T15:17:00+02:00"},{"datasetid":"laposte_hexasmal","recordid":"23dea5ab02f3af38bc8499f5bd2e4339fb99bc7d","fields":{"nom_de_la_commune":"REBOURSIN","libell_d_acheminement":"REBOURSIN","code_postal":"36150","coordonnees_gps":[47.1082025361,1.81207985903],"code_commune_insee":"36170"},"geometry":{"type":"Point","coordinates":[1.81207985903,47.1082025361]},"record_timestamp":"2016-05-09T15:17:00+02:00"},{"datasetid":"laposte_hexasmal","recordid":"ab8f13cbe425474f3d0cd1a86e54eb0316e57e87","fields":{"nom_de_la_commune":"REUILLY","libell_d_acheminement":"REUILLY","code_postal":"36260","coordonnees_gps":[47.080059286,2.01080444481],"code_commune_insee":"36171"},"geometry":{"type":"Point","coordinates":[2.01080444481,47.080059286]},"record_timestamp":"2016-05-09T15:17:00+02:00"},{"datasetid":"laposte_hexasmal","recordid":"51af1a15aeefc2644b5def2c0519dcd7b1cf20a0","fields":{"nom_de_la_commune":"ST CHRISTOPHE EN BAZELLE","libell_d_acheminement":"ST CHRISTOPHE EN BAZELLE","code_postal":"36210","coordonnees_gps":[47.1875900989,1.71219457331],"code_commune_insee":"36185"},"geometry":{"type":"Point","coordinates":[1.71219457331,47.1875900989]},"record_timestamp":"2016-05-09T15:17:00+02:00"},{"datasetid":"laposte_hexasmal","recordid":"f2b89089f84710d6d3d226215855d1bdec6def95","fields":{"nom_de_la_commune":"ST CHRISTOPHE EN BOUCHERIE","libell_d_acheminement":"ST CHRISTOPHE EN BOUCHERIE","code_postal":"36400","coordonnees_gps":[46.6796859188,2.11586073047],"code_commune_insee":"36186"},"geometry":{"type":"Point","coordinates":[2.11586073047,46.6796859188]},"record_timestamp":"2016-05-09T15:17:00+02:00"},{"datasetid":"laposte_hexasmal","recordid":"80e42fb18081aae13e30a987143dbd1eed3805a9","fields":{"nom_de_la_commune":"STE FAUSTE","libell_d_acheminement":"STE FAUSTE","code_postal":"36100","coordonnees_gps":[46.8545598385,1.87113964602],"code_commune_insee":"36190"},"geometry":{"type":"Point","coordinates":[1.87113964602,46.8545598385]},"record_timestamp":"2016-05-09T15:17:00+02:00"},{"datasetid":"laposte_hexasmal","recordid":"da299bffd37b435789806cad45bbaf08fd9ac005","fields":{"nom_de_la_commune":"ST GENOU","libell_d_acheminement":"ST GENOU","code_postal":"36500","coordonnees_gps":[46.911791678,1.3504650552],"code_commune_insee":"36194"},"geometry":{"type":"Point","coordinates":[1.3504650552,46.911791678]},"record_timestamp":"2016-05-09T15:17:00+02:00"},{"datasetid":"laposte_hexasmal","recordid":"b982bfa84dbb92bbab213a3cfad213e6e67d06a2","fields":{"nom_de_la_commune":"ST GEORGES SUR ARNON","libell_d_acheminement":"ST GEORGES SUR ARNON","code_postal":"36100","coordonnees_gps":[46.9864324213,2.06490343076],"code_commune_insee":"36195"},"geometry":{"type":"Point","coordinates":[2.06490343076,46.9864324213]},"record_timestamp":"2016-05-09T15:17:00+02:00"},{"datasetid":"laposte_hexasmal","recordid":"db49bf3551e50c2824751048ce7991eb824ca645","fields":{"nom_de_la_commune":"ST HILAIRE SUR BENAIZE","libell_d_acheminement":"ST HILAIRE SUR BENAIZE","code_postal":"36370","coordonnees_gps":[46.5569306116,1.06674152425],"code_commune_insee":"36197"},"geometry":{"type":"Point","coordinates":[1.06674152425,46.5569306116]},"record_timestamp":"2016-05-09T15:17:00+02:00"},{"datasetid":"laposte_hexasmal","recordid":"f8cd031acb58a454f63ed4626818beade46509ab","fields":{"code_postal":"36250","code_commune_insee":"36202","libell_d_acheminement":"ST MAUR","ligne_5":"VILLERS LES ORMES","nom_de_la_commune":"ST MAUR","coordonnees_gps":[46.7890918907,1.62343965566]},"geometry":{"type":"Point","coordinates":[1.62343965566,46.7890918907]},"record_timestamp":"2016-05-09T15:17:00+02:00"},{"datasetid":"laposte_hexasmal","recordid":"f124220e187c40a11359ee86f4131c9af5bac342","fields":{"nom_de_la_commune":"ST MEDARD","libell_d_acheminement":"ST MEDARD","code_postal":"36700","coordonnees_gps":[47.0052566616,1.26515419638],"code_commune_insee":"36203"},"geometry":{"type":"Point","coordinates":[1.26515419638,47.0052566616]},"record_timestamp":"2016-05-09T15:17:00+02:00"},{"datasetid":"laposte_hexasmal","recordid":"36b4d09e6ac3e045dcf77fa7441054f6574ec83c","fields":{"nom_de_la_commune":"ST PIERRE DE LAMPS","libell_d_acheminement":"ST PIERRE DE LAMPS","code_postal":"36110","coordonnees_gps":[46.9680272917,1.51403453465],"code_commune_insee":"36206"},"geometry":{"type":"Point","coordinates":[1.51403453465,46.9680272917]},"record_timestamp":"2016-05-09T15:17:00+02:00"},{"datasetid":"laposte_hexasmal","recordid":"4baad4ff02ab0b7d273f8c8302d29f468584a53d","fields":{"nom_de_la_commune":"TILLY","libell_d_acheminement":"TILLY","code_postal":"36310","coordonnees_gps":[46.4050751872,1.21140507428],"code_commune_insee":"36223"},"geometry":{"type":"Point","coordinates":[1.21140507428,46.4050751872]},"record_timestamp":"2016-05-09T15:17:00+02:00"},{"datasetid":"laposte_hexasmal","recordid":"1d9adf32b53704df59e5008287b6ca711c9ac146","fields":{"nom_de_la_commune":"VEUIL","libell_d_acheminement":"VEUIL","code_postal":"36600","coordonnees_gps":[47.1325742708,1.50980110531],"code_commune_insee":"36235"},"geometry":{"type":"Point","coordinates":[1.50980110531,47.1325742708]},"record_timestamp":"2016-05-09T15:17:00+02:00"},{"datasetid":"laposte_hexasmal","recordid":"bfa72f3d911d3bc0537806cfc5a929cefb63dee1","fields":{"nom_de_la_commune":"VICQ EXEMPLET","libell_d_acheminement":"VICQ EXEMPLET","code_postal":"36400","coordonnees_gps":[46.6210252622,2.14341177341],"code_commune_insee":"36236"},"geometry":{"type":"Point","coordinates":[2.14341177341,46.6210252622]},"record_timestamp":"2016-05-09T15:17:00+02:00"},{"datasetid":"laposte_hexasmal","recordid":"5c1642a054c01f1cba40c50d21166e6fece9de48","fields":{"nom_de_la_commune":"VIGOULANT","libell_d_acheminement":"VIGOULANT","code_postal":"36160","coordonnees_gps":[46.4389739269,2.08397250932],"code_commune_insee":"36238"},"geometry":{"type":"Point","coordinates":[2.08397250932,46.4389739269]},"record_timestamp":"2016-05-09T15:17:00+02:00"},{"datasetid":"laposte_hexasmal","recordid":"a0b59c5ab7cc1c1cb08e125a376065172abc3698","fields":{"nom_de_la_commune":"BAZAIGES","libell_d_acheminement":"BAZAIGES","code_postal":"36270","coordonnees_gps":[46.4844280424,1.5276226501],"code_commune_insee":"36014"},"geometry":{"type":"Point","coordinates":[1.5276226501,46.4844280424]},"record_timestamp":"2016-05-09T15:17:00+02:00"},{"datasetid":"laposte_hexasmal","recordid":"8af8173a51ff8f1b484307d6d35fbba6bbfd5338","fields":{"nom_de_la_commune":"BOMMIERS","libell_d_acheminement":"BOMMIERS","code_postal":"36120","coordonnees_gps":[46.7799451256,2.00352346772],"code_commune_insee":"36019"},"geometry":{"type":"Point","coordinates":[2.00352346772,46.7799451256]},"record_timestamp":"2016-05-09T15:17:00+02:00"},{"datasetid":"laposte_hexasmal","recordid":"6792d6a3ed1ed1801958ccb6d9bb5902566fceb6","fields":{"nom_de_la_commune":"BONNEUIL","libell_d_acheminement":"BONNEUIL","code_postal":"36310","coordonnees_gps":[46.3833216056,1.24155343607],"code_commune_insee":"36020"},"geometry":{"type":"Point","coordinates":[1.24155343607,46.3833216056]},"record_timestamp":"2016-05-09T15:17:00+02:00"},{"datasetid":"laposte_hexasmal","recordid":"d780dc290b2e55d05932459e7e17477d390c5206","fields":{"nom_de_la_commune":"BUZANCAIS","libell_d_acheminement":"BUZANCAIS","code_postal":"36500","coordonnees_gps":[46.8875380464,1.41254913131],"code_commune_insee":"36031"},"geometry":{"type":"Point","coordinates":[1.41254913131,46.8875380464]},"record_timestamp":"2016-05-09T15:17:00+02:00"},{"datasetid":"laposte_hexasmal","recordid":"222517f0bb7f6cc0bb4e844dc045fcdd201cbe1a","fields":{"nom_de_la_commune":"CHASSENEUIL","libell_d_acheminement":"CHASSENEUIL","code_postal":"36800","coordonnees_gps":[46.6570647712,1.49349614849],"code_commune_insee":"36042"},"geometry":{"type":"Point","coordinates":[1.49349614849,46.6570647712]},"record_timestamp":"2016-05-09T15:17:00+02:00"},{"datasetid":"laposte_hexasmal","recordid":"ee2552b30baa7595aaa85741370360e1c536f20a","fields":{"nom_de_la_commune":"CHAZELET","libell_d_acheminement":"CHAZELET","code_postal":"36170","coordonnees_gps":[46.5082146993,1.43370852289],"code_commune_insee":"36049"},"geometry":{"type":"Point","coordinates":[1.43370852289,46.5082146993]},"record_timestamp":"2016-05-09T15:17:00+02:00"},{"datasetid":"laposte_hexasmal","recordid":"acc6715047d7543e5136e9dcc343234cc57e2b37","fields":{"nom_de_la_commune":"CIRON","libell_d_acheminement":"CIRON","code_postal":"36300","coordonnees_gps":[46.6323391701,1.26102864126],"code_commune_insee":"36053"},"geometry":{"type":"Point","coordinates":[1.26102864126,46.6323391701]},"record_timestamp":"2016-05-09T15:17:00+02:00"},{"datasetid":"laposte_hexasmal","recordid":"df8a9c6cfdf0443f0826893c128870d02ba25901","fields":{"code_postal":"36300","code_commune_insee":"36053","libell_d_acheminement":"CIRON","ligne_5":"SCOURY","nom_de_la_commune":"CIRON","coordonnees_gps":[46.6323391701,1.26102864126]},"geometry":{"type":"Point","coordinates":[1.26102864126,46.6323391701]},"record_timestamp":"2016-05-09T15:17:00+02:00"},{"datasetid":"laposte_hexasmal","recordid":"6f7b31f11cf2271ac660a528cabcecac73e16b87","fields":{"nom_de_la_commune":"CLERE DU BOIS","libell_d_acheminement":"CLERE DU BOIS","code_postal":"36700","coordonnees_gps":[46.9425971085,1.10231213946],"code_commune_insee":"36054"},"geometry":{"type":"Point","coordinates":[1.10231213946,46.9425971085]},"record_timestamp":"2016-05-09T15:17:00+02:00"},{"datasetid":"laposte_hexasmal","recordid":"12a1ca3fe42df73ab833b27695ae7ce153606b19","fields":{"nom_de_la_commune":"CLUIS","libell_d_acheminement":"CLUIS","code_postal":"36340","coordonnees_gps":[46.5352767635,1.74340331959],"code_commune_insee":"36056"},"geometry":{"type":"Point","coordinates":[1.74340331959,46.5352767635]},"record_timestamp":"2016-05-09T15:17:00+02:00"},{"datasetid":"laposte_hexasmal","recordid":"a7d83e1e1437ceb345335ac74518e701907f2ce5","fields":{"nom_de_la_commune":"COINGS","libell_d_acheminement":"COINGS","code_postal":"36130","coordonnees_gps":[46.8840276605,1.72143917623],"code_commune_insee":"36057"},"geometry":{"type":"Point","coordinates":[1.72143917623,46.8840276605]},"record_timestamp":"2016-05-09T15:17:00+02:00"},{"datasetid":"laposte_hexasmal","recordid":"812314cd058a4b5e98e5f90d9749bfd331950560","fields":{"nom_de_la_commune":"DEOLS","libell_d_acheminement":"DEOLS","code_postal":"36130","coordonnees_gps":[46.8403192166,1.70244266478],"code_commune_insee":"36063"},"geometry":{"type":"Point","coordinates":[1.70244266478,46.8403192166]},"record_timestamp":"2016-05-09T15:17:00+02:00"},{"datasetid":"laposte_hexasmal","recordid":"4b5f0c4d54b29d4b66a1fa20fd9c6164bed948b3","fields":{"nom_de_la_commune":"DOUADIC","libell_d_acheminement":"DOUADIC","code_postal":"36300","coordonnees_gps":[46.7039740517,1.1179251996],"code_commune_insee":"36066"},"geometry":{"type":"Point","coordinates":[1.1179251996,46.7039740517]},"record_timestamp":"2016-05-09T15:17:00+02:00"},{"datasetid":"laposte_hexasmal","recordid":"196f84f1a0a7e9ef2cccbba3b78b664875f6afcc","fields":{"nom_de_la_commune":"ECUEILLE","libell_d_acheminement":"ECUEILLE","code_postal":"36240","coordonnees_gps":[47.0772111869,1.35366792893],"code_commune_insee":"36069"},"geometry":{"type":"Point","coordinates":[1.35366792893,47.0772111869]},"record_timestamp":"2016-05-09T15:17:00+02:00"},{"datasetid":"laposte_hexasmal","recordid":"567e53e1e9286fff7647ffe119dcd51e78eb1f7f","fields":{"nom_de_la_commune":"EGUZON CHANTOME","libell_d_acheminement":"EGUZON CHANTOME","code_postal":"36270","coordonnees_gps":[46.4342273236,1.56931280113],"code_commune_insee":"36070"},"geometry":{"type":"Point","coordinates":[1.56931280113,46.4342273236]},"record_timestamp":"2016-05-09T15:17:00+02:00"},{"datasetid":"laposte_hexasmal","recordid":"c3661be846785c12ab4c7fa9de53abc24d4953d0","fields":{"code_postal":"36270","code_commune_insee":"36070","libell_d_acheminement":"EGUZON CHANTOME","ligne_5":"CHANTOME","nom_de_la_commune":"EGUZON CHANTOME","coordonnees_gps":[46.4342273236,1.56931280113]},"geometry":{"type":"Point","coordinates":[1.56931280113,46.4342273236]},"record_timestamp":"2016-05-09T15:17:00+02:00"},{"datasetid":"laposte_hexasmal","recordid":"58c02c1c244972419e2a23adba066d99e58c40a1","fields":{"nom_de_la_commune":"ETRECHET","libell_d_acheminement":"ETRECHET","code_postal":"36120","coordonnees_gps":[46.7926466693,1.77773981101],"code_commune_insee":"36071"},"geometry":{"type":"Point","coordinates":[1.77773981101,46.7926466693]},"record_timestamp":"2016-05-09T15:17:00+02:00"},{"datasetid":"laposte_hexasmal","recordid":"05cfcaf98250d09194ccb78e9f8110c59d751402","fields":{"nom_de_la_commune":"FONTENAY","libell_d_acheminement":"FONTENAY","code_postal":"36150","coordonnees_gps":[47.0542552682,1.74236009323],"code_commune_insee":"36075"},"geometry":{"type":"Point","coordinates":[1.74236009323,47.0542552682]},"record_timestamp":"2016-05-09T15:17:00+02:00"},{"datasetid":"laposte_hexasmal","recordid":"ce084cb62d55fd28cb70b4e2e69efca9c66b0593","fields":{"nom_de_la_commune":"FONTGOMBAULT","libell_d_acheminement":"FONTGOMBAULT","code_postal":"36220","coordonnees_gps":[46.6744006653,0.971856321083],"code_commune_insee":"36076"},"geometry":{"type":"Point","coordinates":[0.971856321083,46.6744006653]},"record_timestamp":"2016-05-09T15:17:00+02:00"},{"datasetid":"laposte_hexasmal","recordid":"509088470689b3a0a53b9390c3c65dedb81d1f2b","fields":{"nom_de_la_commune":"GARGILESSE DAMPIERRE","libell_d_acheminement":"GARGILESSE DAMPIERRE","code_postal":"36190","coordonnees_gps":[46.5053300669,1.62060670843],"code_commune_insee":"36081"},"geometry":{"type":"Point","coordinates":[1.62060670843,46.5053300669]},"record_timestamp":"2016-05-09T15:17:00+02:00"},{"datasetid":"laposte_hexasmal","recordid":"07f7a1f7036413ef508032b26e62ebd3b1558084","fields":{"nom_de_la_commune":"GIROUX","libell_d_acheminement":"GIROUX","code_postal":"36150","coordonnees_gps":[47.0650697963,1.90667075271],"code_commune_insee":"36083"},"geometry":{"type":"Point","coordinates":[1.90667075271,47.0650697963]},"record_timestamp":"2016-05-09T15:17:00+02:00"},{"datasetid":"laposte_hexasmal","recordid":"23c1d7c91fcd032a13c4341900efa8f93ef1d618","fields":{"nom_de_la_commune":"LEVROUX","libell_d_acheminement":"LEVROUX","code_postal":"36110","coordonnees_gps":[46.9727032392,1.63027138239],"code_commune_insee":"36093"},"geometry":{"type":"Point","coordinates":[1.63027138239,46.9727032392]},"record_timestamp":"2016-05-09T15:17:00+02:00"},{"datasetid":"laposte_hexasmal","recordid":"8c70436a36cad64e0cc41b219a914cd31ca01bdc","fields":{"nom_de_la_commune":"LIGNEROLLES","libell_d_acheminement":"LIGNEROLLES","code_postal":"36160","coordonnees_gps":[46.50077688,2.16356266069],"code_commune_insee":"36095"},"geometry":{"type":"Point","coordinates":[2.16356266069,46.50077688]},"record_timestamp":"2016-05-09T15:17:00+02:00"},{"datasetid":"laposte_hexasmal","recordid":"2357f1c52c157401a5c26830416d371a88f8f968","fields":{"nom_de_la_commune":"LINGE","libell_d_acheminement":"LINGE","code_postal":"36220","coordonnees_gps":[46.7553232246,1.11330278718],"code_commune_insee":"36096"},"geometry":{"type":"Point","coordinates":[1.11330278718,46.7553232246]},"record_timestamp":"2016-05-09T15:17:00+02:00"},{"datasetid":"laposte_hexasmal","recordid":"a44724a8b262495b102c44b39f347788280db4ec","fields":{"nom_de_la_commune":"LUCAY LE MALE","libell_d_acheminement":"LUCAY LE MALE","code_postal":"36360","coordonnees_gps":[47.1147802667,1.42699842882],"code_commune_insee":"36103"},"geometry":{"type":"Point","coordinates":[1.42699842882,47.1147802667]},"record_timestamp":"2016-05-09T15:17:00+02:00"},{"datasetid":"laposte_hexasmal","recordid":"69fada38ab36bb0f29962cf049c5d0c07be3e91b","fields":{"nom_de_la_commune":"MEOBECQ","libell_d_acheminement":"MEOBECQ","code_postal":"36500","coordonnees_gps":[46.741999261,1.41358055071],"code_commune_insee":"36118"},"geometry":{"type":"Point","coordinates":[1.41358055071,46.741999261]},"record_timestamp":"2016-05-09T15:17:00+02:00"},{"datasetid":"laposte_hexasmal","recordid":"ac0002ad129f9e41d664c5fdc81f3fb6fcb458bf","fields":{"nom_de_la_commune":"MEUNET PLANCHES","libell_d_acheminement":"MEUNET PLANCHES","code_postal":"36100","coordonnees_gps":[46.84026848,1.97384087757],"code_commune_insee":"36121"},"geometry":{"type":"Point","coordinates":[1.97384087757,46.84026848]},"record_timestamp":"2016-05-09T15:17:00+02:00"},{"datasetid":"laposte_hexasmal","recordid":"22967d95c5fbbc2dc3279feab21cba6d0da5bd2f","fields":{"nom_de_la_commune":"MEUNET SUR VATAN","libell_d_acheminement":"MEUNET SUR VATAN","code_postal":"36150","coordonnees_gps":[47.0914736081,1.8594546964],"code_commune_insee":"36122"},"geometry":{"type":"Point","coordinates":[1.8594546964,47.0914736081]},"record_timestamp":"2016-05-09T15:17:00+02:00"},{"datasetid":"laposte_hexasmal","recordid":"506d3e9e508eb5ee6b5e38dcce06dd6c274eceb9","fields":{"nom_de_la_commune":"MEZIERES EN BRENNE","libell_d_acheminement":"MEZIERES EN BRENNE","code_postal":"36290","coordonnees_gps":[46.8120642094,1.25669191407],"code_commune_insee":"36123"},"geometry":{"type":"Point","coordinates":[1.25669191407,46.8120642094]},"record_timestamp":"2016-05-09T15:17:00+02:00"},{"datasetid":"laposte_hexasmal","recordid":"81dc29ba10de5b4ce592e05e59b32bc7d420a417","fields":{"nom_de_la_commune":"MONTCHEVRIER","libell_d_acheminement":"MONTCHEVRIER","code_postal":"36140","coordonnees_gps":[46.4789542772,1.75403274632],"code_commune_insee":"36126"},"geometry":{"type":"Point","coordinates":[1.75403274632,46.4789542772]},"record_timestamp":"2016-05-09T15:17:00+02:00"},{"datasetid":"laposte_hexasmal","recordid":"977ed7d5240fdf118ee5c67c2171b3362f39a429","fields":{"nom_de_la_commune":"LA MOTTE FEUILLY","libell_d_acheminement":"LA MOTTE FEUILLY","code_postal":"36160","coordonnees_gps":[46.5478040001,2.07378782307],"code_commune_insee":"36132"},"geometry":{"type":"Point","coordinates":[2.07378782307,46.5478040001]},"record_timestamp":"2016-05-09T15:17:00+02:00"},{"datasetid":"laposte_hexasmal","recordid":"b9cc7103e4f83e92eefc1e4e5909e4f8a7b211a9","fields":{"nom_de_la_commune":"MOUHERS","libell_d_acheminement":"MOUHERS","code_postal":"36340","coordonnees_gps":[46.5633034226,1.77994822174],"code_commune_insee":"36133"},"geometry":{"type":"Point","coordinates":[1.77994822174,46.5633034226]},"record_timestamp":"2016-05-09T15:17:00+02:00"},{"datasetid":"laposte_hexasmal","recordid":"cd49aac662e3b0cb634078950f6b65984696a2dd","fields":{"nom_de_la_commune":"NEUILLAY LES BOIS","libell_d_acheminement":"NEUILLAY LES BOIS","code_postal":"36500","coordonnees_gps":[46.7623476722,1.4785357393],"code_commune_insee":"36139"},"geometry":{"type":"Point","coordinates":[1.4785357393,46.7623476722]},"record_timestamp":"2016-05-09T15:17:00+02:00"},{"datasetid":"laposte_hexasmal","recordid":"1b506fabba4ed5f5c409e4406709b898a18da1d7","fields":{"nom_de_la_commune":"ORVILLE","libell_d_acheminement":"ORVILLE","code_postal":"36210","coordonnees_gps":[47.1433950802,1.77650851914],"code_commune_insee":"36147"},"geometry":{"type":"Point","coordinates":[1.77650851914,47.1433950802]},"record_timestamp":"2016-05-09T15:17:00+02:00"},{"datasetid":"laposte_hexasmal","recordid":"ff6a428a345fb9f93b7665595c8fa9769c3ba088","fields":{"nom_de_la_commune":"OULCHES","libell_d_acheminement":"OULCHES","code_postal":"36800","coordonnees_gps":[46.6025646156,1.31003931373],"code_commune_insee":"36148"},"geometry":{"type":"Point","coordinates":[1.31003931373,46.6025646156]},"record_timestamp":"2016-05-09T15:17:00+02:00"},{"datasetid":"laposte_hexasmal","recordid":"512518f302ff83f27c7b97ba6f7ef1b1a4c66daa","fields":{"nom_de_la_commune":"PAULNAY","libell_d_acheminement":"PAULNAY","code_postal":"36290","coordonnees_gps":[46.8615135571,1.14964344922],"code_commune_insee":"36153"},"geometry":{"type":"Point","coordinates":[1.14964344922,46.8615135571]},"record_timestamp":"2016-05-09T15:17:00+02:00"},{"datasetid":"laposte_hexasmal","recordid":"ebbfbe555f063f37dea2293c354222a0283d53b1","fields":{"nom_de_la_commune":"POULAINES","libell_d_acheminement":"POULAINES","code_postal":"36210","coordonnees_gps":[47.1498063168,1.64502006889],"code_commune_insee":"36162"},"geometry":{"type":"Point","coordinates":[1.64502006889,47.1498063168]},"record_timestamp":"2016-05-09T15:17:00+02:00"},{"datasetid":"laposte_hexasmal","recordid":"6098350741126a61f8dd2330a435b925dbcd8210","fields":{"nom_de_la_commune":"ROUSSINES","libell_d_acheminement":"ROUSSINES","code_postal":"36170","coordonnees_gps":[46.4618536752,1.37726376805],"code_commune_insee":"36174"},"geometry":{"type":"Point","coordinates":[1.37726376805,46.4618536752]},"record_timestamp":"2016-05-09T15:17:00+02:00"},{"datasetid":"laposte_hexasmal","recordid":"4f12e574aa743e9560c6a023c0a8bd008311c94a","fields":{"nom_de_la_commune":"RUFFEC","libell_d_acheminement":"RUFFEC","code_postal":"36300","coordonnees_gps":[46.6238195664,1.1836718516],"code_commune_insee":"36176"},"geometry":{"type":"Point","coordinates":[1.1836718516,46.6238195664]},"record_timestamp":"2016-05-09T15:17:00+02:00"},{"datasetid":"laposte_hexasmal","recordid":"8626fec41ad25ecff42fc46e087e24318ed316fc","fields":{"nom_de_la_commune":"SACIERGES ST MARTIN","libell_d_acheminement":"SACIERGES ST MARTIN","code_postal":"36170","coordonnees_gps":[46.5020933544,1.3636862665],"code_commune_insee":"36177"},"geometry":{"type":"Point","coordinates":[1.3636862665,46.5020933544]},"record_timestamp":"2016-05-09T15:17:00+02:00"},{"datasetid":"laposte_hexasmal","recordid":"f1fc1bfaf205fc12da4c528a58c113c0a22defbc","fields":{"nom_de_la_commune":"ST AOUT","libell_d_acheminement":"ST AOUT","code_postal":"36120","coordonnees_gps":[46.7258764894,1.96323578512],"code_commune_insee":"36180"},"geometry":{"type":"Point","coordinates":[1.96323578512,46.7258764894]},"record_timestamp":"2016-05-09T15:17:00+02:00"},{"datasetid":"laposte_hexasmal","recordid":"28b5815f10b136d68eab3215afb575980051c964","fields":{"nom_de_la_commune":"ST BENOIT DU SAULT","libell_d_acheminement":"ST BENOIT DU SAULT","code_postal":"36170","coordonnees_gps":[46.4476641903,1.39936861789],"code_commune_insee":"36182"},"geometry":{"type":"Point","coordinates":[1.39936861789,46.4476641903]},"record_timestamp":"2016-05-09T15:17:00+02:00"},{"datasetid":"laposte_hexasmal","recordid":"2acdaee6ac2ecdc34b3a74bbcac15443fb87219d","fields":{"nom_de_la_commune":"ST FLORENTIN","libell_d_acheminement":"ST FLORENTIN","code_postal":"36150","coordonnees_gps":[47.0986279649,1.77918217074],"code_commune_insee":"36191"},"geometry":{"type":"Point","coordinates":[1.77918217074,47.0986279649]},"record_timestamp":"2016-05-09T15:17:00+02:00"},{"datasetid":"laposte_hexasmal","recordid":"21f9a2dc981dd89752c5fa24ea5e24706c4ebca6","fields":{"nom_de_la_commune":"STE GEMME","libell_d_acheminement":"STE GEMME","code_postal":"36500","coordonnees_gps":[46.8595428398,1.33333500724],"code_commune_insee":"36193"},"geometry":{"type":"Point","coordinates":[1.33333500724,46.8595428398]},"record_timestamp":"2016-05-09T15:17:00+02:00"},{"datasetid":"laposte_hexasmal","recordid":"b7dc9bcb238f10101184553f9e1ac684780e18d7","fields":{"nom_de_la_commune":"STE LIZAIGNE","libell_d_acheminement":"STE LIZAIGNE","code_postal":"36260","coordonnees_gps":[47.0110071957,1.99544056226],"code_commune_insee":"36199"},"geometry":{"type":"Point","coordinates":[1.99544056226,47.0110071957]},"record_timestamp":"2016-05-09T15:17:00+02:00"},{"datasetid":"laposte_hexasmal","recordid":"36140ff4648375806d495b5347c42a445e5d0043","fields":{"nom_de_la_commune":"ST PLANTAIRE","libell_d_acheminement":"ST PLANTAIRE","code_postal":"36190","coordonnees_gps":[46.432132753,1.64824478911],"code_commune_insee":"36207"},"geometry":{"type":"Point","coordinates":[1.64824478911,46.432132753]},"record_timestamp":"2016-05-09T15:17:00+02:00"},{"datasetid":"laposte_hexasmal","recordid":"d595d95497f12aab6dbce7df47b9f0bc226f77ba","fields":{"nom_de_la_commune":"SAUZELLES","libell_d_acheminement":"SAUZELLES","code_postal":"36220","coordonnees_gps":[46.6542476574,0.985473920463],"code_commune_insee":"36213"},"geometry":{"type":"Point","coordinates":[0.985473920463,46.6542476574]},"record_timestamp":"2016-05-09T15:17:00+02:00"},{"datasetid":"laposte_hexasmal","recordid":"b506f35848adaa5ef80e4c2c1b6fb591fc294f34","fields":{"nom_de_la_commune":"THENAY","libell_d_acheminement":"THENAY","code_postal":"36800","coordonnees_gps":[46.5948540817,1.42889771052],"code_commune_insee":"36220"},"geometry":{"type":"Point","coordinates":[1.42889771052,46.5948540817]},"record_timestamp":"2016-05-09T15:17:00+02:00"},{"datasetid":"laposte_hexasmal","recordid":"2e12c76f898db31fe1d93523b3de8dc0d0c3977a","fields":{"nom_de_la_commune":"LE TRANGER","libell_d_acheminement":"LE TRANGER","code_postal":"36700","coordonnees_gps":[46.9730217907,1.24675037798],"code_commune_insee":"36225"},"geometry":{"type":"Point","coordinates":[1.24675037798,46.9730217907]},"record_timestamp":"2016-05-09T15:17:00+02:00"},{"datasetid":"laposte_hexasmal","recordid":"04f98dc24da4647224e0192342451e663f1f8dc9","fields":{"nom_de_la_commune":"VILLEDIEU SUR INDRE","libell_d_acheminement":"VILLEDIEU SUR INDRE","code_postal":"36320","coordonnees_gps":[46.8446125894,1.51599368144],"code_commune_insee":"36241"},"geometry":{"type":"Point","coordinates":[1.51599368144,46.8446125894]},"record_timestamp":"2016-05-09T15:17:00+02:00"},{"datasetid":"laposte_hexasmal","recordid":"bea78e138772a5a2c44e8045eb036973bfdcb1f7","fields":{"nom_de_la_commune":"VILLEGOUIN","libell_d_acheminement":"VILLEGOUIN","code_postal":"36500","coordonnees_gps":[46.9735557689,1.35589306474],"code_commune_insee":"36243"},"geometry":{"type":"Point","coordinates":[1.35589306474,46.9735557689]},"record_timestamp":"2016-05-09T15:17:00+02:00"},{"datasetid":"laposte_hexasmal","recordid":"23db2b706504ace1e0335e88cb5dec8bc0849284","fields":{"nom_de_la_commune":"VILLENTROIS","libell_d_acheminement":"VILLENTROIS","code_postal":"36600","coordonnees_gps":[47.1877948714,1.45972969397],"code_commune_insee":"36244"},"geometry":{"type":"Point","coordinates":[1.45972969397,47.1877948714]},"record_timestamp":"2016-05-09T15:17:00+02:00"},{"datasetid":"laposte_hexasmal","recordid":"d0b3eb9960dcaf5f58c9efd0ce6968605e3a3f7f","fields":{"nom_de_la_commune":"VILLIERS","libell_d_acheminement":"VILLIERS","code_postal":"36290","coordonnees_gps":[46.8845013105,1.19883846025],"code_commune_insee":"36246"},"geometry":{"type":"Point","coordinates":[1.19883846025,46.8845013105]},"record_timestamp":"2016-05-09T15:17:00+02:00"},{"datasetid":"laposte_hexasmal","recordid":"17d2d973ad2fe576dd2139a58daffa0c49efa913","fields":{"nom_de_la_commune":"VINEUIL","libell_d_acheminement":"VINEUIL","code_postal":"36110","coordonnees_gps":[46.9074666618,1.65377312715],"code_commune_insee":"36247"},"geometry":{"type":"Point","coordinates":[1.65377312715,46.9074666618]},"record_timestamp":"2016-05-09T15:17:00+02:00"},{"datasetid":"laposte_hexasmal","recordid":"82c3b8f515c68677cb07bb64fd8da25a8c33094d","fields":{"nom_de_la_commune":"AMBRAULT","libell_d_acheminement":"AMBRAULT","code_postal":"36120","coordonnees_gps":[46.7837338524,1.94971417939],"code_commune_insee":"36003"},"geometry":{"type":"Point","coordinates":[1.94971417939,46.7837338524]},"record_timestamp":"2016-05-09T15:17:00+02:00"},{"datasetid":"laposte_hexasmal","recordid":"54e8b13ade06dec7bff7180670253ca3c26e4e39","fields":{"nom_de_la_commune":"ARGENTON SUR CREUSE","libell_d_acheminement":"ARGENTON SUR CREUSE","code_postal":"36200","coordonnees_gps":[46.5787862593,1.4926283101],"code_commune_insee":"36006"},"geometry":{"type":"Point","coordinates":[1.4926283101,46.5787862593]},"record_timestamp":"2016-05-09T15:17:00+02:00"},{"datasetid":"laposte_hexasmal","recordid":"ae968fd692623410d5240e3fa35b79eac8073360","fields":{"nom_de_la_commune":"LA BERTHENOUX","libell_d_acheminement":"LA BERTHENOUX","code_postal":"36400","coordonnees_gps":[46.6972820615,2.05729628607],"code_commune_insee":"36017"},"geometry":{"type":"Point","coordinates":[2.05729628607,46.6972820615]},"record_timestamp":"2016-05-09T15:17:00+02:00"},{"datasetid":"laposte_hexasmal","recordid":"3fa85fd172b636846442fdfc46ddd9fead3ad59a","fields":{"nom_de_la_commune":"BOUESSE","libell_d_acheminement":"BOUESSE","code_postal":"36200","coordonnees_gps":[46.6263374879,1.68778572639],"code_commune_insee":"36022"},"geometry":{"type":"Point","coordinates":[1.68778572639,46.6263374879]},"record_timestamp":"2016-05-09T15:17:00+02:00"},{"datasetid":"laposte_hexasmal","recordid":"edcd911b88371273f1933c025127dfebe8b44d31","fields":{"nom_de_la_commune":"LA BUXERETTE","libell_d_acheminement":"LA BUXERETTE","code_postal":"36140","coordonnees_gps":[46.4956309959,1.79829728284],"code_commune_insee":"36028"},"geometry":{"type":"Point","coordinates":[1.79829728284,46.4956309959]},"record_timestamp":"2016-05-09T15:17:00+02:00"},{"datasetid":"laposte_hexasmal","recordid":"647b0846dea8df4602ac2e67393934a815f45eaa","fields":{"nom_de_la_commune":"BUXIERES D AILLAC","libell_d_acheminement":"BUXIERES D AILLAC","code_postal":"36230","coordonnees_gps":[46.6387685849,1.75300924427],"code_commune_insee":"36030"},"geometry":{"type":"Point","coordinates":[1.75300924427,46.6387685849]},"record_timestamp":"2016-05-09T15:17:00+02:00"},{"datasetid":"laposte_hexasmal","recordid":"9e5c3bc1568d1c76f549b68dd27fd6e81b8c3393","fields":{"nom_de_la_commune":"CHOUDAY","libell_d_acheminement":"CHOUDAY","code_postal":"36100","coordonnees_gps":[46.9211133197,2.05340256706],"code_commune_insee":"36052"},"geometry":{"type":"Point","coordinates":[2.05340256706,46.9211133197]},"record_timestamp":"2016-05-09T15:17:00+02:00"},{"datasetid":"laposte_hexasmal","recordid":"be7118195bd905be72bdcbd5ec3e1797f4c071f3","fields":{"nom_de_la_commune":"CLION","libell_d_acheminement":"CLION","code_postal":"36700","coordonnees_gps":[46.9379936712,1.22161991718],"code_commune_insee":"36055"},"geometry":{"type":"Point","coordinates":[1.22161991718,46.9379936712]},"record_timestamp":"2016-05-09T15:17:00+02:00"},{"datasetid":"laposte_hexasmal","recordid":"c565cfd5bab24b9e425361a4b0a6cffdc0c215ec","fields":{"nom_de_la_commune":"CONDE","libell_d_acheminement":"CONDE","code_postal":"36100","coordonnees_gps":[46.8854658977,1.98706426644],"code_commune_insee":"36059"},"geometry":{"type":"Point","coordinates":[1.98706426644,46.8854658977]},"record_timestamp":"2016-05-09T15:17:00+02:00"},{"datasetid":"laposte_hexasmal","recordid":"4842fd078682469651d8865b09e4a8e00207df81","fields":{"nom_de_la_commune":"DIORS","libell_d_acheminement":"DIORS","code_postal":"36130","coordonnees_gps":[46.8294887211,1.81115700532],"code_commune_insee":"36064"},"geometry":{"type":"Point","coordinates":[1.81115700532,46.8294887211]},"record_timestamp":"2016-05-09T15:17:00+02:00"},{"datasetid":"laposte_hexasmal","recordid":"c854e09354bc1a8c8fbca0eb0d20b51cd29e72db","fields":{"nom_de_la_commune":"FAVEROLLES","libell_d_acheminement":"FAVEROLLES","code_postal":"36360","coordonnees_gps":[47.1720331258,1.38572161152],"code_commune_insee":"36072"},"geometry":{"type":"Point","coordinates":[1.38572161152,47.1720331258]},"record_timestamp":"2016-05-09T15:17:00+02:00"},{"datasetid":"laposte_hexasmal","recordid":"92c2f01603b985e9ad715929f6af4031ff3f8b42","fields":{"nom_de_la_commune":"FLERE LA RIVIERE","libell_d_acheminement":"FLERE LA RIVIERE","code_postal":"36700","coordonnees_gps":[46.9965732721,1.09318209404],"code_commune_insee":"36074"},"geometry":{"type":"Point","coordinates":[1.09318209404,46.9965732721]},"record_timestamp":"2016-05-09T15:17:00+02:00"},{"datasetid":"laposte_hexasmal","recordid":"ef5726a9d1877b45ccc084d722dfd362d194d826","fields":{"nom_de_la_commune":"GEHEE","libell_d_acheminement":"GEHEE","code_postal":"36240","coordonnees_gps":[47.0384812055,1.49376819488],"code_commune_insee":"36082"},"geometry":{"type":"Point","coordinates":[1.49376819488,47.0384812055]},"record_timestamp":"2016-05-09T15:17:00+02:00"},{"datasetid":"laposte_hexasmal","recordid":"9592cdf03440dc67b382c94c1d00099f79897edd","fields":{"nom_de_la_commune":"INGRANDES","libell_d_acheminement":"INGRANDES","code_postal":"36300","coordonnees_gps":[46.5931498881,0.963558213736],"code_commune_insee":"36087"},"geometry":{"type":"Point","coordinates":[0.963558213736,46.5931498881]},"record_timestamp":"2016-05-09T15:17:00+02:00"},{"datasetid":"laposte_hexasmal","recordid":"9641698d9497f0b5f1fa1eed7f5738fac61777d4","fields":{"nom_de_la_commune":"LIGNAC","libell_d_acheminement":"LIGNAC","code_postal":"36370","coordonnees_gps":[46.4761367692,1.20092870282],"code_commune_insee":"36094"},"geometry":{"type":"Point","coordinates":[1.20092870282,46.4761367692]},"record_timestamp":"2016-05-09T15:17:00+02:00"},{"datasetid":"laposte_hexasmal","recordid":"15c7d7ffee96b57e4611bb963eac2fbd6a6fa5d2","fields":{"nom_de_la_commune":"LUCAY LE LIBRE","libell_d_acheminement":"LUCAY LE LIBRE","code_postal":"36150","coordonnees_gps":[47.0943523888,1.91685079999],"code_commune_insee":"36102"},"geometry":{"type":"Point","coordinates":[1.91685079999,47.0943523888]},"record_timestamp":"2016-05-09T15:17:00+02:00"},{"datasetid":"laposte_hexasmal","recordid":"d94593a60513d948ee1c2ba24eb8910cea1b24d1","fields":{"nom_de_la_commune":"MAILLET","libell_d_acheminement":"MAILLET","code_postal":"36340","coordonnees_gps":[46.5804941943,1.67770625299],"code_commune_insee":"36110"},"geometry":{"type":"Point","coordinates":[1.67770625299,46.5804941943]},"record_timestamp":"2016-05-09T15:17:00+02:00"},{"datasetid":"laposte_hexasmal","recordid":"bae9347c2f46c22129a2da43e7fad60af3d79c7e","fields":{"nom_de_la_commune":"MALICORNAY","libell_d_acheminement":"MALICORNAY","code_postal":"36340","coordonnees_gps":[46.5692681843,1.64580646533],"code_commune_insee":"36111"},"geometry":{"type":"Point","coordinates":[1.64580646533,46.5692681843]},"record_timestamp":"2016-05-09T15:17:00+02:00"},{"datasetid":"laposte_hexasmal","recordid":"3425f3da6aee17c47dbdd2084a268c396853c7db","fields":{"nom_de_la_commune":"MAUVIERES","libell_d_acheminement":"MAUVIERES","code_postal":"36370","coordonnees_gps":[46.5783021107,1.10698917227],"code_commune_insee":"36114"},"geometry":{"type":"Point","coordinates":[1.10698917227,46.5783021107]},"record_timestamp":"2016-05-09T15:17:00+02:00"},{"datasetid":"laposte_hexasmal","recordid":"59522131379b25e540f888f3ad154709623d82f2","fields":{"nom_de_la_commune":"MERS SUR INDRE","libell_d_acheminement":"MERS SUR INDRE","code_postal":"36230","coordonnees_gps":[46.6693679113,1.87334410692],"code_commune_insee":"36120"},"geometry":{"type":"Point","coordinates":[1.87334410692,46.6693679113]},"record_timestamp":"2016-05-09T15:17:00+02:00"},{"datasetid":"laposte_hexasmal","recordid":"cd07f0281216ce3562577315285376c1ad93b681","fields":{"nom_de_la_commune":"MOSNAY","libell_d_acheminement":"MOSNAY","code_postal":"36200","coordonnees_gps":[46.6262386861,1.62506020727],"code_commune_insee":"36131"},"geometry":{"type":"Point","coordinates":[1.62506020727,46.6262386861]},"record_timestamp":"2016-05-09T15:17:00+02:00"},{"datasetid":"laposte_hexasmal","recordid":"a8af8cb3dbd0682a014ebf9a1c03591b93ddd401","fields":{"nom_de_la_commune":"MOULINS SUR CEPHONS","libell_d_acheminement":"MOULINS SUR CEPHONS","code_postal":"36110","coordonnees_gps":[47.0089111933,1.56079458695],"code_commune_insee":"36135"},"geometry":{"type":"Point","coordinates":[1.56079458695,47.0089111933]},"record_timestamp":"2016-05-09T15:17:00+02:00"},{"datasetid":"laposte_hexasmal","recordid":"2a856886ea5234bf61cdcc4f6d92f3dc157b5456","fields":{"nom_de_la_commune":"NEUVY ST SEPULCHRE","libell_d_acheminement":"NEUVY ST SEPULCHRE","code_postal":"36230","coordonnees_gps":[46.5924338706,1.81276111894],"code_commune_insee":"36141"},"geometry":{"type":"Point","coordinates":[1.81276111894,46.5924338706]},"record_timestamp":"2016-05-09T15:17:00+02:00"},{"datasetid":"laposte_hexasmal","recordid":"198a6c9c9f0c0e4d4d5179547cfdc60e884dc0df","fields":{"nom_de_la_commune":"NURET LE FERRON","libell_d_acheminement":"NURET LE FERRON","code_postal":"36800","coordonnees_gps":[46.6891633663,1.42831929228],"code_commune_insee":"36144"},"geometry":{"type":"Point","coordinates":[1.42831929228,46.6891633663]},"record_timestamp":"2016-05-09T15:17:00+02:00"},{"datasetid":"laposte_hexasmal","recordid":"1a78d6543e416e2385ac68ace5334ab410ac4934","fields":{"nom_de_la_commune":"ORSENNES","libell_d_acheminement":"ORSENNES","code_postal":"36190","coordonnees_gps":[46.4793175378,1.69542411224],"code_commune_insee":"36146"},"geometry":{"type":"Point","coordinates":[1.69542411224,46.4793175378]},"record_timestamp":"2016-05-09T15:17:00+02:00"},{"datasetid":"laposte_hexasmal","recordid":"e800d6a7e09a57590b6501cdb48cc60c75d431a8","fields":{"nom_de_la_commune":"PELLEVOISIN","libell_d_acheminement":"PELLEVOISIN","code_postal":"36180","coordonnees_gps":[46.9860152232,1.42163571271],"code_commune_insee":"36155"},"geometry":{"type":"Point","coordinates":[1.42163571271,46.9860152232]},"record_timestamp":"2016-05-09T15:17:00+02:00"},{"datasetid":"laposte_hexasmal","recordid":"0031b7c8182ab2109d85593bad87b0e482e25554","fields":{"nom_de_la_commune":"BADECON LE PIN","libell_d_acheminement":"BADECON LE PIN","code_postal":"36200","coordonnees_gps":[46.532036139,1.60190321862],"code_commune_insee":"36158"},"geometry":{"type":"Point","coordinates":[1.60190321862,46.532036139]},"record_timestamp":"2016-05-09T15:17:00+02:00"},{"datasetid":"laposte_hexasmal","recordid":"df340d48ee08983d2ddddf4117c27cb852124d72","fields":{"nom_de_la_commune":"LE PONT CHRETIEN CHABENET","libell_d_acheminement":"LE PONT CHRETIEN CHABENET","code_postal":"36800","coordonnees_gps":[46.6284901287,1.50039089772],"code_commune_insee":"36161"},"geometry":{"type":"Point","coordinates":[1.50039089772,46.6284901287]},"record_timestamp":"2016-05-09T15:17:00+02:00"},{"datasetid":"laposte_hexasmal","recordid":"df7140f8cbc16e609f37efd136374fa20d154e2f","fields":{"nom_de_la_commune":"POULIGNY NOTRE DAME","libell_d_acheminement":"POULIGNY NOTRE DAME","code_postal":"36160","coordonnees_gps":[46.4730747606,2.00655850845],"code_commune_insee":"36163"},"geometry":{"type":"Point","coordinates":[2.00655850845,46.4730747606]},"record_timestamp":"2016-05-09T15:17:00+02:00"},{"datasetid":"laposte_hexasmal","recordid":"6fde32a1f1204db164b0bec62b96a5d740b1e54d","fields":{"nom_de_la_commune":"PRISSAC","libell_d_acheminement":"PRISSAC","code_postal":"36370","coordonnees_gps":[46.524638893,1.29857907076],"code_commune_insee":"36168"},"geometry":{"type":"Point","coordinates":[1.29857907076,46.524638893]},"record_timestamp":"2016-05-09T15:17:00+02:00"},{"datasetid":"laposte_hexasmal","recordid":"ac8ca17a5c7dd60f0f3dd2de1b55eb171e9c8093","fields":{"nom_de_la_commune":"RIVARENNES","libell_d_acheminement":"RIVARENNES","code_postal":"36800","coordonnees_gps":[46.6136609061,1.37923363708],"code_commune_insee":"36172"},"geometry":{"type":"Point","coordinates":[1.37923363708,46.6136609061]},"record_timestamp":"2016-05-09T15:17:00+02:00"},{"datasetid":"laposte_hexasmal","recordid":"da1bb9c7c8cb34bf5c41d1395c745dacae4f9249","fields":{"nom_de_la_commune":"ST AOUSTRILLE","libell_d_acheminement":"ST AOUSTRILLE","code_postal":"36100","coordonnees_gps":[46.9325345658,1.92998752621],"code_commune_insee":"36179"},"geometry":{"type":"Point","coordinates":[1.92998752621,46.9325345658]},"record_timestamp":"2016-05-09T15:17:00+02:00"},{"datasetid":"laposte_hexasmal","recordid":"5b15d8badbe7789a7d1d6ce1ac905e78e6179862","fields":{"nom_de_la_commune":"ST DENIS DE JOUHET","libell_d_acheminement":"ST DENIS DE JOUHET","code_postal":"36230","coordonnees_gps":[46.5265897441,1.84504913909],"code_commune_insee":"36189"},"geometry":{"type":"Point","coordinates":[1.84504913909,46.5265897441]},"record_timestamp":"2016-05-09T15:17:00+02:00"},{"datasetid":"laposte_hexasmal","recordid":"72b9bd64d3ee558ede79a47c91af4922755d7e8c","fields":{"nom_de_la_commune":"ST GILLES","libell_d_acheminement":"ST GILLES","code_postal":"36170","coordonnees_gps":[46.4792987995,1.44895217006],"code_commune_insee":"36196"},"geometry":{"type":"Point","coordinates":[1.44895217006,46.4792987995]},"record_timestamp":"2016-05-09T15:17:00+02:00"},{"datasetid":"laposte_hexasmal","recordid":"e16c8ab175b4abf74968c777761075354dad793e","fields":{"nom_de_la_commune":"ST MICHEL EN BRENNE","libell_d_acheminement":"ST MICHEL EN BRENNE","code_postal":"36290","coordonnees_gps":[46.7879524316,1.1742571119],"code_commune_insee":"36204"},"geometry":{"type":"Point","coordinates":[1.1742571119,46.7879524316]},"record_timestamp":"2016-05-09T15:17:00+02:00"},{"datasetid":"laposte_hexasmal","recordid":"9bf40f78c8c7e1e846c7d033e75a1e033173e07d","fields":{"nom_de_la_commune":"ST VALENTIN","libell_d_acheminement":"ST VALENTIN","code_postal":"36100","coordonnees_gps":[46.9621074542,1.85100713344],"code_commune_insee":"36209"},"geometry":{"type":"Point","coordinates":[1.85100713344,46.9621074542]},"record_timestamp":"2016-05-09T15:17:00+02:00"},{"datasetid":"laposte_hexasmal","recordid":"772446a3dad015d31feb435592ca7b23305dd301","fields":{"nom_de_la_commune":"SARZAY","libell_d_acheminement":"SARZAY","code_postal":"36230","coordonnees_gps":[46.5974798538,1.90704131796],"code_commune_insee":"36210"},"geometry":{"type":"Point","coordinates":[1.90704131796,46.5974798538]},"record_timestamp":"2016-05-09T15:17:00+02:00"},{"datasetid":"laposte_hexasmal","recordid":"d1a224bd28ce34bbb737905b9e2ec4cb1e88c393","fields":{"nom_de_la_commune":"SEMBLECAY","libell_d_acheminement":"SEMBLECAY","code_postal":"36210","coordonnees_gps":[47.2185048101,1.69379686982],"code_commune_insee":"36217"},"geometry":{"type":"Point","coordinates":[1.69379686982,47.2185048101]},"record_timestamp":"2016-05-09T15:17:00+02:00"},{"datasetid":"laposte_hexasmal","recordid":"19f25675d6e0d9090d4954ef7e9aecfcc125ecc7","fields":{"nom_de_la_commune":"THEVET ST JULIEN","libell_d_acheminement":"THEVET ST JULIEN","code_postal":"36400","coordonnees_gps":[46.6344948494,2.06994108021],"code_commune_insee":"36221"},"geometry":{"type":"Point","coordinates":[2.06994108021,46.6344948494]},"record_timestamp":"2016-05-09T15:17:00+02:00"},{"datasetid":"laposte_hexasmal","recordid":"724d2a48bf26e49fdaca4910c56adc48d2fc8c87","fields":{"nom_de_la_commune":"THIZAY","libell_d_acheminement":"THIZAY","code_postal":"36100","coordonnees_gps":[46.8989940984,1.92934750416],"code_commune_insee":"36222"},"geometry":{"type":"Point","coordinates":[1.92934750416,46.8989940984]},"record_timestamp":"2016-05-09T15:17:00+02:00"},{"datasetid":"laposte_hexasmal","recordid":"71a296aac3c049a4adcf5e57d88537f92a507b75","fields":{"nom_de_la_commune":"TRANZAULT","libell_d_acheminement":"TRANZAULT","code_postal":"36230","coordonnees_gps":[46.622046927,1.85411308963],"code_commune_insee":"36226"},"geometry":{"type":"Point","coordinates":[1.85411308963,46.622046927]},"record_timestamp":"2016-05-09T15:17:00+02:00"},{"datasetid":"laposte_hexasmal","recordid":"427afbff40e65ea711dc7a8fe445c016f7315318","fields":{"nom_de_la_commune":"URCIERS","libell_d_acheminement":"URCIERS","code_postal":"36160","coordonnees_gps":[46.528816556,2.14569047722],"code_commune_insee":"36227"},"geometry":{"type":"Point","coordinates":[2.14569047722,46.528816556]},"record_timestamp":"2016-05-09T15:17:00+02:00"},{"datasetid":"laposte_hexasmal","recordid":"e6779c2009cbd58d0182b20d86ec93b7b1d62cb7","fields":{"code_postal":"36210","code_commune_insee":"36229","libell_d_acheminement":"VAL FOUZON","ligne_5":"STE CECILE","nom_de_la_commune":"VAL FOUZON","coordonnees_gps":[47.2049167423,1.59155940646]},"geometry":{"type":"Point","coordinates":[1.59155940646,47.2049167423]},"record_timestamp":"2016-05-09T15:17:00+02:00"},{"datasetid":"laposte_hexasmal","recordid":"ed2945f548060f38d465217a90f077132ef2d5cf","fields":{"nom_de_la_commune":"VIJON","libell_d_acheminement":"VIJON","code_postal":"36160","coordonnees_gps":[46.4364401153,2.12180186479],"code_commune_insee":"36240"},"geometry":{"type":"Point","coordinates":[2.12180186479,46.4364401153]},"record_timestamp":"2016-05-09T15:17:00+02:00"}]