[{"datasetid":"laposte_hexasmal","recordid":"ff133c7dd27bd6dd6dfd035ab10ddf24ced0c65a","fields":{"nom_de_la_commune":"JAS","libell_d_acheminement":"JAS","code_postal":"42110","coordonnees_gps":[45.7433214178,4.31929738485],"code_commune_insee":"42113"},"geometry":{"type":"Point","coordinates":[4.31929738485,45.7433214178]},"record_timestamp":"2016-05-09T15:17:00+02:00"},{"datasetid":"laposte_hexasmal","recordid":"f862750507fdb9155e5e4d4159126f0a640be7da","fields":{"nom_de_la_commune":"LERIGNEUX","libell_d_acheminement":"LERIGNEUX","code_postal":"42600","coordonnees_gps":[45.5945077198,3.94680301947],"code_commune_insee":"42121"},"geometry":{"type":"Point","coordinates":[3.94680301947,45.5945077198]},"record_timestamp":"2016-05-09T15:17:00+02:00"},{"datasetid":"laposte_hexasmal","recordid":"8a63b6f929bdd95f0af991cc82bf67989aa39012","fields":{"nom_de_la_commune":"MACHEZAL","libell_d_acheminement":"MACHEZAL","code_postal":"42114","coordonnees_gps":[45.925872477,4.31533789059],"code_commune_insee":"42128"},"geometry":{"type":"Point","coordinates":[4.31533789059,45.925872477]},"record_timestamp":"2016-05-09T15:17:00+02:00"},{"datasetid":"laposte_hexasmal","recordid":"84bdf6d1033ff0ff1c89c699525efc60ed2a1cf9","fields":{"nom_de_la_commune":"MAIZILLY","libell_d_acheminement":"MAIZILLY","code_postal":"42750","coordonnees_gps":[46.1758631519,4.24319004515],"code_commune_insee":"42131"},"geometry":{"type":"Point","coordinates":[4.24319004515,46.1758631519]},"record_timestamp":"2016-05-09T15:17:00+02:00"},{"datasetid":"laposte_hexasmal","recordid":"9b43400b1c9ec6742d5a7f43a5af8a4a8f6439b8","fields":{"nom_de_la_commune":"MALLEVAL","libell_d_acheminement":"MALLEVAL","code_postal":"42520","coordonnees_gps":[45.3854577768,4.72587258984],"code_commune_insee":"42132"},"geometry":{"type":"Point","coordinates":[4.72587258984,45.3854577768]},"record_timestamp":"2016-05-09T15:17:00+02:00"},{"datasetid":"laposte_hexasmal","recordid":"3154b03c39028d0d5d2f68ee6f7b6bdeec130bdf","fields":{"nom_de_la_commune":"MIZERIEUX","libell_d_acheminement":"MIZERIEUX","code_postal":"42110","coordonnees_gps":[45.790715516,4.16562342856],"code_commune_insee":"42143"},"geometry":{"type":"Point","coordinates":[4.16562342856,45.790715516]},"record_timestamp":"2016-05-09T15:17:00+02:00"},{"datasetid":"laposte_hexasmal","recordid":"9bc272bfe333e969122e47f013bb4b7a8fd0ffa7","fields":{"nom_de_la_commune":"MONTBRISON","libell_d_acheminement":"MONTBRISON","code_postal":"42600","coordonnees_gps":[45.6008365515,4.0713982073],"code_commune_insee":"42147"},"geometry":{"type":"Point","coordinates":[4.0713982073,45.6008365515]},"record_timestamp":"2016-05-09T15:17:00+02:00"},{"datasetid":"laposte_hexasmal","recordid":"18e80b365b4b737094b9e3d45696c5284ed6b5c8","fields":{"nom_de_la_commune":"MONTCHAL","libell_d_acheminement":"MONTCHAL","code_postal":"42360","coordonnees_gps":[45.8240674151,4.32824050303],"code_commune_insee":"42148"},"geometry":{"type":"Point","coordinates":[4.32824050303,45.8240674151]},"record_timestamp":"2016-05-09T15:17:00+02:00"},{"datasetid":"laposte_hexasmal","recordid":"7100cee0bebbafa939cc250aaf27cb8db34f0942","fields":{"nom_de_la_commune":"NANDAX","libell_d_acheminement":"NANDAX","code_postal":"42720","coordonnees_gps":[46.0988370504,4.1699750449],"code_commune_insee":"42152"},"geometry":{"type":"Point","coordinates":[4.1699750449,46.0988370504]},"record_timestamp":"2016-05-09T15:17:00+02:00"},{"datasetid":"laposte_hexasmal","recordid":"91dc3fe5fc82971be64a85c39fee7114a5ab8997","fields":{"nom_de_la_commune":"NOTRE DAME DE BOISSET","libell_d_acheminement":"NOTRE DAME DE BOISSET","code_postal":"42120","coordonnees_gps":[45.9892923941,4.13471430995],"code_commune_insee":"42161"},"geometry":{"type":"Point","coordinates":[4.13471430995,45.9892923941]},"record_timestamp":"2016-05-09T15:17:00+02:00"},{"datasetid":"laposte_hexasmal","recordid":"347be93e245b63d3fe4d4eddd03e9bc6e2c89a38","fields":{"nom_de_la_commune":"OUCHES","libell_d_acheminement":"OUCHES","code_postal":"42155","coordonnees_gps":[46.0133225099,3.9959200777],"code_commune_insee":"42162"},"geometry":{"type":"Point","coordinates":[3.9959200777,46.0133225099]},"record_timestamp":"2016-05-09T15:17:00+02:00"},{"datasetid":"laposte_hexasmal","recordid":"e2dfe422331db8a295c7e82786b363695a4be46a","fields":{"nom_de_la_commune":"PALOGNEUX","libell_d_acheminement":"PALOGNEUX","code_postal":"42990","coordonnees_gps":[45.7431305633,3.92569530158],"code_commune_insee":"42164"},"geometry":{"type":"Point","coordinates":[3.92569530158,45.7431305633]},"record_timestamp":"2016-05-09T15:17:00+02:00"},{"datasetid":"laposte_hexasmal","recordid":"146741e9d91ffa46a89f1997633b49050b212ae8","fields":{"nom_de_la_commune":"PAVEZIN","libell_d_acheminement":"PAVEZIN","code_postal":"42410","coordonnees_gps":[45.4650232925,4.66054627244],"code_commune_insee":"42167"},"geometry":{"type":"Point","coordinates":[4.66054627244,45.4650232925]},"record_timestamp":"2016-05-09T15:17:00+02:00"},{"datasetid":"laposte_hexasmal","recordid":"05d9e6682864b2be053ac0845a929b814be3d9bd","fields":{"nom_de_la_commune":"PLANFOY","libell_d_acheminement":"PLANFOY","code_postal":"42660","coordonnees_gps":[45.3861155626,4.431442219],"code_commune_insee":"42172"},"geometry":{"type":"Point","coordinates":[4.431442219,45.3861155626]},"record_timestamp":"2016-05-09T15:17:00+02:00"},{"datasetid":"laposte_hexasmal","recordid":"8b7ddcd8088528facf2c9d23e8c656943737c14f","fields":{"nom_de_la_commune":"PONCINS","libell_d_acheminement":"PONCINS","code_postal":"42110","coordonnees_gps":[45.7272583786,4.15060346621],"code_commune_insee":"42174"},"geometry":{"type":"Point","coordinates":[4.15060346621,45.7272583786]},"record_timestamp":"2016-05-09T15:17:00+02:00"},{"datasetid":"laposte_hexasmal","recordid":"e3c5fff9b50d81f0a6c2abdb1772fa8020f0dfd1","fields":{"nom_de_la_commune":"REGNY","libell_d_acheminement":"REGNY","code_postal":"42630","coordonnees_gps":[45.9973316564,4.21374559587],"code_commune_insee":"42181"},"geometry":{"type":"Point","coordinates":[4.21374559587,45.9973316564]},"record_timestamp":"2016-05-09T15:17:00+02:00"},{"datasetid":"laposte_hexasmal","recordid":"8b1004670593a0951d529c9ea69a38f66bad5836","fields":{"nom_de_la_commune":"ROZIER COTES D AUREC","libell_d_acheminement":"ROZIER COTES D AUREC","code_postal":"42380","coordonnees_gps":[45.3763346252,4.1143178936],"code_commune_insee":"42192"},"geometry":{"type":"Point","coordinates":[4.1143178936,45.3763346252]},"record_timestamp":"2016-05-09T15:17:00+02:00"},{"datasetid":"laposte_hexasmal","recordid":"5b7bb89989f9af2610df339c74f30acfdb04928c","fields":{"nom_de_la_commune":"SAIL SOUS COUZAN","libell_d_acheminement":"SAIL SOUS COUZAN","code_postal":"42890","coordonnees_gps":[45.7364287162,3.96098461916],"code_commune_insee":"42195"},"geometry":{"type":"Point","coordinates":[3.96098461916,45.7364287162]},"record_timestamp":"2016-05-09T15:17:00+02:00"},{"datasetid":"laposte_hexasmal","recordid":"882f66d8401705cdd2658e7a362d95b6b18b9b7a","fields":{"nom_de_la_commune":"STE AGATHE LA BOUTERESSE","libell_d_acheminement":"STE AGATHE LA BOUTERESSE","code_postal":"42130","coordonnees_gps":[45.7435935956,4.05118283654],"code_commune_insee":"42197"},"geometry":{"type":"Point","coordinates":[4.05118283654,45.7435935956]},"record_timestamp":"2016-05-09T15:17:00+02:00"},{"datasetid":"laposte_hexasmal","recordid":"32ba652fd0d5a7c2b175af133431803aee0899c5","fields":{"nom_de_la_commune":"ST ANDRE D APCHON","libell_d_acheminement":"ST ANDRE D APCHON","code_postal":"42370","coordonnees_gps":[46.0272361831,3.93483213636],"code_commune_insee":"42199"},"geometry":{"type":"Point","coordinates":[3.93483213636,46.0272361831]},"record_timestamp":"2016-05-09T15:17:00+02:00"},{"datasetid":"laposte_hexasmal","recordid":"40d9bb9a518a7357e7b8e266e32f3579a7288946","fields":{"nom_de_la_commune":"ST CYR DE FAVIERES","libell_d_acheminement":"ST CYR DE FAVIERES","code_postal":"42123","coordonnees_gps":[45.9616955216,4.10513740414],"code_commune_insee":"42212"},"geometry":{"type":"Point","coordinates":[4.10513740414,45.9616955216]},"record_timestamp":"2016-05-09T15:17:00+02:00"},{"datasetid":"laposte_hexasmal","recordid":"9cd1280d98f7e30d672e7cd5618bbacfa036800a","fields":{"nom_de_la_commune":"ST DENIS SUR COISE","libell_d_acheminement":"ST DENIS SUR COISE","code_postal":"42140","coordonnees_gps":[45.6115793741,4.43091520016],"code_commune_insee":"42216"},"geometry":{"type":"Point","coordinates":[4.43091520016,45.6115793741]},"record_timestamp":"2016-05-09T15:17:00+02:00"},{"datasetid":"laposte_hexasmal","recordid":"5cd488fdc6207e6c861cc37f5cf8ca9a736a6ba0","fields":{"nom_de_la_commune":"ST DIDIER SUR ROCHEFORT","libell_d_acheminement":"ST DIDIER SUR ROCHEFORT","code_postal":"42111","coordonnees_gps":[45.7934338068,3.86367748356],"code_commune_insee":"42217"},"geometry":{"type":"Point","coordinates":[3.86367748356,45.7934338068]},"record_timestamp":"2016-05-09T15:17:00+02:00"},{"datasetid":"laposte_hexasmal","recordid":"e95427d6d4d1fc65a3ab7e77c95693ba12fbb692","fields":{"code_postal":"42100","code_commune_insee":"42218","libell_d_acheminement":"ST ETIENNE","ligne_5":"ROCHETAILLEE","nom_de_la_commune":"ST ETIENNE","coordonnees_gps":[45.4301235512,4.37913997076]},"geometry":{"type":"Point","coordinates":[4.37913997076,45.4301235512]},"record_timestamp":"2016-05-09T15:17:00+02:00"},{"datasetid":"laposte_hexasmal","recordid":"f2da6112f153a723e7c969546cb24bc59f0b4754","fields":{"nom_de_la_commune":"ST GEORGES DE BAROILLE","libell_d_acheminement":"ST GEORGES DE BAROILLE","code_postal":"42510","coordonnees_gps":[45.8535792416,4.10712450945],"code_commune_insee":"42226"},"geometry":{"type":"Point","coordinates":[4.10712450945,45.8535792416]},"record_timestamp":"2016-05-09T15:17:00+02:00"},{"datasetid":"laposte_hexasmal","recordid":"7793f553f377d2adfc1b3fc8fbfac184c736c34e","fields":{"nom_de_la_commune":"ST HEAND","libell_d_acheminement":"ST HEAND","code_postal":"42570","coordonnees_gps":[45.5305252119,4.38203656297],"code_commune_insee":"42234"},"geometry":{"type":"Point","coordinates":[4.38203656297,45.5305252119]},"record_timestamp":"2016-05-09T15:17:00+02:00"},{"datasetid":"laposte_hexasmal","recordid":"dd33b29de45b7cd0c77193bc1a609299cb60fcee","fields":{"nom_de_la_commune":"ST JULIEN LA VETRE","libell_d_acheminement":"ST JULIEN LA VETRE","code_postal":"42440","coordonnees_gps":[45.8203021782,3.81786181803],"code_commune_insee":"42245"},"geometry":{"type":"Point","coordinates":[3.81786181803,45.8203021782]},"record_timestamp":"2016-05-09T15:17:00+02:00"},{"datasetid":"laposte_hexasmal","recordid":"fceede7628429290ecc1cf1b1f5665e018fbd243","fields":{"nom_de_la_commune":"ST JULIEN MOLIN MOLETTE","libell_d_acheminement":"ST JULIEN MOLIN MOLETTE","code_postal":"42220","coordonnees_gps":[45.3215951313,4.61802793895],"code_commune_insee":"42246"},"geometry":{"type":"Point","coordinates":[4.61802793895,45.3215951313]},"record_timestamp":"2016-05-09T15:17:00+02:00"},{"datasetid":"laposte_hexasmal","recordid":"432301cf78841f0b7ad09ad4ffdf7e15f665c914","fields":{"nom_de_la_commune":"ST MARTIN LA SAUVETE","libell_d_acheminement":"ST MARTIN LA SAUVETE","code_postal":"42260","coordonnees_gps":[45.8366527059,3.92057216059],"code_commune_insee":"42260"},"geometry":{"type":"Point","coordinates":[3.92057216059,45.8366527059]},"record_timestamp":"2016-05-09T15:17:00+02:00"},{"datasetid":"laposte_hexasmal","recordid":"f096a7dac60ce6e4aa5cd2a690265fd38a2b7863","fields":{"nom_de_la_commune":"ST MARTIN LESTRA","libell_d_acheminement":"ST MARTIN LESTRA","code_postal":"42110","coordonnees_gps":[45.731526312,4.3688277633],"code_commune_insee":"42261"},"geometry":{"type":"Point","coordinates":[4.3688277633,45.731526312]},"record_timestamp":"2016-05-09T15:17:00+02:00"},{"datasetid":"laposte_hexasmal","recordid":"0a08aa77f4064c844c0a97ddf7e2d7e9692f9af8","fields":{"nom_de_la_commune":"ST NIZIER DE FORNAS","libell_d_acheminement":"ST NIZIER DE FORNAS","code_postal":"42380","coordonnees_gps":[45.4047039086,4.0825460326],"code_commune_insee":"42266"},"geometry":{"type":"Point","coordinates":[4.0825460326,45.4047039086]},"record_timestamp":"2016-05-09T15:17:00+02:00"},{"datasetid":"laposte_hexasmal","recordid":"bc9439e1e4d95919397208008e3107aca2c1a94a","fields":{"nom_de_la_commune":"ST PAUL EN JAREZ","libell_d_acheminement":"ST PAUL EN JAREZ","code_postal":"42740","coordonnees_gps":[45.4705874641,4.57893504841],"code_commune_insee":"42271"},"geometry":{"type":"Point","coordinates":[4.57893504841,45.4705874641]},"record_timestamp":"2016-05-09T15:17:00+02:00"},{"datasetid":"laposte_hexasmal","recordid":"a4d7f3a6e975362863ec76baedf97121c1157d59","fields":{"nom_de_la_commune":"ST POLGUES","libell_d_acheminement":"ST POLGUES","code_postal":"42260","coordonnees_gps":[45.909623488,3.981388774],"code_commune_insee":"42274"},"geometry":{"type":"Point","coordinates":[3.981388774,45.909623488]},"record_timestamp":"2016-05-09T15:17:00+02:00"},{"datasetid":"laposte_hexasmal","recordid":"ab44eaf68b1742b6dc2fa4cff9d3a67394d2de03","fields":{"nom_de_la_commune":"ST PRIEST LA PRUGNE","libell_d_acheminement":"ST PRIEST LA PRUGNE","code_postal":"42830","coordonnees_gps":[45.9460820015,3.74227575904],"code_commune_insee":"42276"},"geometry":{"type":"Point","coordinates":[3.74227575904,45.9460820015]},"record_timestamp":"2016-05-09T15:17:00+02:00"},{"datasetid":"laposte_hexasmal","recordid":"3b059ff68d6c22904376b2380d9db68d94bce3c1","fields":{"nom_de_la_commune":"ST PRIEST LA ROCHE","libell_d_acheminement":"ST PRIEST LA ROCHE","code_postal":"42590","coordonnees_gps":[45.9201905216,4.10633617946],"code_commune_insee":"42277"},"geometry":{"type":"Point","coordinates":[4.10633617946,45.9201905216]},"record_timestamp":"2016-05-09T15:17:00+02:00"},{"datasetid":"laposte_hexasmal","recordid":"5b0a4f3fdf3b17f01988d9477b5b5318e9a66c03","fields":{"nom_de_la_commune":"ST ROMAIN EN JAREZ","libell_d_acheminement":"ST ROMAIN EN JAREZ","code_postal":"42800","coordonnees_gps":[45.5651376948,4.54150317464],"code_commune_insee":"42283"},"geometry":{"type":"Point","coordinates":[4.54150317464,45.5651376948]},"record_timestamp":"2016-05-09T15:17:00+02:00"},{"datasetid":"laposte_hexasmal","recordid":"83dce0f09a94db740fce5d9b4fdfc0f6a72e7a13","fields":{"nom_de_la_commune":"ST ROMAIN LE PUY","libell_d_acheminement":"ST ROMAIN LE PUY","code_postal":"42610","coordonnees_gps":[45.5569265459,4.13106130921],"code_commune_insee":"42285"},"geometry":{"type":"Point","coordinates":[4.13106130921,45.5569265459]},"record_timestamp":"2016-05-09T15:17:00+02:00"},{"datasetid":"laposte_hexasmal","recordid":"a89c069e9591ce4c9bbe176fd6be3abee73c4228","fields":{"nom_de_la_commune":"ST SIXTE","libell_d_acheminement":"ST SIXTE","code_postal":"42130","coordonnees_gps":[45.7724079231,3.9742199747],"code_commune_insee":"42288"},"geometry":{"type":"Point","coordinates":[3.9742199747,45.7724079231]},"record_timestamp":"2016-05-09T15:17:00+02:00"},{"datasetid":"laposte_hexasmal","recordid":"647343c18d3a398bfa1143852553b5ada47efda7","fields":{"nom_de_la_commune":"ST THOMAS LA GARDE","libell_d_acheminement":"ST THOMAS LA GARDE","code_postal":"42600","coordonnees_gps":[45.5713650794,4.08597131676],"code_commune_insee":"42290"},"geometry":{"type":"Point","coordinates":[4.08597131676,45.5713650794]},"record_timestamp":"2016-05-09T15:17:00+02:00"},{"datasetid":"laposte_hexasmal","recordid":"3126e76fda1bca2e4ee5b4835bae8dd37e983406","fields":{"nom_de_la_commune":"ST THURIN","libell_d_acheminement":"ST THURIN","code_postal":"42111","coordonnees_gps":[45.818834546,3.88477929539],"code_commune_insee":"42291"},"geometry":{"type":"Point","coordinates":[3.88477929539,45.818834546]},"record_timestamp":"2016-05-09T15:17:00+02:00"},{"datasetid":"laposte_hexasmal","recordid":"d644e5123ad98dfdd6aeb37df20ba9a899567ca5","fields":{"nom_de_la_commune":"SAUVAIN","libell_d_acheminement":"SAUVAIN","code_postal":"42990","coordonnees_gps":[45.6641357765,3.86010526625],"code_commune_insee":"42298"},"geometry":{"type":"Point","coordinates":[3.86010526625,45.6641357765]},"record_timestamp":"2016-05-09T15:17:00+02:00"},{"datasetid":"laposte_hexasmal","recordid":"10a18fc06ba143880b819f890546ba16e67bd480","fields":{"nom_de_la_commune":"SAVIGNEUX","libell_d_acheminement":"SAVIGNEUX","code_postal":"42600","coordonnees_gps":[45.6223963471,4.1003957272],"code_commune_insee":"42299"},"geometry":{"type":"Point","coordinates":[4.1003957272,45.6223963471]},"record_timestamp":"2016-05-09T15:17:00+02:00"},{"datasetid":"laposte_hexasmal","recordid":"6d99aa1c11cd76ee37a2e1fa1da24141a921ddd0","fields":{"nom_de_la_commune":"THELIS LA COMBE","libell_d_acheminement":"THELIS LA COMBE","code_postal":"42220","coordonnees_gps":[45.3361183193,4.54730534012],"code_commune_insee":"42310"},"geometry":{"type":"Point","coordinates":[4.54730534012,45.3361183193]},"record_timestamp":"2016-05-09T15:17:00+02:00"},{"datasetid":"laposte_hexasmal","recordid":"d59d754343c4ebd76e73f8b59363aef9a6eb884b","fields":{"nom_de_la_commune":"USSON EN FOREZ","libell_d_acheminement":"USSON EN FOREZ","code_postal":"42550","coordonnees_gps":[45.3918648082,3.93424665058],"code_commune_insee":"42318"},"geometry":{"type":"Point","coordinates":[3.93424665058,45.3918648082]},"record_timestamp":"2016-05-09T15:17:00+02:00"},{"datasetid":"laposte_hexasmal","recordid":"c5909abd5cea332817e99225dc94a6a849f9dfee","fields":{"nom_de_la_commune":"VENDRANGES","libell_d_acheminement":"VENDRANGES","code_postal":"42590","coordonnees_gps":[45.9331197699,4.13535953151],"code_commune_insee":"42325"},"geometry":{"type":"Point","coordinates":[4.13535953151,45.9331197699]},"record_timestamp":"2016-05-09T15:17:00+02:00"},{"datasetid":"laposte_hexasmal","recordid":"018082fc5ab5eb31f2c1c72eb6a8b9c8147ae50c","fields":{"nom_de_la_commune":"VERIN","libell_d_acheminement":"VERIN","code_postal":"42410","coordonnees_gps":[45.4600485183,4.74079429125],"code_commune_insee":"42327"},"geometry":{"type":"Point","coordinates":[4.74079429125,45.4600485183]},"record_timestamp":"2016-05-09T15:17:00+02:00"},{"datasetid":"laposte_hexasmal","recordid":"467eff191d6fe72e9c03ca46d9c238afff87a73b","fields":{"nom_de_la_commune":"VILLEMONTAIS","libell_d_acheminement":"VILLEMONTAIS","code_postal":"42155","coordonnees_gps":[45.9825018383,3.93640831898],"code_commune_insee":"42331"},"geometry":{"type":"Point","coordinates":[3.93640831898,45.9825018383]},"record_timestamp":"2016-05-09T15:17:00+02:00"},{"datasetid":"laposte_hexasmal","recordid":"9aabe075eb8133dc9719c304e2a34af0ce469654","fields":{"nom_de_la_commune":"VIOLAY","libell_d_acheminement":"VIOLAY","code_postal":"42780","coordonnees_gps":[45.8519288736,4.34938627101],"code_commune_insee":"42334"},"geometry":{"type":"Point","coordinates":[4.34938627101,45.8519288736]},"record_timestamp":"2016-05-09T15:17:00+02:00"},{"datasetid":"laposte_hexasmal","recordid":"f8ab9d365afd035da63b3c320959da78aeba461d","fields":{"nom_de_la_commune":"VIRICELLES","libell_d_acheminement":"VIRICELLES","code_postal":"42140","coordonnees_gps":[45.6550209584,4.38155703358],"code_commune_insee":"42335"},"geometry":{"type":"Point","coordinates":[4.38155703358,45.6550209584]},"record_timestamp":"2016-05-09T15:17:00+02:00"},{"datasetid":"laposte_hexasmal","recordid":"19a96e5e4bd259d8da643a33f340468ebf9237c7","fields":{"nom_de_la_commune":"APINAC","libell_d_acheminement":"APINAC","code_postal":"42550","coordonnees_gps":[45.3913756385,3.99457780325],"code_commune_insee":"42006"},"geometry":{"type":"Point","coordinates":[3.99457780325,45.3913756385]},"record_timestamp":"2016-05-09T15:17:00+02:00"},{"datasetid":"laposte_hexasmal","recordid":"8e9dbf8341d0da25f5577309d91a68e624f718a0","fields":{"nom_de_la_commune":"BALBIGNY","libell_d_acheminement":"BALBIGNY","code_postal":"42510","coordonnees_gps":[45.8294764785,4.18332533699],"code_commune_insee":"42011"},"geometry":{"type":"Point","coordinates":[4.18332533699,45.8294764785]},"record_timestamp":"2016-05-09T15:17:00+02:00"},{"datasetid":"laposte_hexasmal","recordid":"036ec3c934ec26298b5b6635863733d1212cf6e8","fields":{"nom_de_la_commune":"BOISSET LES MONTROND","libell_d_acheminement":"BOISSET LES MONTROND","code_postal":"42210","coordonnees_gps":[45.6250619213,4.2076229179],"code_commune_insee":"42020"},"geometry":{"type":"Point","coordinates":[4.2076229179,45.6250619213]},"record_timestamp":"2016-05-09T15:17:00+02:00"},{"datasetid":"laposte_hexasmal","recordid":"4d8b00f93c14ee9a1cad410c61454dc9564612a4","fields":{"nom_de_la_commune":"BOISSET ST PRIEST","libell_d_acheminement":"BOISSET ST PRIEST","code_postal":"42560","coordonnees_gps":[45.5129034516,4.1187324401],"code_commune_insee":"42021"},"geometry":{"type":"Point","coordinates":[4.1187324401,45.5129034516]},"record_timestamp":"2016-05-09T15:17:00+02:00"},{"datasetid":"laposte_hexasmal","recordid":"1533fbc09b3461cc262c8debea16412dbf928674","fields":{"nom_de_la_commune":"BOURG ARGENTAL","libell_d_acheminement":"BOURG ARGENTAL","code_postal":"42220","coordonnees_gps":[45.3037339216,4.56653101213],"code_commune_insee":"42023"},"geometry":{"type":"Point","coordinates":[4.56653101213,45.3037339216]},"record_timestamp":"2016-05-09T15:17:00+02:00"},{"datasetid":"laposte_hexasmal","recordid":"15787c35e357719f08fe4b1bbd2be54b81242d3b","fields":{"nom_de_la_commune":"BULLY","libell_d_acheminement":"BULLY","code_postal":"42260","coordonnees_gps":[45.9292601554,3.99269700935],"code_commune_insee":"42027"},"geometry":{"type":"Point","coordinates":[3.99269700935,45.9292601554]},"record_timestamp":"2016-05-09T15:17:00+02:00"},{"datasetid":"laposte_hexasmal","recordid":"0c9adf2ee9ccf2bfda73bdc5e48beb44a2d7a730","fields":{"nom_de_la_commune":"CALOIRE","libell_d_acheminement":"CALOIRE","code_postal":"42240","coordonnees_gps":[45.4145267518,4.2349238858],"code_commune_insee":"42031"},"geometry":{"type":"Point","coordinates":[4.2349238858,45.4145267518]},"record_timestamp":"2016-05-09T15:17:00+02:00"},{"datasetid":"laposte_hexasmal","recordid":"67774c632324ebfd8dde1ba495ecc2f615981aef","fields":{"nom_de_la_commune":"CELLIEU","libell_d_acheminement":"CELLIEU","code_postal":"42320","coordonnees_gps":[45.5213671549,4.53017673396],"code_commune_insee":"42032"},"geometry":{"type":"Point","coordinates":[4.53017673396,45.5213671549]},"record_timestamp":"2016-05-09T15:17:00+02:00"},{"datasetid":"laposte_hexasmal","recordid":"8fe3f7385ca8f5f6817af85b3d7c4825fae83595","fields":{"nom_de_la_commune":"CHALAIN D UZORE","libell_d_acheminement":"CHALAIN D UZORE","code_postal":"42600","coordonnees_gps":[45.6726268892,4.06032311486],"code_commune_insee":"42037"},"geometry":{"type":"Point","coordinates":[4.06032311486,45.6726268892]},"record_timestamp":"2016-05-09T15:17:00+02:00"},{"datasetid":"laposte_hexasmal","recordid":"a3497467f70cfac2a376c5cd4c8fccec3d2e3a4d","fields":{"nom_de_la_commune":"CHALAIN LE COMTAL","libell_d_acheminement":"CHALAIN LE COMTAL","code_postal":"42600","coordonnees_gps":[45.6411269141,4.17221132927],"code_commune_insee":"42038"},"geometry":{"type":"Point","coordinates":[4.17221132927,45.6411269141]},"record_timestamp":"2016-05-09T15:17:00+02:00"},{"datasetid":"laposte_hexasmal","recordid":"7a7bbd64fb4e7fe7d62b664f233b3d61d49b1474","fields":{"nom_de_la_commune":"CHANGY","libell_d_acheminement":"CHANGY","code_postal":"42310","coordonnees_gps":[46.1458600113,3.89966724243],"code_commune_insee":"42049"},"geometry":{"type":"Point","coordinates":[3.89966724243,46.1458600113]},"record_timestamp":"2016-05-09T15:17:00+02:00"},{"datasetid":"laposte_hexasmal","recordid":"d5380ef083c1423df1c0be4f358e3403addb64de","fields":{"nom_de_la_commune":"CHAZELLES SUR LAVIEU","libell_d_acheminement":"CHAZELLES SUR LAVIEU","code_postal":"42560","coordonnees_gps":[45.5423204003,4.00189316326],"code_commune_insee":"42058"},"geometry":{"type":"Point","coordinates":[4.00189316326,45.5423204003]},"record_timestamp":"2016-05-09T15:17:00+02:00"},{"datasetid":"laposte_hexasmal","recordid":"3c3d214d035301b1d733aedcf4d23301c85bbd85","fields":{"nom_de_la_commune":"CHUYER","libell_d_acheminement":"CHUYER","code_postal":"42410","coordonnees_gps":[45.4555253092,4.70245486643],"code_commune_insee":"42064"},"geometry":{"type":"Point","coordinates":[4.70245486643,45.4555253092]},"record_timestamp":"2016-05-09T15:17:00+02:00"},{"datasetid":"laposte_hexasmal","recordid":"c2f6e46f97ee44b6b4e2db3696ae07692141ffcc","fields":{"nom_de_la_commune":"LE COTEAU","libell_d_acheminement":"LE COTEAU","code_postal":"42120","coordonnees_gps":[46.0172302823,4.09095787437],"code_commune_insee":"42071"},"geometry":{"type":"Point","coordinates":[4.09095787437,46.0172302823]},"record_timestamp":"2016-05-09T15:17:00+02:00"},{"datasetid":"laposte_hexasmal","recordid":"afdb841f6cbc23c13d5a06c3465c961019e4d778","fields":{"nom_de_la_commune":"CRAINTILLEUX","libell_d_acheminement":"CRAINTILLEUX","code_postal":"42210","coordonnees_gps":[45.57428192,4.22555188945],"code_commune_insee":"42075"},"geometry":{"type":"Point","coordinates":[4.22555188945,45.57428192]},"record_timestamp":"2016-05-09T15:17:00+02:00"},{"datasetid":"laposte_hexasmal","recordid":"7db8a26f91d0b2915e9e65322ad731046feb63b1","fields":{"nom_de_la_commune":"CROIZET SUR GAND","libell_d_acheminement":"CROIZET SUR GAND","code_postal":"42540","coordonnees_gps":[45.9126247194,4.21879856118],"code_commune_insee":"42077"},"geometry":{"type":"Point","coordinates":[4.21879856118,45.9126247194]},"record_timestamp":"2016-05-09T15:17:00+02:00"},{"datasetid":"laposte_hexasmal","recordid":"391ec9d56aaf6f02072bb7fa9be3b8886cb4a8a8","fields":{"nom_de_la_commune":"FEURS","libell_d_acheminement":"FEURS","code_postal":"42110","coordonnees_gps":[45.7323040855,4.22324153789],"code_commune_insee":"42094"},"geometry":{"type":"Point","coordinates":[4.22324153789,45.7323040855]},"record_timestamp":"2016-05-09T15:17:00+02:00"},{"datasetid":"laposte_hexasmal","recordid":"d1bbb1fb352c660ae82bc4460ef4032d5142f6d4","fields":{"nom_de_la_commune":"GRAIX","libell_d_acheminement":"GRAIX","code_postal":"42220","coordonnees_gps":[45.3603739622,4.56046533126],"code_commune_insee":"42101"},"geometry":{"type":"Point","coordinates":[4.56046533126,45.3603739622]},"record_timestamp":"2016-05-09T15:17:00+02:00"},{"datasetid":"laposte_hexasmal","recordid":"c521b94acb6bcd3a234af0f5cdc8073b0f55fb05","fields":{"nom_de_la_commune":"GREZIEUX LE FROMENTAL","libell_d_acheminement":"GREZIEUX LE FROMENTAL","code_postal":"42600","coordonnees_gps":[45.6147736513,4.15456122619],"code_commune_insee":"42105"},"geometry":{"type":"Point","coordinates":[4.15456122619,45.6147736513]},"record_timestamp":"2016-05-09T15:17:00+02:00"},{"datasetid":"laposte_hexasmal","recordid":"6376694a00c4477945900aabc62296499534a40f","fields":{"nom_de_la_commune":"GREZOLLES","libell_d_acheminement":"GREZOLLES","code_postal":"42260","coordonnees_gps":[45.8639049425,3.94846074499],"code_commune_insee":"42106"},"geometry":{"type":"Point","coordinates":[3.94846074499,45.8639049425]},"record_timestamp":"2016-05-09T15:17:00+02:00"},{"datasetid":"laposte_hexasmal","recordid":"d1a3ba910f05c5278e6b9cd31a38e56e97963358","fields":{"nom_de_la_commune":"GUMIERES","libell_d_acheminement":"GUMIERES","code_postal":"42560","coordonnees_gps":[45.5273238675,3.97708738007],"code_commune_insee":"42107"},"geometry":{"type":"Point","coordinates":[3.97708738007,45.5273238675]},"record_timestamp":"2016-05-09T15:17:00+02:00"},{"datasetid":"laposte_hexasmal","recordid":"31b97d4c101eda37455b2656f43b553914397af7","fields":{"nom_de_la_commune":"JONZIEUX","libell_d_acheminement":"JONZIEUX","code_postal":"42660","coordonnees_gps":[45.3199228804,4.36218674695],"code_commune_insee":"42115"},"geometry":{"type":"Point","coordinates":[4.36218674695,45.3199228804]},"record_timestamp":"2016-05-09T15:17:00+02:00"},{"datasetid":"laposte_hexasmal","recordid":"763bb418f99fe88a5f15af789547e8b0ec2ec0af","fields":{"nom_de_la_commune":"LAVIEU","libell_d_acheminement":"LAVIEU","code_postal":"42560","coordonnees_gps":[45.5403767442,4.04199917394],"code_commune_insee":"42117"},"geometry":{"type":"Point","coordinates":[4.04199917394,45.5403767442]},"record_timestamp":"2016-05-09T15:17:00+02:00"},{"datasetid":"laposte_hexasmal","recordid":"ffcd97e6b9c861fa02d929677718a656cdf046d5","fields":{"nom_de_la_commune":"LENTIGNY","libell_d_acheminement":"LENTIGNY","code_postal":"42155","coordonnees_gps":[45.9921445608,3.97528031163],"code_commune_insee":"42120"},"geometry":{"type":"Point","coordinates":[3.97528031163,45.9921445608]},"record_timestamp":"2016-05-09T15:17:00+02:00"},{"datasetid":"laposte_hexasmal","recordid":"264aa994084a432575da5941c1ddfec9815ee65b","fields":{"nom_de_la_commune":"MARCLOPT","libell_d_acheminement":"MARCLOPT","code_postal":"42210","coordonnees_gps":[45.6639852846,4.22116537367],"code_commune_insee":"42135"},"geometry":{"type":"Point","coordinates":[4.22116537367,45.6639852846]},"record_timestamp":"2016-05-09T15:17:00+02:00"},{"datasetid":"laposte_hexasmal","recordid":"211a431cddb33901fb3cccab8b8502d633153ae3","fields":{"nom_de_la_commune":"MARS","libell_d_acheminement":"MARS","code_postal":"42750","coordonnees_gps":[46.1494620298,4.2514137726],"code_commune_insee":"42141"},"geometry":{"type":"Point","coordinates":[4.2514137726,46.1494620298]},"record_timestamp":"2016-05-09T15:17:00+02:00"},{"datasetid":"laposte_hexasmal","recordid":"3040a847ebeae2309b33515fa04c7c85bbe80844","fields":{"nom_de_la_commune":"NEAUX","libell_d_acheminement":"NEAUX","code_postal":"42470","coordonnees_gps":[45.9582864228,4.16729809028],"code_commune_insee":"42153"},"geometry":{"type":"Point","coordinates":[4.16729809028,45.9582864228]},"record_timestamp":"2016-05-09T15:17:00+02:00"},{"datasetid":"laposte_hexasmal","recordid":"58801fb1fc1dc14c13eae4eda73031d38a93e847","fields":{"nom_de_la_commune":"NERVIEUX","libell_d_acheminement":"NERVIEUX","code_postal":"42510","coordonnees_gps":[45.8118000128,4.14151199652],"code_commune_insee":"42155"},"geometry":{"type":"Point","coordinates":[4.14151199652,45.8118000128]},"record_timestamp":"2016-05-09T15:17:00+02:00"},{"datasetid":"laposte_hexasmal","recordid":"0b44c686029a139b4764e6e050e829afb1ca142f","fields":{"nom_de_la_commune":"NEULISE","libell_d_acheminement":"NEULISE","code_postal":"42590","coordonnees_gps":[45.900100869,4.16834898085],"code_commune_insee":"42156"},"geometry":{"type":"Point","coordinates":[4.16834898085,45.900100869]},"record_timestamp":"2016-05-09T15:17:00+02:00"},{"datasetid":"laposte_hexasmal","recordid":"eb532df5822d3baa35dc4318b38116dc463c3acf","fields":{"nom_de_la_commune":"NOAILLY","libell_d_acheminement":"NOAILLY","code_postal":"42640","coordonnees_gps":[46.1414386815,4.00417536538],"code_commune_insee":"42157"},"geometry":{"type":"Point","coordinates":[4.00417536538,46.1414386815]},"record_timestamp":"2016-05-09T15:17:00+02:00"},{"datasetid":"laposte_hexasmal","recordid":"edc1f6af9e7e7870352557ab43cb0431b4fe6b57","fields":{"nom_de_la_commune":"PANISSIERES","libell_d_acheminement":"PANISSIERES","code_postal":"42360","coordonnees_gps":[45.7937087884,4.34408742272],"code_commune_insee":"42165"},"geometry":{"type":"Point","coordinates":[4.34408742272,45.7937087884]},"record_timestamp":"2016-05-09T15:17:00+02:00"},{"datasetid":"laposte_hexasmal","recordid":"018efb64f3a567ddb08b20efc26ada1337a940e3","fields":{"nom_de_la_commune":"PARIGNY","libell_d_acheminement":"PARIGNY","code_postal":"42120","coordonnees_gps":[45.9876941251,4.09212986006],"code_commune_insee":"42166"},"geometry":{"type":"Point","coordinates":[4.09212986006,45.9876941251]},"record_timestamp":"2016-05-09T15:17:00+02:00"},{"datasetid":"laposte_hexasmal","recordid":"0deb637ff8b291b579b98a381baec1fbd6abbd39","fields":{"nom_de_la_commune":"PINAY","libell_d_acheminement":"PINAY","code_postal":"42590","coordonnees_gps":[45.8713622247,4.13461976155],"code_commune_insee":"42171"},"geometry":{"type":"Point","coordinates":[4.13461976155,45.8713622247]},"record_timestamp":"2016-05-09T15:17:00+02:00"},{"datasetid":"laposte_hexasmal","recordid":"4569ccad0430f9eb727b3b79dd50516de51ab7c2","fields":{"nom_de_la_commune":"LA RICAMARIE","libell_d_acheminement":"LA RICAMARIE","code_postal":"42150","coordonnees_gps":[45.4033695674,4.36890566227],"code_commune_insee":"42183"},"geometry":{"type":"Point","coordinates":[4.36890566227,45.4033695674]},"record_timestamp":"2016-05-09T15:17:00+02:00"},{"datasetid":"laposte_hexasmal","recordid":"98b49c634d17cad67998635ad41917ca17ef3777","fields":{"nom_de_la_commune":"RIVE DE GIER","libell_d_acheminement":"RIVE DE GIER","code_postal":"42800","coordonnees_gps":[45.5232368969,4.61000981421],"code_commune_insee":"42186"},"geometry":{"type":"Point","coordinates":[4.61000981421,45.5232368969]},"record_timestamp":"2016-05-09T15:17:00+02:00"},{"datasetid":"laposte_hexasmal","recordid":"a85582da3f6745d7bf8aae193669e8d9dd1b8498","fields":{"nom_de_la_commune":"ROCHE","libell_d_acheminement":"ROCHE","code_postal":"42600","coordonnees_gps":[45.6162113424,3.92144569626],"code_commune_insee":"42188"},"geometry":{"type":"Point","coordinates":[3.92144569626,45.6162113424]},"record_timestamp":"2016-05-09T15:17:00+02:00"},{"datasetid":"laposte_hexasmal","recordid":"bb708a9aea8532813bba035e5a4b6afd846ae129","fields":{"nom_de_la_commune":"SAIL LES BAINS","libell_d_acheminement":"SAIL LES BAINS","code_postal":"42310","coordonnees_gps":[46.2388754339,3.84257216516],"code_commune_insee":"42194"},"geometry":{"type":"Point","coordinates":[3.84257216516,46.2388754339]},"record_timestamp":"2016-05-09T15:17:00+02:00"},{"datasetid":"laposte_hexasmal","recordid":"de5412baa035cf7829863ddbe817f7c5d4ade5a3","fields":{"nom_de_la_commune":"ST ANDRE LE PUY","libell_d_acheminement":"ST ANDRE LE PUY","code_postal":"42210","coordonnees_gps":[45.646913833,4.26396291539],"code_commune_insee":"42200"},"geometry":{"type":"Point","coordinates":[4.26396291539,45.646913833]},"record_timestamp":"2016-05-09T15:17:00+02:00"},{"datasetid":"laposte_hexasmal","recordid":"932c7f5d62510b26d1763928bee606068fff0419","fields":{"nom_de_la_commune":"ST BONNET DES QUARTS","libell_d_acheminement":"ST BONNET DES QUARTS","code_postal":"42310","coordonnees_gps":[46.1301853846,3.82816715097],"code_commune_insee":"42203"},"geometry":{"type":"Point","coordinates":[3.82816715097,46.1301853846]},"record_timestamp":"2016-05-09T15:17:00+02:00"},{"datasetid":"laposte_hexasmal","recordid":"922782781ae52df88910ae51c3ed82cbe064d7a8","fields":{"nom_de_la_commune":"STE CROIX EN JAREZ","libell_d_acheminement":"STE CROIX EN JAREZ","code_postal":"42800","coordonnees_gps":[45.4769382751,4.63422150362],"code_commune_insee":"42210"},"geometry":{"type":"Point","coordinates":[4.63422150362,45.4769382751]},"record_timestamp":"2016-05-09T15:17:00+02:00"},{"datasetid":"laposte_hexasmal","recordid":"77573df0c795fe5e3828e827957740aeb559f972","fields":{"nom_de_la_commune":"ST CYPRIEN","libell_d_acheminement":"ST CYPRIEN","code_postal":"42160","coordonnees_gps":[45.5399613626,4.22968401574],"code_commune_insee":"42211"},"geometry":{"type":"Point","coordinates":[4.22968401574,45.5399613626]},"record_timestamp":"2016-05-09T15:17:00+02:00"},{"datasetid":"laposte_hexasmal","recordid":"1121fb6eb1f7ff65f54289d57b32610485ff7090","fields":{"nom_de_la_commune":"ST CYR DE VALORGES","libell_d_acheminement":"ST CYR DE VALORGES","code_postal":"42114","coordonnees_gps":[45.8893402235,4.31305449394],"code_commune_insee":"42213"},"geometry":{"type":"Point","coordinates":[4.31305449394,45.8893402235]},"record_timestamp":"2016-05-09T15:17:00+02:00"},{"datasetid":"laposte_hexasmal","recordid":"8f27fc507294f74c91ed13bd6cab696b98669f1a","fields":{"nom_de_la_commune":"ST CYR LES VIGNES","libell_d_acheminement":"ST CYR LES VIGNES","code_postal":"42210","coordonnees_gps":[45.6766538011,4.28890743405],"code_commune_insee":"42214"},"geometry":{"type":"Point","coordinates":[4.28890743405,45.6766538011]},"record_timestamp":"2016-05-09T15:17:00+02:00"},{"datasetid":"laposte_hexasmal","recordid":"3a5d0c7ff0c063f3abaf64a7707eadb9894869de","fields":{"nom_de_la_commune":"ST DENIS DE CABANNE","libell_d_acheminement":"ST DENIS DE CABANNE","code_postal":"42750","coordonnees_gps":[46.1763743544,4.20748749926],"code_commune_insee":"42215"},"geometry":{"type":"Point","coordinates":[4.20748749926,46.1763743544]},"record_timestamp":"2016-05-09T15:17:00+02:00"},{"datasetid":"laposte_hexasmal","recordid":"307b19cb605232d1222e8a18417018940232f0aa","fields":{"nom_de_la_commune":"ST ETIENNE","libell_d_acheminement":"ST ETIENNE","code_postal":"42000","coordonnees_gps":[45.4301235512,4.37913997076],"code_commune_insee":"42218"},"geometry":{"type":"Point","coordinates":[4.37913997076,45.4301235512]},"record_timestamp":"2016-05-09T15:17:00+02:00"},{"datasetid":"laposte_hexasmal","recordid":"dd76fbcc91bd62c78588f8d7e7d86066de4fed09","fields":{"code_postal":"42800","code_commune_insee":"42225","libell_d_acheminement":"GENILAC","ligne_5":"LA CULA","nom_de_la_commune":"GENILAC","coordonnees_gps":[45.5351394274,4.57332962492]},"geometry":{"type":"Point","coordinates":[4.57332962492,45.5351394274]},"record_timestamp":"2016-05-09T15:17:00+02:00"},{"datasetid":"laposte_hexasmal","recordid":"5fbd1a6e309ef9727e80d2ffd9ee51b691955eb7","fields":{"nom_de_la_commune":"ST HAON LE CHATEL","libell_d_acheminement":"ST HAON LE CHATEL","code_postal":"42370","coordonnees_gps":[46.0647653123,3.91707635373],"code_commune_insee":"42232"},"geometry":{"type":"Point","coordinates":[3.91707635373,46.0647653123]},"record_timestamp":"2016-05-09T15:17:00+02:00"},{"datasetid":"laposte_hexasmal","recordid":"ab16ac0fdcbce615b166aabcd7032af4429ae6da","fields":{"nom_de_la_commune":"ST HILAIRE CUSSON LA VALMITTE","libell_d_acheminement":"ST HILAIRE CUSSON LA VALMITTE","code_postal":"42380","coordonnees_gps":[45.3679237574,4.05975538069],"code_commune_insee":"42235"},"geometry":{"type":"Point","coordinates":[4.05975538069,45.3679237574]},"record_timestamp":"2016-05-09T15:17:00+02:00"},{"datasetid":"laposte_hexasmal","recordid":"8431ecf0ec0c6f522a87c3531c69c7974d53d06b","fields":{"nom_de_la_commune":"ST HILAIRE SOUS CHARLIEU","libell_d_acheminement":"ST HILAIRE SOUS CHARLIEU","code_postal":"42190","coordonnees_gps":[46.1210288218,4.1833614828],"code_commune_insee":"42236"},"geometry":{"type":"Point","coordinates":[4.1833614828,46.1210288218]},"record_timestamp":"2016-05-09T15:17:00+02:00"},{"datasetid":"laposte_hexasmal","recordid":"6f7b0145e31c21dbe46919fd9aff5f5b68274725","fields":{"nom_de_la_commune":"ST JODARD","libell_d_acheminement":"ST JODARD","code_postal":"42590","coordonnees_gps":[45.8878181316,4.12707045019],"code_commune_insee":"42241"},"geometry":{"type":"Point","coordinates":[4.12707045019,45.8878181316]},"record_timestamp":"2016-05-09T15:17:00+02:00"},{"datasetid":"laposte_hexasmal","recordid":"b89cdac97ffc341535293b0e159db1f784b94d26","fields":{"nom_de_la_commune":"ST JUST EN CHEVALET","libell_d_acheminement":"ST JUST EN CHEVALET","code_postal":"42430","coordonnees_gps":[45.9235907262,3.84329480251],"code_commune_insee":"42248"},"geometry":{"type":"Point","coordinates":[3.84329480251,45.9235907262]},"record_timestamp":"2016-05-09T15:17:00+02:00"},{"datasetid":"laposte_hexasmal","recordid":"4901f64abded8efc96efe602561af132589f370a","fields":{"nom_de_la_commune":"ST LEGER SUR ROANNE","libell_d_acheminement":"ST LEGER SUR ROANNE","code_postal":"42155","coordonnees_gps":[46.0416783061,4.00124204353],"code_commune_insee":"42253"},"geometry":{"type":"Point","coordinates":[4.00124204353,46.0416783061]},"record_timestamp":"2016-05-09T15:17:00+02:00"},{"datasetid":"laposte_hexasmal","recordid":"36bd65032c6b0a038f85d50fad74e97aac585795","fields":{"nom_de_la_commune":"ST MARCEL D URFE","libell_d_acheminement":"ST MARCEL D URFE","code_postal":"42430","coordonnees_gps":[45.8708472787,3.87977382868],"code_commune_insee":"42255"},"geometry":{"type":"Point","coordinates":[3.87977382868,45.8708472787]},"record_timestamp":"2016-05-09T15:17:00+02:00"},{"datasetid":"laposte_hexasmal","recordid":"2194c375859beb0ec19db8ef0e131ec1fb5ea9b0","fields":{"nom_de_la_commune":"ST MARTIN D ESTREAUX","libell_d_acheminement":"ST MARTIN D ESTREAUX","code_postal":"42620","coordonnees_gps":[46.2089488528,3.81781028236],"code_commune_insee":"42257"},"geometry":{"type":"Point","coordinates":[3.81781028236,46.2089488528]},"record_timestamp":"2016-05-09T15:17:00+02:00"},{"datasetid":"laposte_hexasmal","recordid":"cc700e4637a7e61e0836be690e36c8095ee3f0d3","fields":{"nom_de_la_commune":"ST MEDARD EN FOREZ","libell_d_acheminement":"ST MEDARD EN FOREZ","code_postal":"42330","coordonnees_gps":[45.5923485305,4.36215864374],"code_commune_insee":"42264"},"geometry":{"type":"Point","coordinates":[4.36215864374,45.5923485305]},"record_timestamp":"2016-05-09T15:17:00+02:00"},{"datasetid":"laposte_hexasmal","recordid":"434f70f5e43481bde008e37a080e86375dc3f3d3","fields":{"nom_de_la_commune":"ST MICHEL SUR RHONE","libell_d_acheminement":"ST MICHEL SUR RHONE","code_postal":"42410","coordonnees_gps":[45.4436606281,4.73367710517],"code_commune_insee":"42265"},"geometry":{"type":"Point","coordinates":[4.73367710517,45.4436606281]},"record_timestamp":"2016-05-09T15:17:00+02:00"},{"datasetid":"laposte_hexasmal","recordid":"b7a7382f3d4c2e206bddb9ec893adfc0d2a9ece4","fields":{"nom_de_la_commune":"ST PAUL DE VEZELIN","libell_d_acheminement":"ST PAUL DE VEZELIN","code_postal":"42590","coordonnees_gps":[45.8892083156,4.08289919803],"code_commune_insee":"42268"},"geometry":{"type":"Point","coordinates":[4.08289919803,45.8892083156]},"record_timestamp":"2016-05-09T15:17:00+02:00"},{"datasetid":"laposte_hexasmal","recordid":"d744838e95e61bec556bc7e18a6a2b77e54bb657","fields":{"nom_de_la_commune":"ST PAUL EN CORNILLON","libell_d_acheminement":"ST PAUL EN CORNILLON","code_postal":"42240","coordonnees_gps":[45.3957585018,4.23942143752],"code_commune_insee":"42270"},"geometry":{"type":"Point","coordinates":[4.23942143752,45.3957585018]},"record_timestamp":"2016-05-09T15:17:00+02:00"},{"datasetid":"laposte_hexasmal","recordid":"47e723ab768c1354fda44388785fbc4431c8f628","fields":{"nom_de_la_commune":"ST PRIEST EN JAREZ","libell_d_acheminement":"ST PRIEST EN JAREZ","code_postal":"42270","coordonnees_gps":[45.4752840967,4.37334466896],"code_commune_insee":"42275"},"geometry":{"type":"Point","coordinates":[4.37334466896,45.4752840967]},"record_timestamp":"2016-05-09T15:17:00+02:00"},{"datasetid":"laposte_hexasmal","recordid":"3fc8ce5974a8d2f432198a6bd66c7e78bc536568","fields":{"nom_de_la_commune":"ST ROMAIN D URFE","libell_d_acheminement":"ST ROMAIN D URFE","code_postal":"42430","coordonnees_gps":[45.8856641842,3.81783953207],"code_commune_insee":"42282"},"geometry":{"type":"Point","coordinates":[3.81783953207,45.8856641842]},"record_timestamp":"2016-05-09T15:17:00+02:00"},{"datasetid":"laposte_hexasmal","recordid":"2266f9671a6164c13bf9c9fe165b5101a2449c49","fields":{"nom_de_la_commune":"ST SYMPHORIEN DE LAY","libell_d_acheminement":"ST SYMPHORIEN DE LAY","code_postal":"42470","coordonnees_gps":[45.9435843496,4.21665537628],"code_commune_insee":"42289"},"geometry":{"type":"Point","coordinates":[4.21665537628,45.9435843496]},"record_timestamp":"2016-05-09T15:17:00+02:00"},{"datasetid":"laposte_hexasmal","recordid":"19b62a38bad165c62b4fbd3e4cb6143738843359","fields":{"nom_de_la_commune":"LES SALLES","libell_d_acheminement":"LES SALLES","code_postal":"42440","coordonnees_gps":[45.8549120107,3.78440621184],"code_commune_insee":"42295"},"geometry":{"type":"Point","coordinates":[3.78440621184,45.8549120107]},"record_timestamp":"2016-05-09T15:17:00+02:00"},{"datasetid":"laposte_hexasmal","recordid":"c2fc02792c2df736ae79c5e1c4a0e3622dce29fe","fields":{"nom_de_la_commune":"SALT EN DONZY","libell_d_acheminement":"SALT EN DONZY","code_postal":"42110","coordonnees_gps":[45.7335095274,4.28266323222],"code_commune_insee":"42296"},"geometry":{"type":"Point","coordinates":[4.28266323222,45.7335095274]},"record_timestamp":"2016-05-09T15:17:00+02:00"},{"datasetid":"laposte_hexasmal","recordid":"7253cf2500b0550a3ed9d4eff194a5b857f2637c","fields":{"nom_de_la_commune":"SEVELINGES","libell_d_acheminement":"SEVELINGES","code_postal":"42460","coordonnees_gps":[46.0993826373,4.28754411377],"code_commune_insee":"42300"},"geometry":{"type":"Point","coordinates":[4.28754411377,46.0993826373]},"record_timestamp":"2016-05-09T15:17:00+02:00"},{"datasetid":"laposte_hexasmal","recordid":"ad18de1fd7d7a38ad5d2dcdd7a20fff4e296c9c0","fields":{"nom_de_la_commune":"SURY LE COMTAL","libell_d_acheminement":"SURY LE COMTAL","code_postal":"42450","coordonnees_gps":[45.5417167026,4.18146739816],"code_commune_insee":"42304"},"geometry":{"type":"Point","coordinates":[4.18146739816,45.5417167026]},"record_timestamp":"2016-05-09T15:17:00+02:00"},{"datasetid":"laposte_hexasmal","recordid":"e64609317c95831ff832c42d39e7b45c8e242210","fields":{"nom_de_la_commune":"TRELINS","libell_d_acheminement":"TRELINS","code_postal":"42130","coordonnees_gps":[45.7251404881,4.00078301382],"code_commune_insee":"42313"},"geometry":{"type":"Point","coordinates":[4.00078301382,45.7251404881]},"record_timestamp":"2016-05-09T15:17:00+02:00"},{"datasetid":"laposte_hexasmal","recordid":"e2e6f42871ebe54eb8d1870d761df2b87e29e632","fields":{"nom_de_la_commune":"VALEILLE","libell_d_acheminement":"VALEILLE","code_postal":"42110","coordonnees_gps":[45.7074991536,4.28122611074],"code_commune_insee":"42319"},"geometry":{"type":"Point","coordinates":[4.28122611074,45.7074991536]},"record_timestamp":"2016-05-09T15:17:00+02:00"},{"datasetid":"laposte_hexasmal","recordid":"8c433b2d3be82ba201323ed99cfe6e9888729431","fields":{"nom_de_la_commune":"VALFLEURY","libell_d_acheminement":"VALFLEURY","code_postal":"42320","coordonnees_gps":[45.5416204634,4.51147591578],"code_commune_insee":"42320"},"geometry":{"type":"Point","coordinates":[4.51147591578,45.5416204634]},"record_timestamp":"2016-05-09T15:17:00+02:00"},{"datasetid":"laposte_hexasmal","recordid":"751fb8bb4e6d191e385ed33979a6b06315c48945","fields":{"nom_de_la_commune":"VILLARS","libell_d_acheminement":"VILLARS","code_postal":"42390","coordonnees_gps":[45.4687923748,4.35203419027],"code_commune_insee":"42330"},"geometry":{"type":"Point","coordinates":[4.35203419027,45.4687923748]},"record_timestamp":"2016-05-09T15:17:00+02:00"},{"datasetid":"laposte_hexasmal","recordid":"eee69a0958bcf0c23b467d64c2a8f98aba8cbe95","fields":{"nom_de_la_commune":"AMBIERLE","libell_d_acheminement":"AMBIERLE","code_postal":"42820","coordonnees_gps":[46.1059597472,3.89158878833],"code_commune_insee":"42003"},"geometry":{"type":"Point","coordinates":[3.89158878833,46.1059597472]},"record_timestamp":"2016-05-09T15:17:00+02:00"},{"datasetid":"laposte_hexasmal","recordid":"bf55311feb90317a40ebf3c5c2d8511a775bb4f0","fields":{"nom_de_la_commune":"ARCINGES","libell_d_acheminement":"ARCINGES","code_postal":"42460","coordonnees_gps":[46.1346681524,4.28747149673],"code_commune_insee":"42007"},"geometry":{"type":"Point","coordinates":[4.28747149673,46.1346681524]},"record_timestamp":"2016-05-09T15:17:00+02:00"},{"datasetid":"laposte_hexasmal","recordid":"cae1f2a46564a9ac47a7a8e9d73c2cb4716a04e4","fields":{"nom_de_la_commune":"AVEIZIEUX","libell_d_acheminement":"AVEIZIEUX","code_postal":"42330","coordonnees_gps":[45.5692764354,4.37903111201],"code_commune_insee":"42010"},"geometry":{"type":"Point","coordinates":[4.37903111201,45.5692764354]},"record_timestamp":"2016-05-09T15:17:00+02:00"},{"datasetid":"laposte_hexasmal","recordid":"6d5a07280b9fb75c40b868ab1dc830f560c8b9ae","fields":{"nom_de_la_commune":"BARD","libell_d_acheminement":"BARD","code_postal":"42600","coordonnees_gps":[45.5922264726,3.99761908102],"code_commune_insee":"42012"},"geometry":{"type":"Point","coordinates":[3.99761908102,45.5922264726]},"record_timestamp":"2016-05-09T15:17:00+02:00"},{"datasetid":"laposte_hexasmal","recordid":"240afd082b0c72bf54219b224a95dfbca553cdd9","fields":{"nom_de_la_commune":"BOEN SUR LIGNON","libell_d_acheminement":"BOEN SUR LIGNON","code_postal":"42130","coordonnees_gps":[45.7506601362,4.00890511945],"code_commune_insee":"42019"},"geometry":{"type":"Point","coordinates":[4.00890511945,45.7506601362]},"record_timestamp":"2016-05-09T15:17:00+02:00"},{"datasetid":"laposte_hexasmal","recordid":"2ed1c9141c19a4041b3b2e6f5da00877f5b0898e","fields":{"nom_de_la_commune":"BOYER","libell_d_acheminement":"BOYER","code_postal":"42460","coordonnees_gps":[46.0971669978,4.21483763027],"code_commune_insee":"42025"},"geometry":{"type":"Point","coordinates":[4.21483763027,46.0971669978]},"record_timestamp":"2016-05-09T15:17:00+02:00"},{"datasetid":"laposte_hexasmal","recordid":"69b25e16dd26fafe1dfee74b2db0bbda06fe625d","fields":{"nom_de_la_commune":"LA CHAMBONIE","libell_d_acheminement":"LA CHAMBONIE","code_postal":"42440","coordonnees_gps":[45.7435606657,3.7579660525],"code_commune_insee":"42045"},"geometry":{"type":"Point","coordinates":[3.7579660525,45.7435606657]},"record_timestamp":"2016-05-09T15:17:00+02:00"},{"datasetid":"laposte_hexasmal","recordid":"52dca10fcb6d98d9e5b77b9fa5013b3c213c3ce3","fields":{"nom_de_la_commune":"CHAMPDIEU","libell_d_acheminement":"CHAMPDIEU","code_postal":"42600","coordonnees_gps":[45.6413921035,4.0502490993],"code_commune_insee":"42046"},"geometry":{"type":"Point","coordinates":[4.0502490993,45.6413921035]},"record_timestamp":"2016-05-09T15:17:00+02:00"},{"datasetid":"laposte_hexasmal","recordid":"c738e1754bf2f0b8dfb3ea7cce1597b43a28547f","fields":{"nom_de_la_commune":"CHAMPOLY","libell_d_acheminement":"CHAMPOLY","code_postal":"42430","coordonnees_gps":[45.8535201477,3.84402489217],"code_commune_insee":"42047"},"geometry":{"type":"Point","coordinates":[3.84402489217,45.8535201477]},"record_timestamp":"2016-05-09T15:17:00+02:00"},{"datasetid":"laposte_hexasmal","recordid":"df19fe36716f1f66707659a02e0eb83a641e73e8","fields":{"nom_de_la_commune":"CHARLIEU","libell_d_acheminement":"CHARLIEU","code_postal":"42190","coordonnees_gps":[46.166320434,4.17407848439],"code_commune_insee":"42052"},"geometry":{"type":"Point","coordinates":[4.17407848439,46.166320434]},"record_timestamp":"2016-05-09T15:17:00+02:00"},{"datasetid":"laposte_hexasmal","recordid":"d3fc0899be4d1e870b7219dc71d867c8d13c6cdd","fields":{"nom_de_la_commune":"CHATEAUNEUF","libell_d_acheminement":"CHATEAUNEUF","code_postal":"42800","coordonnees_gps":[45.5146610622,4.63386392848],"code_commune_insee":"42053"},"geometry":{"type":"Point","coordinates":[4.63386392848,45.5146610622]},"record_timestamp":"2016-05-09T15:17:00+02:00"},{"datasetid":"laposte_hexasmal","recordid":"56144516043f11602894680b9253622b8e1c11aa","fields":{"nom_de_la_commune":"CHAZELLES SUR LYON","libell_d_acheminement":"CHAZELLES SUR LYON","code_postal":"42140","coordonnees_gps":[45.6292859414,4.37386809116],"code_commune_insee":"42059"},"geometry":{"type":"Point","coordinates":[4.37386809116,45.6292859414]},"record_timestamp":"2016-05-09T15:17:00+02:00"},{"datasetid":"laposte_hexasmal","recordid":"0302dca6096931e1b6914294b710da2e9aee92a3","fields":{"nom_de_la_commune":"CHENEREILLES","libell_d_acheminement":"CHENEREILLES","code_postal":"42560","coordonnees_gps":[45.4862625628,4.08984378023],"code_commune_insee":"42060"},"geometry":{"type":"Point","coordinates":[4.08984378023,45.4862625628]},"record_timestamp":"2016-05-09T15:17:00+02:00"},{"datasetid":"laposte_hexasmal","recordid":"89177c620a34eaec199273e8f1f9bcbdc8ea1ccb","fields":{"nom_de_la_commune":"CLEPPE","libell_d_acheminement":"CLEPPE","code_postal":"42110","coordonnees_gps":[45.760405726,4.17661128061],"code_commune_insee":"42066"},"geometry":{"type":"Point","coordinates":[4.17661128061,45.760405726]},"record_timestamp":"2016-05-09T15:17:00+02:00"},{"datasetid":"laposte_hexasmal","recordid":"633eae5b15187f91e508251c75f08f59df694761","fields":{"nom_de_la_commune":"COUTOUVRE","libell_d_acheminement":"COUTOUVRE","code_postal":"42460","coordonnees_gps":[46.0732580486,4.20593657124],"code_commune_insee":"42074"},"geometry":{"type":"Point","coordinates":[4.20593657124,46.0732580486]},"record_timestamp":"2016-05-09T15:17:00+02:00"},{"datasetid":"laposte_hexasmal","recordid":"908abeebde24e1c75ff784928b875754707ef4ad","fields":{"nom_de_la_commune":"DANCE","libell_d_acheminement":"DANCE","code_postal":"42260","coordonnees_gps":[45.9072579151,4.03433219646],"code_commune_insee":"42082"},"geometry":{"type":"Point","coordinates":[4.03433219646,45.9072579151]},"record_timestamp":"2016-05-09T15:17:00+02:00"},{"datasetid":"laposte_hexasmal","recordid":"9263bb49e19d36cac5cfde91fb9dffc988bd3941","fields":{"nom_de_la_commune":"DARGOIRE","libell_d_acheminement":"DARGOIRE","code_postal":"42800","coordonnees_gps":[45.5627238803,4.67407383096],"code_commune_insee":"42083"},"geometry":{"type":"Point","coordinates":[4.67407383096,45.5627238803]},"record_timestamp":"2016-05-09T15:17:00+02:00"},{"datasetid":"laposte_hexasmal","recordid":"53cf0ffe7a450b8f6918f57b4984d70acdf7e6e0","fields":{"nom_de_la_commune":"EPERCIEUX ST PAUL","libell_d_acheminement":"EPERCIEUX ST PAUL","code_postal":"42110","coordonnees_gps":[45.7905917572,4.20144222446],"code_commune_insee":"42088"},"geometry":{"type":"Point","coordinates":[4.20144222446,45.7905917572]},"record_timestamp":"2016-05-09T15:17:00+02:00"},{"datasetid":"laposte_hexasmal","recordid":"f4a24adfe366400f5a665252e0a556a1560e9a47","fields":{"nom_de_la_commune":"L ETRAT","libell_d_acheminement":"L ETRAT","code_postal":"42580","coordonnees_gps":[45.4943470893,4.37157976104],"code_commune_insee":"42092"},"geometry":{"type":"Point","coordinates":[4.37157976104,45.4943470893]},"record_timestamp":"2016-05-09T15:17:00+02:00"},{"datasetid":"laposte_hexasmal","recordid":"e7f87b43cbead99aacd05d19eba18e211362dcae","fields":{"nom_de_la_commune":"FOURNEAUX","libell_d_acheminement":"FOURNEAUX","code_postal":"42470","coordonnees_gps":[45.9427445306,4.27204000195],"code_commune_insee":"42098"},"geometry":{"type":"Point","coordinates":[4.27204000195,45.9427445306]},"record_timestamp":"2016-05-09T15:17:00+02:00"},{"datasetid":"laposte_hexasmal","recordid":"3c4562a98a9dceda54a3860f4d71849e0130bda0","fields":{"nom_de_la_commune":"L HOPITAL SOUS ROCHEFORT","libell_d_acheminement":"L HOPITAL SOUS ROCHEFORT","code_postal":"42130","coordonnees_gps":[45.772221105,3.93582231796],"code_commune_insee":"42109"},"geometry":{"type":"Point","coordinates":[3.93582231796,45.772221105]},"record_timestamp":"2016-05-09T15:17:00+02:00"},{"datasetid":"laposte_hexasmal","recordid":"06576ea905e7d1917d293ee9d778600964e16010","fields":{"nom_de_la_commune":"L HORME","libell_d_acheminement":"L HORME","code_postal":"42152","coordonnees_gps":[45.4920272407,4.54055415513],"code_commune_insee":"42110"},"geometry":{"type":"Point","coordinates":[4.54055415513,45.4920272407]},"record_timestamp":"2016-05-09T15:17:00+02:00"},{"datasetid":"laposte_hexasmal","recordid":"31fef0938b5118f9ed73e51d7eebe0c4b80c241a","fields":{"nom_de_la_commune":"LEIGNEUX","libell_d_acheminement":"LEIGNEUX","code_postal":"42130","coordonnees_gps":[45.7434903751,3.98404823618],"code_commune_insee":"42119"},"geometry":{"type":"Point","coordinates":[3.98404823618,45.7434903751]},"record_timestamp":"2016-05-09T15:17:00+02:00"},{"datasetid":"laposte_hexasmal","recordid":"d9600ba08deed4571195a57ca57bbd8ba6c5593f","fields":{"nom_de_la_commune":"LORETTE","libell_d_acheminement":"LORETTE","code_postal":"42420","coordonnees_gps":[45.5111870937,4.58123296493],"code_commune_insee":"42123"},"geometry":{"type":"Point","coordinates":[4.58123296493,45.5111870937]},"record_timestamp":"2016-05-09T15:17:00+02:00"},{"datasetid":"laposte_hexasmal","recordid":"494e94826604921d6428cf834bfed6b8a1dfe3b6","fields":{"nom_de_la_commune":"LURIECQ","libell_d_acheminement":"LURIECQ","code_postal":"42380","coordonnees_gps":[45.4513938679,4.07349582691],"code_commune_insee":"42126"},"geometry":{"type":"Point","coordinates":[4.07349582691,45.4513938679]},"record_timestamp":"2016-05-09T15:17:00+02:00"},{"datasetid":"laposte_hexasmal","recordid":"4c542b5ef0c35ac872c8c1da748e555046eeeae0","fields":{"code_postal":"42300","code_commune_insee":"42127","libell_d_acheminement":"MABLY","ligne_5":"LES TUILERIES","nom_de_la_commune":"MABLY","coordonnees_gps":[46.0919456873,4.0633211833]},"geometry":{"type":"Point","coordinates":[4.0633211833,46.0919456873]},"record_timestamp":"2016-05-09T15:17:00+02:00"},{"datasetid":"laposte_hexasmal","recordid":"42b79f6d24895d5d512dd406b4bdf1597214ad9f","fields":{"nom_de_la_commune":"MAROLS","libell_d_acheminement":"MAROLS","code_postal":"42560","coordonnees_gps":[45.4747627904,4.03920281904],"code_commune_insee":"42140"},"geometry":{"type":"Point","coordinates":[4.03920281904,45.4747627904]},"record_timestamp":"2016-05-09T15:17:00+02:00"},{"datasetid":"laposte_hexasmal","recordid":"023135cbb79c788aa759601777497f61cb620721","fields":{"nom_de_la_commune":"NERONDE","libell_d_acheminement":"NERONDE","code_postal":"42510","coordonnees_gps":[45.8360580562,4.23058831333],"code_commune_insee":"42154"},"geometry":{"type":"Point","coordinates":[4.23058831333,45.8360580562]},"record_timestamp":"2016-05-09T15:17:00+02:00"},{"datasetid":"laposte_hexasmal","recordid":"87b2c126f498df684ef06625ecbd691768d4e382","fields":{"nom_de_la_commune":"LES NOES","libell_d_acheminement":"LES NOES","code_postal":"42370","coordonnees_gps":[46.0347302948,3.83628210331],"code_commune_insee":"42158"},"geometry":{"type":"Point","coordinates":[3.83628210331,46.0347302948]},"record_timestamp":"2016-05-09T15:17:00+02:00"},{"datasetid":"laposte_hexasmal","recordid":"aa26bff3297d45669d67e18f132e36abb7ae0ef7","fields":{"nom_de_la_commune":"NOLLIEUX","libell_d_acheminement":"NOLLIEUX","code_postal":"42260","coordonnees_gps":[45.8183058614,3.98993321679],"code_commune_insee":"42160"},"geometry":{"type":"Point","coordinates":[3.98993321679,45.8183058614]},"record_timestamp":"2016-05-09T15:17:00+02:00"},{"datasetid":"laposte_hexasmal","recordid":"975843d577bc0183128d588fe483739c9159794b","fields":{"nom_de_la_commune":"PELUSSIN","libell_d_acheminement":"PELUSSIN","code_postal":"42410","coordonnees_gps":[45.4230806352,4.65991656851],"code_commune_insee":"42168"},"geometry":{"type":"Point","coordinates":[4.65991656851,45.4230806352]},"record_timestamp":"2016-05-09T15:17:00+02:00"},{"datasetid":"laposte_hexasmal","recordid":"998337d216e1af984c46a25b219b4a698061940b","fields":{"nom_de_la_commune":"POMMIERS","libell_d_acheminement":"POMMIERS","code_postal":"42260","coordonnees_gps":[45.8312779492,4.07654195266],"code_commune_insee":"42173"},"geometry":{"type":"Point","coordinates":[4.07654195266,45.8312779492]},"record_timestamp":"2016-05-09T15:17:00+02:00"},{"datasetid":"laposte_hexasmal","recordid":"d5bcf1b82a917add737d6d6ec48f39ad26878643","fields":{"nom_de_la_commune":"PRADINES","libell_d_acheminement":"PRADINES","code_postal":"42630","coordonnees_gps":[46.0000456451,4.17170231294],"code_commune_insee":"42178"},"geometry":{"type":"Point","coordinates":[4.17170231294,46.0000456451]},"record_timestamp":"2016-05-09T15:17:00+02:00"},{"datasetid":"laposte_hexasmal","recordid":"5ec1449056d8ae09fe60a7c34975f599106c714a","fields":{"nom_de_la_commune":"RIVAS","libell_d_acheminement":"RIVAS","code_postal":"42340","coordonnees_gps":[45.5885484014,4.25049605154],"code_commune_insee":"42185"},"geometry":{"type":"Point","coordinates":[4.25049605154,45.5885484014]},"record_timestamp":"2016-05-09T15:17:00+02:00"},{"datasetid":"laposte_hexasmal","recordid":"d18bb0128fc86e6e056142a9ada7c98a18db4568","fields":{"nom_de_la_commune":"ROCHE LA MOLIERE","libell_d_acheminement":"ROCHE LA MOLIERE","code_postal":"42230","coordonnees_gps":[45.4259230436,4.32495559821],"code_commune_insee":"42189"},"geometry":{"type":"Point","coordinates":[4.32495559821,45.4259230436]},"record_timestamp":"2016-05-09T15:17:00+02:00"},{"datasetid":"laposte_hexasmal","recordid":"dfb1074e195d9b41f6c67372c2de1cb5b6e54352","fields":{"nom_de_la_commune":"ROISEY","libell_d_acheminement":"ROISEY","code_postal":"42520","coordonnees_gps":[45.391280992,4.65752995946],"code_commune_insee":"42191"},"geometry":{"type":"Point","coordinates":[4.65752995946,45.391280992]},"record_timestamp":"2016-05-09T15:17:00+02:00"},{"datasetid":"laposte_hexasmal","recordid":"991e1d3cf4acdd7d0b2dccb54ef394149e666b69","fields":{"nom_de_la_commune":"ST ALBAN LES EAUX","libell_d_acheminement":"ST ALBAN LES EAUX","code_postal":"42370","coordonnees_gps":[46.0060538443,3.93140741051],"code_commune_insee":"42198"},"geometry":{"type":"Point","coordinates":[3.93140741051,46.0060538443]},"record_timestamp":"2016-05-09T15:17:00+02:00"},{"datasetid":"laposte_hexasmal","recordid":"0d3bf9f672b7ba19eae767b16fd0ecae662e85d9","fields":{"nom_de_la_commune":"ST BARTHELEMY LESTRA","libell_d_acheminement":"ST BARTHELEMY LESTRA","code_postal":"42110","coordonnees_gps":[45.718628364,4.32852077786],"code_commune_insee":"42202"},"geometry":{"type":"Point","coordinates":[4.32852077786,45.718628364]},"record_timestamp":"2016-05-09T15:17:00+02:00"},{"datasetid":"laposte_hexasmal","recordid":"09a49f8c9e6f236f22e66459341e80283c8a5bba","fields":{"code_postal":"42400","code_commune_insee":"42207","libell_d_acheminement":"ST CHAMOND","ligne_5":"ST MARTIN EN COAILLEUX","nom_de_la_commune":"ST CHAMOND","coordonnees_gps":[45.4698319517,4.50184989506]},"geometry":{"type":"Point","coordinates":[4.50184989506,45.4698319517]},"record_timestamp":"2016-05-09T15:17:00+02:00"},{"datasetid":"laposte_hexasmal","recordid":"5ce5cf722e4c333462c5564efaa7fac8c9b08002","fields":{"nom_de_la_commune":"STE COLOMBE SUR GAND","libell_d_acheminement":"STE COLOMBE SUR GAND","code_postal":"42540","coordonnees_gps":[45.8677779412,4.28292761777],"code_commune_insee":"42209"},"geometry":{"type":"Point","coordinates":[4.28292761777,45.8677779412]},"record_timestamp":"2016-05-09T15:17:00+02:00"},{"datasetid":"laposte_hexasmal","recordid":"aacae5cb4b05e7cd9ae8e8e719512a03400522fe","fields":{"nom_de_la_commune":"ST ETIENNE LE MOLARD","libell_d_acheminement":"ST ETIENNE LE MOLARD","code_postal":"42130","coordonnees_gps":[45.739928029,4.09717656731],"code_commune_insee":"42219"},"geometry":{"type":"Point","coordinates":[4.09717656731,45.739928029]},"record_timestamp":"2016-05-09T15:17:00+02:00"},{"datasetid":"laposte_hexasmal","recordid":"b91747a77ee960b74af2e4adb6dab380fe211d1b","fields":{"nom_de_la_commune":"STE FOY ST SULPICE","libell_d_acheminement":"STE FOY ST SULPICE","code_postal":"42110","coordonnees_gps":[45.7766813055,4.1090035213],"code_commune_insee":"42221"},"geometry":{"type":"Point","coordinates":[4.1090035213,45.7766813055]},"record_timestamp":"2016-05-09T15:17:00+02:00"},{"datasetid":"laposte_hexasmal","recordid":"38650aad10790276b5edc52ffd308c52ef2e1ec6","fields":{"nom_de_la_commune":"ST GEORGES HAUTE VILLE","libell_d_acheminement":"ST GEORGES HAUTE VILLE","code_postal":"42610","coordonnees_gps":[45.5439493832,4.09234828784],"code_commune_insee":"42228"},"geometry":{"type":"Point","coordinates":[4.09234828784,45.5439493832]},"record_timestamp":"2016-05-09T15:17:00+02:00"},{"datasetid":"laposte_hexasmal","recordid":"8c0efc28bf16b268862cc845fab7833771da4d98","fields":{"nom_de_la_commune":"ST GERMAIN LAVAL","libell_d_acheminement":"ST GERMAIN LAVAL","code_postal":"42260","coordonnees_gps":[45.8308448728,4.01988837409],"code_commune_insee":"42230"},"geometry":{"type":"Point","coordinates":[4.01988837409,45.8308448728]},"record_timestamp":"2016-05-09T15:17:00+02:00"},{"datasetid":"laposte_hexasmal","recordid":"554b82c87cabfc899ca949bb0d392e6944c0f0a5","fields":{"nom_de_la_commune":"ST JEAN BONNEFONDS","libell_d_acheminement":"ST JEAN BONNEFONDS","code_postal":"42650","coordonnees_gps":[45.4568786158,4.44848172147],"code_commune_insee":"42237"},"geometry":{"type":"Point","coordinates":[4.44848172147,45.4568786158]},"record_timestamp":"2016-05-09T15:17:00+02:00"},{"datasetid":"laposte_hexasmal","recordid":"2eb78c23e49125222545efea4c56c62b32994fc9","fields":{"nom_de_la_commune":"ST JEAN LA VETRE","libell_d_acheminement":"ST JEAN LA VETRE","code_postal":"42440","coordonnees_gps":[45.7746461063,3.79161072319],"code_commune_insee":"42238"},"geometry":{"type":"Point","coordinates":[3.79161072319,45.7746461063]},"record_timestamp":"2016-05-09T15:17:00+02:00"},{"datasetid":"laposte_hexasmal","recordid":"955b87f0580f9f88558cf2aa7e3004c2e32e01e8","fields":{"nom_de_la_commune":"ST JUST LA PENDUE","libell_d_acheminement":"ST JUST LA PENDUE","code_postal":"42540","coordonnees_gps":[45.8875493245,4.24162884175],"code_commune_insee":"42249"},"geometry":{"type":"Point","coordinates":[4.24162884175,45.8875493245]},"record_timestamp":"2016-05-09T15:17:00+02:00"},{"datasetid":"laposte_hexasmal","recordid":"625eb0b41766c37fd01f73695c86fbd1f776920c","fields":{"nom_de_la_commune":"ST MARCEL DE FELINES","libell_d_acheminement":"ST MARCEL DE FELINES","code_postal":"42122","coordonnees_gps":[45.8614554366,4.1876629386],"code_commune_insee":"42254"},"geometry":{"type":"Point","coordinates":[4.1876629386,45.8614554366]},"record_timestamp":"2016-05-09T15:17:00+02:00"},{"datasetid":"laposte_hexasmal","recordid":"70e777a2d9d84e04edbbf7e41935173f097903c0","fields":{"nom_de_la_commune":"ST MAURICE EN GOURGOIS","libell_d_acheminement":"ST MAURICE EN GOURGOIS","code_postal":"42240","coordonnees_gps":[45.4080254859,4.18440068436],"code_commune_insee":"42262"},"geometry":{"type":"Point","coordinates":[4.18440068436,45.4080254859]},"record_timestamp":"2016-05-09T15:17:00+02:00"},{"datasetid":"laposte_hexasmal","recordid":"288ccf9fa6a4482de8deedf9a9797fc200cd1474","fields":{"nom_de_la_commune":"ST REGIS DU COIN","libell_d_acheminement":"ST REGIS DU COIN","code_postal":"42660","coordonnees_gps":[45.288644573,4.45522567746],"code_commune_insee":"42280"},"geometry":{"type":"Point","coordinates":[4.45522567746,45.288644573]},"record_timestamp":"2016-05-09T15:17:00+02:00"},{"datasetid":"laposte_hexasmal","recordid":"b5f39ac9268ad26efa5afc083103ba02b9ef5eca","fields":{"nom_de_la_commune":"SALVIZINET","libell_d_acheminement":"SALVIZINET","code_postal":"42110","coordonnees_gps":[45.7593642516,4.27548067122],"code_commune_insee":"42297"},"geometry":{"type":"Point","coordinates":[4.27548067122,45.7593642516]},"record_timestamp":"2016-05-09T15:17:00+02:00"},{"datasetid":"laposte_hexasmal","recordid":"1080d30d13344f16b95551541e026c8a6a80cbc0","fields":{"nom_de_la_commune":"SOLEYMIEUX","libell_d_acheminement":"SOLEYMIEUX","code_postal":"42560","coordonnees_gps":[45.5062879483,4.06396167678],"code_commune_insee":"42301"},"geometry":{"type":"Point","coordinates":[4.06396167678,45.5062879483]},"record_timestamp":"2016-05-09T15:17:00+02:00"},{"datasetid":"laposte_hexasmal","recordid":"1fd040d37ccf24208b43281ad6cfffde3c79b5fd","fields":{"nom_de_la_commune":"TARTARAS","libell_d_acheminement":"TARTARAS","code_postal":"42800","coordonnees_gps":[45.5540344541,4.66360649191],"code_commune_insee":"42307"},"geometry":{"type":"Point","coordinates":[4.66360649191,45.5540344541]},"record_timestamp":"2016-05-09T15:17:00+02:00"},{"datasetid":"laposte_hexasmal","recordid":"729ce1e792d721502d8c3172a85645918aafa60c","fields":{"nom_de_la_commune":"LA TERRASSE SUR DORLAY","libell_d_acheminement":"LA TERRASSE SUR DORLAY","code_postal":"42740","coordonnees_gps":[45.4477648412,4.5788900746],"code_commune_insee":"42308"},"geometry":{"type":"Point","coordinates":[4.5788900746,45.4477648412]},"record_timestamp":"2016-05-09T15:17:00+02:00"},{"datasetid":"laposte_hexasmal","recordid":"c2b3b917141d86205b690b17d489adbf9f12693e","fields":{"nom_de_la_commune":"LA TOUR EN JAREZ","libell_d_acheminement":"LA TOUR EN JAREZ","code_postal":"42580","coordonnees_gps":[45.4883528278,4.39780519433],"code_commune_insee":"42311"},"geometry":{"type":"Point","coordinates":[4.39780519433,45.4883528278]},"record_timestamp":"2016-05-09T15:17:00+02:00"},{"datasetid":"laposte_hexasmal","recordid":"0b0f69760d0b96fe3f4ff49df47f3b86a5ed3955","fields":{"nom_de_la_commune":"VEAUCHE","libell_d_acheminement":"VEAUCHE","code_postal":"42340","coordonnees_gps":[45.5621736685,4.28985644507],"code_commune_insee":"42323"},"geometry":{"type":"Point","coordinates":[4.28985644507,45.5621736685]},"record_timestamp":"2016-05-09T15:17:00+02:00"},{"datasetid":"laposte_hexasmal","recordid":"3fb81629a640461941dba7863f91d8171c4320a6","fields":{"nom_de_la_commune":"VERANNE","libell_d_acheminement":"VERANNE","code_postal":"42520","coordonnees_gps":[45.3722142523,4.63484498928],"code_commune_insee":"42326"},"geometry":{"type":"Point","coordinates":[4.63484498928,45.3722142523]},"record_timestamp":"2016-05-09T15:17:00+02:00"},{"datasetid":"laposte_hexasmal","recordid":"bc944dd7dac6147f26dadfa2e659b774adda0aad","fields":{"nom_de_la_commune":"LA VERSANNE","libell_d_acheminement":"LA VERSANNE","code_postal":"42220","coordonnees_gps":[45.3205754592,4.50642756991],"code_commune_insee":"42329"},"geometry":{"type":"Point","coordinates":[4.50642756991,45.3205754592]},"record_timestamp":"2016-05-09T15:17:00+02:00"},{"datasetid":"laposte_hexasmal","recordid":"a30f7fa7aba753059a686848d73f2768fa6b3c90","fields":{"nom_de_la_commune":"VILLERS","libell_d_acheminement":"VILLERS","code_postal":"42460","coordonnees_gps":[46.1249923509,4.22717855984],"code_commune_insee":"42333"},"geometry":{"type":"Point","coordinates":[4.22717855984,46.1249923509]},"record_timestamp":"2016-05-09T15:17:00+02:00"},{"datasetid":"laposte_hexasmal","recordid":"f6ed09ca8e1793e6b963af9f4fe5a0e709f85c45","fields":{"nom_de_la_commune":"CHAUSSETERRE","libell_d_acheminement":"CHAUSSETERRE","code_postal":"42430","coordonnees_gps":[45.9015168526,3.77091785307],"code_commune_insee":"42339"},"geometry":{"type":"Point","coordinates":[3.77091785307,45.9015168526]},"record_timestamp":"2016-05-09T15:17:00+02:00"},{"datasetid":"laposte_hexasmal","recordid":"f5b7d57aa056c06a6547f291af5fd73843e13939","fields":{"nom_de_la_commune":"JARNOSSE","libell_d_acheminement":"JARNOSSE","code_postal":"42460","coordonnees_gps":[46.100691759,4.24588298664],"code_commune_insee":"42112"},"geometry":{"type":"Point","coordinates":[4.24588298664,46.100691759]},"record_timestamp":"2016-05-09T15:17:00+02:00"},{"datasetid":"laposte_hexasmal","recordid":"eba66d9a141cf879563384662f2ed80715a91c61","fields":{"nom_de_la_commune":"JURE","libell_d_acheminement":"JURE","code_postal":"42430","coordonnees_gps":[45.8915714272,3.89406445527],"code_commune_insee":"42116"},"geometry":{"type":"Point","coordinates":[3.89406445527,45.8915714272]},"record_timestamp":"2016-05-09T15:17:00+02:00"},{"datasetid":"laposte_hexasmal","recordid":"ea52aa11b7f2674cf17652b1195ea5e0a191a52b","fields":{"nom_de_la_commune":"LAY","libell_d_acheminement":"LAY","code_postal":"42470","coordonnees_gps":[45.9686920698,4.24074411631],"code_commune_insee":"42118"},"geometry":{"type":"Point","coordinates":[4.24074411631,45.9686920698]},"record_timestamp":"2016-05-09T15:17:00+02:00"},{"datasetid":"laposte_hexasmal","recordid":"fd0b13b37e156d541e7f22a4123b0a0662e070d5","fields":{"nom_de_la_commune":"MABLY","libell_d_acheminement":"MABLY","code_postal":"42300","coordonnees_gps":[46.0919456873,4.0633211833],"code_commune_insee":"42127"},"geometry":{"type":"Point","coordinates":[4.0633211833,46.0919456873]},"record_timestamp":"2016-05-09T15:17:00+02:00"},{"datasetid":"laposte_hexasmal","recordid":"d9f31eebf6a5da874478e53ba7eb36356f568501","fields":{"nom_de_la_commune":"MAGNEUX HAUTE RIVE","libell_d_acheminement":"MAGNEUX HAUTE RIVE","code_postal":"42600","coordonnees_gps":[45.6697850452,4.17067905601],"code_commune_insee":"42130"},"geometry":{"type":"Point","coordinates":[4.17067905601,45.6697850452]},"record_timestamp":"2016-05-09T15:17:00+02:00"},{"datasetid":"laposte_hexasmal","recordid":"acd7b7d2f0f302f13272ea1589e19ec1b2929c75","fields":{"nom_de_la_commune":"MARGERIE CHANTAGRET","libell_d_acheminement":"MARGERIE CHANTAGRET","code_postal":"42560","coordonnees_gps":[45.5249803676,4.05302501039],"code_commune_insee":"42137"},"geometry":{"type":"Point","coordinates":[4.05302501039,45.5249803676]},"record_timestamp":"2016-05-09T15:17:00+02:00"},{"datasetid":"laposte_hexasmal","recordid":"4cf31a1c15285c172f378746000a833ab2c97595","fields":{"nom_de_la_commune":"MARLHES","libell_d_acheminement":"MARLHES","code_postal":"42660","coordonnees_gps":[45.2930506564,4.39678475293],"code_commune_insee":"42139"},"geometry":{"type":"Point","coordinates":[4.39678475293,45.2930506564]},"record_timestamp":"2016-05-09T15:17:00+02:00"},{"datasetid":"laposte_hexasmal","recordid":"51a25157fec10630868368c308939434fd504b2f","fields":{"nom_de_la_commune":"MONTARCHER","libell_d_acheminement":"MONTARCHER","code_postal":"42380","coordonnees_gps":[45.458211291,3.99028156923],"code_commune_insee":"42146"},"geometry":{"type":"Point","coordinates":[3.99028156923,45.458211291]},"record_timestamp":"2016-05-09T15:17:00+02:00"},{"datasetid":"laposte_hexasmal","recordid":"123ff91e7c7f4381a95328169c8a86b134b070fd","fields":{"nom_de_la_commune":"MONTROND LES BAINS","libell_d_acheminement":"MONTROND LES BAINS","code_postal":"42210","coordonnees_gps":[45.6352746305,4.24093173504],"code_commune_insee":"42149"},"geometry":{"type":"Point","coordinates":[4.24093173504,45.6352746305]},"record_timestamp":"2016-05-09T15:17:00+02:00"},{"datasetid":"laposte_hexasmal","recordid":"f13bed2fedb3e3e389e007f5dcbe96c8267cb34e","fields":{"nom_de_la_commune":"MORNAND EN FOREZ","libell_d_acheminement":"MORNAND EN FOREZ","code_postal":"42600","coordonnees_gps":[45.6717929888,4.11953674559],"code_commune_insee":"42151"},"geometry":{"type":"Point","coordinates":[4.11953674559,45.6717929888]},"record_timestamp":"2016-05-09T15:17:00+02:00"},{"datasetid":"laposte_hexasmal","recordid":"ee8efd1b6f2336fd6500b46074a6d529ee404fef","fields":{"nom_de_la_commune":"NOIRETABLE","libell_d_acheminement":"NOIRETABLE","code_postal":"42440","coordonnees_gps":[45.805483325,3.7440778928],"code_commune_insee":"42159"},"geometry":{"type":"Point","coordinates":[3.7440778928,45.805483325]},"record_timestamp":"2016-05-09T15:17:00+02:00"},{"datasetid":"laposte_hexasmal","recordid":"de3377d2fef9e7e4e6bd0eef70ccaf1bffa2f0ba","fields":{"nom_de_la_commune":"PERIGNEUX","libell_d_acheminement":"PERIGNEUX","code_postal":"42380","coordonnees_gps":[45.4473694806,4.14260046979],"code_commune_insee":"42169"},"geometry":{"type":"Point","coordinates":[4.14260046979,45.4473694806]},"record_timestamp":"2016-05-09T15:17:00+02:00"},{"datasetid":"laposte_hexasmal","recordid":"acb1a78f8ecaebdd6eb855438cc94b42d9d2874d","fields":{"nom_de_la_commune":"POUILLY LES FEURS","libell_d_acheminement":"POUILLY LES FEURS","code_postal":"42110","coordonnees_gps":[45.8008382114,4.23299692399],"code_commune_insee":"42175"},"geometry":{"type":"Point","coordinates":[4.23299692399,45.8008382114]},"record_timestamp":"2016-05-09T15:17:00+02:00"},{"datasetid":"laposte_hexasmal","recordid":"bb5a7e590137fd87384f15dd00daeddb2392ca1c","fields":{"nom_de_la_commune":"POUILLY SOUS CHARLIEU","libell_d_acheminement":"POUILLY SOUS CHARLIEU","code_postal":"42720","coordonnees_gps":[46.1354023515,4.13250530885],"code_commune_insee":"42177"},"geometry":{"type":"Point","coordinates":[4.13250530885,46.1354023515]},"record_timestamp":"2016-05-09T15:17:00+02:00"},{"datasetid":"laposte_hexasmal","recordid":"ce45ace21743777da97a7b51cd8782aeb63a8582","fields":{"nom_de_la_commune":"PRECIEUX","libell_d_acheminement":"PRECIEUX","code_postal":"42600","coordonnees_gps":[45.5884894185,4.14915558403],"code_commune_insee":"42180"},"geometry":{"type":"Point","coordinates":[4.14915558403,45.5884894185]},"record_timestamp":"2016-05-09T15:17:00+02:00"},{"datasetid":"laposte_hexasmal","recordid":"1a76981bb636c14730ba85c41b3e176c857aa5cc","fields":{"nom_de_la_commune":"RENAISON","libell_d_acheminement":"RENAISON","code_postal":"42370","coordonnees_gps":[46.0476606321,3.90857597535],"code_commune_insee":"42182"},"geometry":{"type":"Point","coordinates":[3.90857597535,46.0476606321]},"record_timestamp":"2016-05-09T15:17:00+02:00"},{"datasetid":"laposte_hexasmal","recordid":"ec4d4a026638c42b44a3c79396952358dc63a821","fields":{"nom_de_la_commune":"RIORGES","libell_d_acheminement":"RIORGES","code_postal":"42153","coordonnees_gps":[46.0429114311,4.03375590925],"code_commune_insee":"42184"},"geometry":{"type":"Point","coordinates":[4.03375590925,46.0429114311]},"record_timestamp":"2016-05-09T15:17:00+02:00"},{"datasetid":"laposte_hexasmal","recordid":"71b1cdd9918ee4cb90af4b4b009a5eb7bb8dcb52","fields":{"code_postal":"42300","code_commune_insee":"42187","libell_d_acheminement":"ROANNE","ligne_5":"L ARSENAL","nom_de_la_commune":"ROANNE","coordonnees_gps":[46.0449112487,4.0797045647]},"geometry":{"type":"Point","coordinates":[4.0797045647,46.0449112487]},"record_timestamp":"2016-05-09T15:17:00+02:00"},{"datasetid":"laposte_hexasmal","recordid":"309996590eb6fc7d933457036d1bb7602c4f4b5b","fields":{"nom_de_la_commune":"ROZIER EN DONZY","libell_d_acheminement":"ROZIER EN DONZY","code_postal":"42810","coordonnees_gps":[45.803570531,4.27277111132],"code_commune_insee":"42193"},"geometry":{"type":"Point","coordinates":[4.27277111132,45.803570531]},"record_timestamp":"2016-05-09T15:17:00+02:00"},{"datasetid":"laposte_hexasmal","recordid":"0961c7a14fc0d6dd933cc806431d96931a0319fa","fields":{"nom_de_la_commune":"STE AGATHE EN DONZY","libell_d_acheminement":"STE AGATHE EN DONZY","code_postal":"42510","coordonnees_gps":[45.8360909597,4.30544297684],"code_commune_insee":"42196"},"geometry":{"type":"Point","coordinates":[4.30544297684,45.8360909597]},"record_timestamp":"2016-05-09T15:17:00+02:00"},{"datasetid":"laposte_hexasmal","recordid":"e7ca5b83542968b97eec685521ac6361c9335f56","fields":{"nom_de_la_commune":"ST BONNET LE CHATEAU","libell_d_acheminement":"ST BONNET LE CHATEAU","code_postal":"42380","coordonnees_gps":[45.4251682562,4.06509003822],"code_commune_insee":"42204"},"geometry":{"type":"Point","coordinates":[4.06509003822,45.4251682562]},"record_timestamp":"2016-05-09T15:17:00+02:00"},{"datasetid":"laposte_hexasmal","recordid":"e4d477fe88804348d6eeacf9ce5c817fe978e5b6","fields":{"nom_de_la_commune":"ST BONNET LE COURREAU","libell_d_acheminement":"ST BONNET LE COURREAU","code_postal":"42940","coordonnees_gps":[45.655161946,3.9261116009],"code_commune_insee":"42205"},"geometry":{"type":"Point","coordinates":[3.9261116009,45.655161946]},"record_timestamp":"2016-05-09T15:17:00+02:00"},{"datasetid":"laposte_hexasmal","recordid":"19a8d0fd0186354ad9b063a6caacfeb4b55c7f4b","fields":{"nom_de_la_commune":"ST CHAMOND","libell_d_acheminement":"ST CHAMOND","code_postal":"42400","coordonnees_gps":[45.4698319517,4.50184989506],"code_commune_insee":"42207"},"geometry":{"type":"Point","coordinates":[4.50184989506,45.4698319517]},"record_timestamp":"2016-05-09T15:17:00+02:00"},{"datasetid":"laposte_hexasmal","recordid":"67f961e1102aa69a7012aaaf15d1e1ba730a9aa7","fields":{"code_postal":"42400","code_commune_insee":"42207","libell_d_acheminement":"ST CHAMOND","ligne_5":"ST JULIEN EN JAREZ","nom_de_la_commune":"ST CHAMOND","coordonnees_gps":[45.4698319517,4.50184989506]},"geometry":{"type":"Point","coordinates":[4.50184989506,45.4698319517]},"record_timestamp":"2016-05-09T15:17:00+02:00"},{"datasetid":"laposte_hexasmal","recordid":"e6b32c83f1c6e15069d4b10667c0e8850a57b203","fields":{"nom_de_la_commune":"ST FORGEUX LESPINASSE","libell_d_acheminement":"ST FORGEUX LESPINASSE","code_postal":"42640","coordonnees_gps":[46.1390822509,3.94339360836],"code_commune_insee":"42220"},"geometry":{"type":"Point","coordinates":[3.94339360836,46.1390822509]},"record_timestamp":"2016-05-09T15:17:00+02:00"},{"datasetid":"laposte_hexasmal","recordid":"70cc06352067baa42e6888ffe411b4065d129433","fields":{"nom_de_la_commune":"ST GENEST LERPT","libell_d_acheminement":"ST GENEST LERPT","code_postal":"42530","coordonnees_gps":[45.4557410438,4.33134504197],"code_commune_insee":"42223"},"geometry":{"type":"Point","coordinates":[4.33134504197,45.4557410438]},"record_timestamp":"2016-05-09T15:17:00+02:00"},{"datasetid":"laposte_hexasmal","recordid":"60c2223fb04ad1c5c15f008daf2f63d8cc2294cc","fields":{"nom_de_la_commune":"ST GENEST MALIFAUX","libell_d_acheminement":"ST GENEST MALIFAUX","code_postal":"42660","coordonnees_gps":[45.3472458116,4.43132626452],"code_commune_insee":"42224"},"geometry":{"type":"Point","coordinates":[4.43132626452,45.3472458116]},"record_timestamp":"2016-05-09T15:17:00+02:00"},{"datasetid":"laposte_hexasmal","recordid":"953d869073306ded69a7c66c9fe21c85ab5f987c","fields":{"nom_de_la_commune":"ST GEORGES EN COUZAN","libell_d_acheminement":"ST GEORGES EN COUZAN","code_postal":"42990","coordonnees_gps":[45.7069401539,3.930271238],"code_commune_insee":"42227"},"geometry":{"type":"Point","coordinates":[3.930271238,45.7069401539]},"record_timestamp":"2016-05-09T15:17:00+02:00"},{"datasetid":"laposte_hexasmal","recordid":"3e8b7ee58d3c43422384067cea17f30a569cfccb","fields":{"nom_de_la_commune":"ST JEAN SOLEYMIEUX","libell_d_acheminement":"ST JEAN SOLEYMIEUX","code_postal":"42560","coordonnees_gps":[45.500965191,4.01116096667],"code_commune_insee":"42240"},"geometry":{"type":"Point","coordinates":[4.01116096667,45.500965191]},"record_timestamp":"2016-05-09T15:17:00+02:00"},{"datasetid":"laposte_hexasmal","recordid":"e288552e67e766bdc0d469ee3757896ed8affb2a","fields":{"nom_de_la_commune":"ST JULIEN D ODDES","libell_d_acheminement":"ST JULIEN D ODDES","code_postal":"42260","coordonnees_gps":[45.8516697408,3.99121351399],"code_commune_insee":"42243"},"geometry":{"type":"Point","coordinates":[3.99121351399,45.8516697408]},"record_timestamp":"2016-05-09T15:17:00+02:00"},{"datasetid":"laposte_hexasmal","recordid":"3d909e0cc5b087ccba6f4a26833a0a4c444cacea","fields":{"nom_de_la_commune":"ST LAURENT LA CONCHE","libell_d_acheminement":"ST LAURENT LA CONCHE","code_postal":"42210","coordonnees_gps":[45.6890006035,4.23185003367],"code_commune_insee":"42251"},"geometry":{"type":"Point","coordinates":[4.23185003367,45.6890006035]},"record_timestamp":"2016-05-09T15:17:00+02:00"},{"datasetid":"laposte_hexasmal","recordid":"327df56a537ad43600ece6c5532f9e8d86a2273d","fields":{"nom_de_la_commune":"ST LAURENT ROCHEFORT","libell_d_acheminement":"ST LAURENT ROCHEFORT","code_postal":"42130","coordonnees_gps":[45.7745356504,3.90649306671],"code_commune_insee":"42252"},"geometry":{"type":"Point","coordinates":[3.90649306671,45.7745356504]},"record_timestamp":"2016-05-09T15:17:00+02:00"},{"datasetid":"laposte_hexasmal","recordid":"9e7cdee4842f3ddd3f1830e12d342ee70a9773a7","fields":{"nom_de_la_commune":"ST MARCELLIN EN FOREZ","libell_d_acheminement":"ST MARCELLIN EN FOREZ","code_postal":"42680","coordonnees_gps":[45.4892854611,4.16817576447],"code_commune_insee":"42256"},"geometry":{"type":"Point","coordinates":[4.16817576447,45.4892854611]},"record_timestamp":"2016-05-09T15:17:00+02:00"},{"datasetid":"laposte_hexasmal","recordid":"dc2ed932447cc3361c66dd511ed92c15a1a2a658","fields":{"nom_de_la_commune":"ST MARTIN LA PLAINE","libell_d_acheminement":"ST MARTIN LA PLAINE","code_postal":"42800","coordonnees_gps":[45.5522879045,4.59128489318],"code_commune_insee":"42259"},"geometry":{"type":"Point","coordinates":[4.59128489318,45.5522879045]},"record_timestamp":"2016-05-09T15:17:00+02:00"},{"datasetid":"laposte_hexasmal","recordid":"d91bd17100ca2ca5ce72454fbdb23c580e675222","fields":{"nom_de_la_commune":"ST PAUL D UZORE","libell_d_acheminement":"ST PAUL D UZORE","code_postal":"42600","coordonnees_gps":[45.6749292943,4.09004893235],"code_commune_insee":"42269"},"geometry":{"type":"Point","coordinates":[4.09004893235,45.6749292943]},"record_timestamp":"2016-05-09T15:17:00+02:00"},{"datasetid":"laposte_hexasmal","recordid":"7bf62d4e50f0fb3e377a2d12ec66620795de2615","fields":{"nom_de_la_commune":"ST PIERRE LA NOAILLE","libell_d_acheminement":"ST PIERRE LA NOAILLE","code_postal":"42190","coordonnees_gps":[46.182835478,4.10333966313],"code_commune_insee":"42273"},"geometry":{"type":"Point","coordinates":[4.10333966313,46.182835478]},"record_timestamp":"2016-05-09T15:17:00+02:00"},{"datasetid":"laposte_hexasmal","recordid":"6472a85b494e6524dae366c02b2b49ebf8d13ebb","fields":{"nom_de_la_commune":"ST PRIEST LA VETRE","libell_d_acheminement":"ST PRIEST LA VETRE","code_postal":"42440","coordonnees_gps":[45.8015242352,3.80979787497],"code_commune_insee":"42278"},"geometry":{"type":"Point","coordinates":[3.80979787497,45.8015242352]},"record_timestamp":"2016-05-09T15:17:00+02:00"},{"datasetid":"laposte_hexasmal","recordid":"7afb917210f8558e1d9e579197fbc5c79014daf3","fields":{"nom_de_la_commune":"ST JUST ST RAMBERT","libell_d_acheminement":"ST JUST ST RAMBERT","code_postal":"42170","coordonnees_gps":[45.4903250932,4.25026509629],"code_commune_insee":"42279"},"geometry":{"type":"Point","coordinates":[4.25026509629,45.4903250932]},"record_timestamp":"2016-05-09T15:17:00+02:00"},{"datasetid":"laposte_hexasmal","recordid":"ebd3c29a1fcf40b68e45f97e6760afc934b7f507","fields":{"nom_de_la_commune":"ST RIRAND","libell_d_acheminement":"ST RIRAND","code_postal":"42370","coordonnees_gps":[46.0709034928,3.83743975757],"code_commune_insee":"42281"},"geometry":{"type":"Point","coordinates":[3.83743975757,46.0709034928]},"record_timestamp":"2016-05-09T15:17:00+02:00"},{"datasetid":"laposte_hexasmal","recordid":"5396748665a4743ea391a1025bd022646f9d5cb5","fields":{"nom_de_la_commune":"ST ROMAIN LA MOTTE","libell_d_acheminement":"ST ROMAIN LA MOTTE","code_postal":"42640","coordonnees_gps":[46.0816280349,3.9953263339],"code_commune_insee":"42284"},"geometry":{"type":"Point","coordinates":[3.9953263339,46.0816280349]},"record_timestamp":"2016-05-09T15:17:00+02:00"},{"datasetid":"laposte_hexasmal","recordid":"f6f575d2e329fb7b3a24bd4e94312942abf1ec6f","fields":{"nom_de_la_commune":"ST VICTOR SUR RHINS","libell_d_acheminement":"ST VICTOR SUR RHINS","code_postal":"42630","coordonnees_gps":[46.0058474894,4.28322306743],"code_commune_insee":"42293"},"geometry":{"type":"Point","coordinates":[4.28322306743,46.0058474894]},"record_timestamp":"2016-05-09T15:17:00+02:00"},{"datasetid":"laposte_hexasmal","recordid":"bd799a07607ac6cbe051d7484fcc4e54a777af4b","fields":{"nom_de_la_commune":"URBISE","libell_d_acheminement":"URBISE","code_postal":"42310","coordonnees_gps":[46.2509914533,3.88650116496],"code_commune_insee":"42317"},"geometry":{"type":"Point","coordinates":[3.88650116496,46.2509914533]},"record_timestamp":"2016-05-09T15:17:00+02:00"},{"datasetid":"laposte_hexasmal","recordid":"11f0bf51b9676c8aecb0463ac62dec50086ba40f","fields":{"nom_de_la_commune":"VEAUCHETTE","libell_d_acheminement":"VEAUCHETTE","code_postal":"42340","coordonnees_gps":[45.5619081956,4.25092229875],"code_commune_insee":"42324"},"geometry":{"type":"Point","coordinates":[4.25092229875,45.5619081956]},"record_timestamp":"2016-05-09T15:17:00+02:00"},{"datasetid":"laposte_hexasmal","recordid":"19840c219de44e13300f666373dcdf1c61f7df9c","fields":{"nom_de_la_commune":"VERRIERES EN FOREZ","libell_d_acheminement":"VERRIERES EN FOREZ","code_postal":"42600","coordonnees_gps":[45.5680113401,3.98919241451],"code_commune_insee":"42328"},"geometry":{"type":"Point","coordinates":[3.98919241451,45.5680113401]},"record_timestamp":"2016-05-09T15:17:00+02:00"},{"datasetid":"laposte_hexasmal","recordid":"2c2ceb3b7856c0718be357d20ca02bd5fe7c69bb","fields":{"nom_de_la_commune":"VIRIGNEUX","libell_d_acheminement":"VIRIGNEUX","code_postal":"42140","coordonnees_gps":[45.6872242929,4.34645637144],"code_commune_insee":"42336"},"geometry":{"type":"Point","coordinates":[4.34645637144,45.6872242929]},"record_timestamp":"2016-05-09T15:17:00+02:00"},{"datasetid":"laposte_hexasmal","recordid":"7f12a5f1db91596354c06ae86a4baf8a7fabc215","fields":{"nom_de_la_commune":"VOUGY","libell_d_acheminement":"VOUGY","code_postal":"42720","coordonnees_gps":[46.0930613385,4.12402637585],"code_commune_insee":"42338"},"geometry":{"type":"Point","coordinates":[4.12402637585,46.0930613385]},"record_timestamp":"2016-05-09T15:17:00+02:00"},{"datasetid":"laposte_hexasmal","recordid":"a97e1d20f13462f3f727a026e1835368234984d4","fields":{"nom_de_la_commune":"ST PIERRE LAVAL","libell_d_acheminement":"ST PIERRE LAVAL","code_postal":"42620","coordonnees_gps":[46.1954561376,3.77027031369],"code_commune_insee":"03250"},"geometry":{"type":"Point","coordinates":[3.77027031369,46.1954561376]},"record_timestamp":"2016-05-09T15:17:00+02:00"},{"datasetid":"laposte_hexasmal","recordid":"0054ac6fa0937932b4a4c1c41e98eecbae27fc71","fields":{"nom_de_la_commune":"ABOEN","libell_d_acheminement":"ABOEN","code_postal":"42380","coordonnees_gps":[45.412713546,4.12725438172],"code_commune_insee":"42001"},"geometry":{"type":"Point","coordinates":[4.12725438172,45.412713546]},"record_timestamp":"2016-05-09T15:17:00+02:00"},{"datasetid":"laposte_hexasmal","recordid":"0973928b8e04e18a31d3f465ca25362ed0b64511","fields":{"nom_de_la_commune":"AILLEUX","libell_d_acheminement":"AILLEUX","code_postal":"42130","coordonnees_gps":[45.7991604687,3.93365168543],"code_commune_insee":"42002"},"geometry":{"type":"Point","coordinates":[3.93365168543,45.7991604687]},"record_timestamp":"2016-05-09T15:17:00+02:00"},{"datasetid":"laposte_hexasmal","recordid":"6a012e1507079485edbb42ee6e5d05619850a63b","fields":{"nom_de_la_commune":"AMIONS","libell_d_acheminement":"AMIONS","code_postal":"42260","coordonnees_gps":[45.8770079561,4.04077213225],"code_commune_insee":"42004"},"geometry":{"type":"Point","coordinates":[4.04077213225,45.8770079561]},"record_timestamp":"2016-05-09T15:17:00+02:00"},{"datasetid":"laposte_hexasmal","recordid":"4a8f86cb578e9e2a680153b83b62e4b4b8541208","fields":{"nom_de_la_commune":"ANDREZIEUX BOUTHEON","libell_d_acheminement":"ANDREZIEUX BOUTHEON","code_postal":"42160","coordonnees_gps":[45.5349913099,4.27650426979],"code_commune_insee":"42005"},"geometry":{"type":"Point","coordinates":[4.27650426979,45.5349913099]},"record_timestamp":"2016-05-09T15:17:00+02:00"},{"datasetid":"laposte_hexasmal","recordid":"534286f9cb76b8e46bb304aded1f21b42d877e99","fields":{"nom_de_la_commune":"ARCON","libell_d_acheminement":"ARCON","code_postal":"42370","coordonnees_gps":[46.0086270746,3.86961031415],"code_commune_insee":"42008"},"geometry":{"type":"Point","coordinates":[3.86961031415,46.0086270746]},"record_timestamp":"2016-05-09T15:17:00+02:00"},{"datasetid":"laposte_hexasmal","recordid":"e6a751ee93732bc6d40c04b831f8b9e518a5c366","fields":{"nom_de_la_commune":"BELLEGARDE EN FOREZ","libell_d_acheminement":"BELLEGARDE EN FOREZ","code_postal":"42210","coordonnees_gps":[45.6408137826,4.30888510025],"code_commune_insee":"42013"},"geometry":{"type":"Point","coordinates":[4.30888510025,45.6408137826]},"record_timestamp":"2016-05-09T15:17:00+02:00"},{"datasetid":"laposte_hexasmal","recordid":"0aff34ed3593c0227e0f9f90866e84acddcfd171","fields":{"nom_de_la_commune":"BESSEY","libell_d_acheminement":"BESSEY","code_postal":"42520","coordonnees_gps":[45.3909624319,4.70262242235],"code_commune_insee":"42018"},"geometry":{"type":"Point","coordinates":[4.70262242235,45.3909624319]},"record_timestamp":"2016-05-09T15:17:00+02:00"},{"datasetid":"laposte_hexasmal","recordid":"2870d999faae1d67fc49926d647f4bbbf67a438c","fields":{"nom_de_la_commune":"BURDIGNES","libell_d_acheminement":"BURDIGNES","code_postal":"42220","coordonnees_gps":[45.2639294858,4.55951022656],"code_commune_insee":"42028"},"geometry":{"type":"Point","coordinates":[4.55951022656,45.2639294858]},"record_timestamp":"2016-05-09T15:17:00+02:00"},{"datasetid":"laposte_hexasmal","recordid":"459e28cd01db9627e9f168f1660cd2e271fc65a8","fields":{"nom_de_la_commune":"BUSSIERES","libell_d_acheminement":"BUSSIERES","code_postal":"42510","coordonnees_gps":[45.8395855736,4.26450714832],"code_commune_insee":"42029"},"geometry":{"type":"Point","coordinates":[4.26450714832,45.8395855736]},"record_timestamp":"2016-05-09T15:17:00+02:00"},{"datasetid":"laposte_hexasmal","recordid":"ec93d445e1c009924b217bc43befcb88ee18b407","fields":{"nom_de_la_commune":"CHAGNON","libell_d_acheminement":"CHAGNON","code_postal":"42800","coordonnees_gps":[45.5337555804,4.55361256767],"code_commune_insee":"42036"},"geometry":{"type":"Point","coordinates":[4.55361256767,45.5337555804]},"record_timestamp":"2016-05-09T15:17:00+02:00"},{"datasetid":"laposte_hexasmal","recordid":"6ea669a505dd1174c089e8cca3206cfeb8465035","fields":{"code_postal":"42920","code_commune_insee":"42039","libell_d_acheminement":"CHALMAZEL JEANSAGNIERE","ligne_5":"JEANSAGNIERE","nom_de_la_commune":"CHALMAZEL JEANSAGNIERE","coordonnees_gps":[45.6980828693,3.82450309755]},"geometry":{"type":"Point","coordinates":[3.82450309755,45.6980828693]},"record_timestamp":"2016-05-09T15:17:00+02:00"},{"datasetid":"laposte_hexasmal","recordid":"c8d63abb4614b91028f78c982ae2beab752fbe5e","fields":{"nom_de_la_commune":"CHAMBOEUF","libell_d_acheminement":"CHAMBOEUF","code_postal":"42330","coordonnees_gps":[45.5743049771,4.32163705727],"code_commune_insee":"42043"},"geometry":{"type":"Point","coordinates":[4.32163705727,45.5743049771]},"record_timestamp":"2016-05-09T15:17:00+02:00"},{"datasetid":"laposte_hexasmal","recordid":"6695be5a29f2cbd2231a0612cfb9f911c958e195","fields":{"nom_de_la_commune":"LA CHAPELLE EN LAFAYE","libell_d_acheminement":"LA CHAPELLE EN LAFAYE","code_postal":"42380","coordonnees_gps":[45.4593011559,3.98511801378],"code_commune_insee":"42050"},"geometry":{"type":"Point","coordinates":[3.98511801378,45.4593011559]},"record_timestamp":"2016-05-09T15:17:00+02:00"},{"datasetid":"laposte_hexasmal","recordid":"ffa65e938f7a509595f3e3433747f0cc36f13dbb","fields":{"nom_de_la_commune":"CHATELUS","libell_d_acheminement":"CHATELUS","code_postal":"42140","coordonnees_gps":[45.5897631201,4.46215474469],"code_commune_insee":"42055"},"geometry":{"type":"Point","coordinates":[4.46215474469,45.5897631201]},"record_timestamp":"2016-05-09T15:17:00+02:00"},{"datasetid":"laposte_hexasmal","recordid":"376eb31f43d46a58243a49dd5114e0e0dd9ac5fa","fields":{"nom_de_la_commune":"CHAVANAY","libell_d_acheminement":"CHAVANAY","code_postal":"42410","coordonnees_gps":[45.4187757598,4.7287178869],"code_commune_insee":"42056"},"geometry":{"type":"Point","coordinates":[4.7287178869,45.4187757598]},"record_timestamp":"2016-05-09T15:17:00+02:00"},{"datasetid":"laposte_hexasmal","recordid":"1fc1e853a18f80ef87898ff020a37a919f7672f2","fields":{"nom_de_la_commune":"CHEVRIERES","libell_d_acheminement":"CHEVRIERES","code_postal":"42140","coordonnees_gps":[45.5903538558,4.40832402261],"code_commune_insee":"42062"},"geometry":{"type":"Point","coordinates":[4.40832402261,45.5903538558]},"record_timestamp":"2016-05-09T15:17:00+02:00"},{"datasetid":"laposte_hexasmal","recordid":"4228f3e279a7b7dd0bdfd3fa15e3e401116d273f","fields":{"nom_de_la_commune":"LA COTE EN COUZAN","libell_d_acheminement":"LA COTE EN COUZAN","code_postal":"42111","coordonnees_gps":[45.7709475758,3.82885508011],"code_commune_insee":"42072"},"geometry":{"type":"Point","coordinates":[3.82885508011,45.7709475758]},"record_timestamp":"2016-05-09T15:17:00+02:00"},{"datasetid":"laposte_hexasmal","recordid":"9abd45dd7ff0cbdf494511efdd9e31bf7fe09cde","fields":{"nom_de_la_commune":"LE CROZET","libell_d_acheminement":"LE CROZET","code_postal":"42310","coordonnees_gps":[46.1733609918,3.83820754323],"code_commune_insee":"42078"},"geometry":{"type":"Point","coordinates":[3.83820754323,46.1733609918]},"record_timestamp":"2016-05-09T15:17:00+02:00"},{"datasetid":"laposte_hexasmal","recordid":"e5cfba9b3ef0701bf426efbd4340ba7546e2bcba","fields":{"nom_de_la_commune":"CUINZIER","libell_d_acheminement":"CUINZIER","code_postal":"42460","coordonnees_gps":[46.1241485363,4.26553210603],"code_commune_insee":"42079"},"geometry":{"type":"Point","coordinates":[4.26553210603,46.1241485363]},"record_timestamp":"2016-05-09T15:17:00+02:00"},{"datasetid":"laposte_hexasmal","recordid":"8a2a570d879363779e2d9db9c9836bfb069b8d86","fields":{"nom_de_la_commune":"ECOCHE","libell_d_acheminement":"ECOCHE","code_postal":"42670","coordonnees_gps":[46.1511332102,4.30522495875],"code_commune_insee":"42086"},"geometry":{"type":"Point","coordinates":[4.30522495875,46.1511332102]},"record_timestamp":"2016-05-09T15:17:00+02:00"},{"datasetid":"laposte_hexasmal","recordid":"d4ac59b8b4f802329e78363f8105b52105ba1149","fields":{"nom_de_la_commune":"LA FOUILLOUSE","libell_d_acheminement":"LA FOUILLOUSE","code_postal":"42480","coordonnees_gps":[45.5010028075,4.31920755114],"code_commune_insee":"42097"},"geometry":{"type":"Point","coordinates":[4.31920755114,45.5010028075]},"record_timestamp":"2016-05-09T15:17:00+02:00"},{"datasetid":"laposte_hexasmal","recordid":"501b4b5dea4eb0951b755cf8d9bb10ac596776fd","fields":{"nom_de_la_commune":"LA GIMOND","libell_d_acheminement":"LA GIMOND","code_postal":"42140","coordonnees_gps":[45.5562348005,4.4140487377],"code_commune_insee":"42100"},"geometry":{"type":"Point","coordinates":[4.4140487377,45.5562348005]},"record_timestamp":"2016-05-09T15:17:00+02:00"},{"datasetid":"laposte_hexasmal","recordid":"2925130ae9834beafaf95a8afb642e0a9daafb78","fields":{"nom_de_la_commune":"ARTHUN","libell_d_acheminement":"ARTHUN","code_postal":"42130","coordonnees_gps":[45.7685617882,4.03822937233],"code_commune_insee":"42009"},"geometry":{"type":"Point","coordinates":[4.03822937233,45.7685617882]},"record_timestamp":"2016-05-09T15:17:00+02:00"},{"datasetid":"laposte_hexasmal","recordid":"cd67a55f36b7f044138bb5f76a219579dc84840e","fields":{"nom_de_la_commune":"BELLEROCHE","libell_d_acheminement":"BELLEROCHE","code_postal":"42670","coordonnees_gps":[46.1603955892,4.40905088553],"code_commune_insee":"42014"},"geometry":{"type":"Point","coordinates":[4.40905088553,46.1603955892]},"record_timestamp":"2016-05-09T15:17:00+02:00"},{"datasetid":"laposte_hexasmal","recordid":"bdfdfe86e87462d328fceb9b9eeafe8a4ac17748","fields":{"nom_de_la_commune":"LA BENISSON DIEU","libell_d_acheminement":"LA BENISSON DIEU","code_postal":"42720","coordonnees_gps":[46.1590458728,4.04769279694],"code_commune_insee":"42016"},"geometry":{"type":"Point","coordinates":[4.04769279694,46.1590458728]},"record_timestamp":"2016-05-09T15:17:00+02:00"},{"datasetid":"laposte_hexasmal","recordid":"f80f101c854b958e8a722cb1aa6d01e27b9f43c3","fields":{"nom_de_la_commune":"BRIENNON","libell_d_acheminement":"BRIENNON","code_postal":"42720","coordonnees_gps":[46.1473425939,4.07729342349],"code_commune_insee":"42026"},"geometry":{"type":"Point","coordinates":[4.07729342349,46.1473425939]},"record_timestamp":"2016-05-09T15:17:00+02:00"},{"datasetid":"laposte_hexasmal","recordid":"8c92cc5e8129a77ef0db3c0cd7286b8b824c7c14","fields":{"nom_de_la_commune":"BUSSY ALBIEUX","libell_d_acheminement":"BUSSY ALBIEUX","code_postal":"42260","coordonnees_gps":[45.7952908968,4.0351714589],"code_commune_insee":"42030"},"geometry":{"type":"Point","coordinates":[4.0351714589,45.7952908968]},"record_timestamp":"2016-05-09T15:17:00+02:00"},{"datasetid":"laposte_hexasmal","recordid":"349fec0e3332e0624474fa1c8c6bdcc47bbd63c4","fields":{"nom_de_la_commune":"LE CERGNE","libell_d_acheminement":"LE CERGNE","code_postal":"42460","coordonnees_gps":[46.1207669259,4.30390743723],"code_commune_insee":"42033"},"geometry":{"type":"Point","coordinates":[4.30390743723,46.1207669259]},"record_timestamp":"2016-05-09T15:17:00+02:00"},{"datasetid":"laposte_hexasmal","recordid":"18fbdb8c065f491369201a7a502495eb44fcc267","fields":{"nom_de_la_commune":"CERVIERES","libell_d_acheminement":"CERVIERES","code_postal":"42440","coordonnees_gps":[45.8524253224,3.75375770217],"code_commune_insee":"42034"},"geometry":{"type":"Point","coordinates":[3.75375770217,45.8524253224]},"record_timestamp":"2016-05-09T15:17:00+02:00"},{"datasetid":"laposte_hexasmal","recordid":"dac043142ba5056f5fc2928dee34a6532317ea09","fields":{"nom_de_la_commune":"CHATELNEUF","libell_d_acheminement":"CHATELNEUF","code_postal":"42940","coordonnees_gps":[45.6388781024,3.97962390788],"code_commune_insee":"42054"},"geometry":{"type":"Point","coordinates":[3.97962390788,45.6388781024]},"record_timestamp":"2016-05-09T15:17:00+02:00"},{"datasetid":"laposte_hexasmal","recordid":"d8e6814cd6afc19a8e05f3eb06abf89e237692fa","fields":{"nom_de_la_commune":"CHERIER","libell_d_acheminement":"CHERIER","code_postal":"42430","coordonnees_gps":[45.9681660896,3.88935883166],"code_commune_insee":"42061"},