[{"datasetid":"laposte_hexasmal","recordid":"9baedeb4ea6e3f5ecc49a9d306c840f968d7be47","fields":{"nom_de_la_commune":"ANTRENAS","libell_d_acheminement":"ANTRENAS","code_postal":"48100","coordonnees_gps":[44.5881108325,3.25393256642],"code_commune_insee":"48005"},"geometry":{"type":"Point","coordinates":[3.25393256642,44.5881108325]},"record_timestamp":"2016-05-09T15:17:00+02:00"},{"datasetid":"laposte_hexasmal","recordid":"8367973b53f0b6fb6f81fb7fa771d09219cb79ed","fields":{"nom_de_la_commune":"BADAROUX","libell_d_acheminement":"BADAROUX","code_postal":"48000","coordonnees_gps":[44.5399034165,3.55404283598],"code_commune_insee":"48013"},"geometry":{"type":"Point","coordinates":[3.55404283598,44.5399034165]},"record_timestamp":"2016-05-09T15:17:00+02:00"},{"datasetid":"laposte_hexasmal","recordid":"2da1000340bcfa85b367948631b0968ac4afc132","fields":{"nom_de_la_commune":"BANASSAC CANILHAC","libell_d_acheminement":"BANASSAC CANILHAC","code_postal":"48500","coordonnees_gps":[44.4325411696,3.17908745544],"code_commune_insee":"48017"},"geometry":{"type":"Point","coordinates":[3.17908745544,44.4325411696]},"record_timestamp":"2016-05-09T15:17:00+02:00"},{"datasetid":"laposte_hexasmal","recordid":"71913354bce865fc92bf52fd6bfc1580cc157923","fields":{"nom_de_la_commune":"LE BLEYMARD","libell_d_acheminement":"LE BLEYMARD","code_postal":"48190","coordonnees_gps":[44.5107452501,3.74294007436],"code_commune_insee":"48027"},"geometry":{"type":"Point","coordinates":[3.74294007436,44.5107452501]},"record_timestamp":"2016-05-09T15:17:00+02:00"},{"datasetid":"laposte_hexasmal","recordid":"a4da6ee0afe840daedb3a78ea5e7c38dc6ef519d","fields":{"nom_de_la_commune":"LE BORN","libell_d_acheminement":"LE BORN","code_postal":"48000","coordonnees_gps":[44.587957569,3.55902737103],"code_commune_insee":"48029"},"geometry":{"type":"Point","coordinates":[3.55902737103,44.587957569]},"record_timestamp":"2016-05-09T15:17:00+02:00"},{"datasetid":"laposte_hexasmal","recordid":"fbd371dffe2dc2b43714f14c5ab52f43e2847333","fields":{"nom_de_la_commune":"BRION","libell_d_acheminement":"BRION","code_postal":"48310","coordonnees_gps":[44.7498734557,3.07854846372],"code_commune_insee":"48031"},"geometry":{"type":"Point","coordinates":[3.07854846372,44.7498734557]},"record_timestamp":"2016-05-09T15:17:00+02:00"},{"datasetid":"laposte_hexasmal","recordid":"ec775b7825e3c94313fc284579648b283e2c8043","fields":{"nom_de_la_commune":"LA CANOURGUE","libell_d_acheminement":"LA CANOURGUE","code_postal":"48500","coordonnees_gps":[44.4193711769,3.25711827627],"code_commune_insee":"48034"},"geometry":{"type":"Point","coordinates":[3.25711827627,44.4193711769]},"record_timestamp":"2016-05-09T15:17:00+02:00"},{"datasetid":"laposte_hexasmal","recordid":"fbf03123edec560bb2bea24050d8dd8d75a36be9","fields":{"code_postal":"48500","code_commune_insee":"48034","libell_d_acheminement":"LA CANOURGUE","ligne_5":"MONTJEZIEU","nom_de_la_commune":"LA CANOURGUE","coordonnees_gps":[44.4193711769,3.25711827627]},"geometry":{"type":"Point","coordinates":[3.25711827627,44.4193711769]},"record_timestamp":"2016-05-09T15:17:00+02:00"},{"datasetid":"laposte_hexasmal","recordid":"ac0fb3c0c60910ea75eadeb9c7ba9799480a13ff","fields":{"nom_de_la_commune":"CHANAC","libell_d_acheminement":"CHANAC","code_postal":"48230","coordonnees_gps":[44.4502200567,3.34457977647],"code_commune_insee":"48039"},"geometry":{"type":"Point","coordinates":[3.34457977647,44.4502200567]},"record_timestamp":"2016-05-09T15:17:00+02:00"},{"datasetid":"laposte_hexasmal","recordid":"943521172cfd77e756d1c971d92573048d22bbba","fields":{"nom_de_la_commune":"CHAUDEYRAC","libell_d_acheminement":"CHAUDEYRAC","code_postal":"48170","coordonnees_gps":[44.6417519852,3.75085560939],"code_commune_insee":"48045"},"geometry":{"type":"Point","coordinates":[3.75085560939,44.6417519852]},"record_timestamp":"2016-05-09T15:17:00+02:00"},{"datasetid":"laposte_hexasmal","recordid":"f45bde24714b9b445e1a4f89dcfee126d5e0fab9","fields":{"nom_de_la_commune":"CHAULHAC","libell_d_acheminement":"CHAULHAC","code_postal":"48140","coordonnees_gps":[44.9200127514,3.26546644463],"code_commune_insee":"48046"},"geometry":{"type":"Point","coordinates":[3.26546644463,44.9200127514]},"record_timestamp":"2016-05-09T15:17:00+02:00"},{"datasetid":"laposte_hexasmal","recordid":"ae4c16999689eef55513a75df61f4b0090151bbe","fields":{"nom_de_la_commune":"LE COLLET DE DEZE","libell_d_acheminement":"LE COLLET DE DEZE","code_postal":"48160","coordonnees_gps":[44.2554480808,3.92521509971],"code_commune_insee":"48051"},"geometry":{"type":"Point","coordinates":[3.92521509971,44.2554480808]},"record_timestamp":"2016-05-09T15:17:00+02:00"},{"datasetid":"laposte_hexasmal","recordid":"b01ac60ac520b6c75a4d88bd211688e11d77ec4c","fields":{"nom_de_la_commune":"FLORAC TROIS RIVIERES","libell_d_acheminement":"FLORAC TROIS RIVIERES","code_postal":"48400","coordonnees_gps":[44.3162079295,3.58273527435],"code_commune_insee":"48061"},"geometry":{"type":"Point","coordinates":[3.58273527435,44.3162079295]},"record_timestamp":"2016-05-09T15:17:00+02:00"},{"datasetid":"laposte_hexasmal","recordid":"28244ffb50448c97e57b5834502a5a5321257e73","fields":{"nom_de_la_commune":"GATUZIERES","libell_d_acheminement":"GATUZIERES","code_postal":"48150","coordonnees_gps":[44.1950868621,3.49763818762],"code_commune_insee":"48069"},"geometry":{"type":"Point","coordinates":[3.49763818762,44.1950868621]},"record_timestamp":"2016-05-09T15:17:00+02:00"},{"datasetid":"laposte_hexasmal","recordid":"708cc262eafcb8966ed25958317138799e2cce06","fields":{"nom_de_la_commune":"GRANDRIEU","libell_d_acheminement":"GRANDRIEU","code_postal":"48600","coordonnees_gps":[44.7775011056,3.64068574736],"code_commune_insee":"48070"},"geometry":{"type":"Point","coordinates":[3.64068574736,44.7775011056]},"record_timestamp":"2016-05-09T15:17:00+02:00"},{"datasetid":"laposte_hexasmal","recordid":"c2585714749413316efcc079a7d45350c6e37bcb","fields":{"nom_de_la_commune":"GREZES","libell_d_acheminement":"GREZES","code_postal":"48100","coordonnees_gps":[44.5156264154,3.34372091162],"code_commune_insee":"48072"},"geometry":{"type":"Point","coordinates":[3.34372091162,44.5156264154]},"record_timestamp":"2016-05-09T15:17:00+02:00"},{"datasetid":"laposte_hexasmal","recordid":"0ae67e5c2c7812d5d68727251c0ab85258199d14","fields":{"nom_de_la_commune":"HURES LA PARADE","libell_d_acheminement":"HURES LA PARADE","code_postal":"48150","coordonnees_gps":[44.2477855743,3.38671686597],"code_commune_insee":"48074"},"geometry":{"type":"Point","coordinates":[3.38671686597,44.2477855743]},"record_timestamp":"2016-05-09T15:17:00+02:00"},{"datasetid":"laposte_hexasmal","recordid":"849572e0da9e9ffbb574352d4c3dddb775cf70a3","fields":{"nom_de_la_commune":"JULIANGES","libell_d_acheminement":"JULIANGES","code_postal":"48140","coordonnees_gps":[44.9365351295,3.31930842194],"code_commune_insee":"48077"},"geometry":{"type":"Point","coordinates":[3.31930842194,44.9365351295]},"record_timestamp":"2016-05-09T15:17:00+02:00"},{"datasetid":"laposte_hexasmal","recordid":"55c6c25396e281d9d71e93d00ce5793e5f54f852","fields":{"nom_de_la_commune":"LACHAMP","libell_d_acheminement":"LACHAMP","code_postal":"48100","coordonnees_gps":[44.608308126,3.37038501649],"code_commune_insee":"48078"},"geometry":{"type":"Point","coordinates":[3.37038501649,44.608308126]},"record_timestamp":"2016-05-09T15:17:00+02:00"},{"datasetid":"laposte_hexasmal","recordid":"4acb9b91d62a27e7e2600c51fb10f6c8b8a839bb","fields":{"nom_de_la_commune":"LAVAL ATGER","libell_d_acheminement":"LAVAL ATGER","code_postal":"48600","coordonnees_gps":[44.8022090372,3.70257877423],"code_commune_insee":"48084"},"geometry":{"type":"Point","coordinates":[3.70257877423,44.8022090372]},"record_timestamp":"2016-05-09T15:17:00+02:00"},{"datasetid":"laposte_hexasmal","recordid":"a83042b0a49b57ca83e32efab643165d854ef882","fields":{"nom_de_la_commune":"MARCHASTEL","libell_d_acheminement":"MARCHASTEL","code_postal":"48260","coordonnees_gps":[44.6417575332,3.10788054889],"code_commune_insee":"48091"},"geometry":{"type":"Point","coordinates":[3.10788054889,44.6417575332]},"record_timestamp":"2016-05-09T15:17:00+02:00"},{"datasetid":"laposte_hexasmal","recordid":"dcc03a3c21a2e793d58abfe7004b210e3dd6cdf6","fields":{"nom_de_la_commune":"MARVEJOLS","libell_d_acheminement":"MARVEJOLS","code_postal":"48100","coordonnees_gps":[44.5581181858,3.28780886743],"code_commune_insee":"48092"},"geometry":{"type":"Point","coordinates":[3.28780886743,44.5581181858]},"record_timestamp":"2016-05-09T15:17:00+02:00"},{"datasetid":"laposte_hexasmal","recordid":"0656ea03865c40ee51e37fd79a02dd96bbdcb681","fields":{"nom_de_la_commune":"LE MASSEGROS","libell_d_acheminement":"LE MASSEGROS","code_postal":"48500","coordonnees_gps":[44.2937484234,3.15910137508],"code_commune_insee":"48094"},"geometry":{"type":"Point","coordinates":[3.15910137508,44.2937484234]},"record_timestamp":"2016-05-09T15:17:00+02:00"},{"datasetid":"laposte_hexasmal","recordid":"d5d6e7e51472839112fea0083ff5c1d147996715","fields":{"nom_de_la_commune":"MENDE","libell_d_acheminement":"MENDE","code_postal":"48000","coordonnees_gps":[44.5294508592,3.48086881176],"code_commune_insee":"48095"},"geometry":{"type":"Point","coordinates":[3.48086881176,44.5294508592]},"record_timestamp":"2016-05-09T15:17:00+02:00"},{"datasetid":"laposte_hexasmal","recordid":"eae38ba038d228644018ae504d94962481b993ec","fields":{"code_postal":"48100","code_commune_insee":"48099","libell_d_acheminement":"BOURGS SUR COLAGNE","ligne_5":"LE MONASTIER PIN MORIES","nom_de_la_commune":"BOURGS SUR COLAGNE","coordonnees_gps":[44.5109335104,3.22653031553]},"geometry":{"type":"Point","coordinates":[3.22653031553,44.5109335104]},"record_timestamp":"2016-05-09T15:17:00+02:00"},{"datasetid":"laposte_hexasmal","recordid":"8e177cad728b6a3ab8c97ea25927b8f1958107d7","fields":{"code_postal":"48100","code_commune_insee":"48099","libell_d_acheminement":"BOURGS SUR COLAGNE","ligne_5":"PIN MORIES","nom_de_la_commune":"BOURGS SUR COLAGNE","coordonnees_gps":[44.5109335104,3.22653031553]},"geometry":{"type":"Point","coordinates":[3.22653031553,44.5109335104]},"record_timestamp":"2016-05-09T15:17:00+02:00"},{"datasetid":"laposte_hexasmal","recordid":"9bb631189d7aa60c405a0484c992b773f4d9e002","fields":{"nom_de_la_commune":"NASBINALS","libell_d_acheminement":"NASBINALS","code_postal":"48260","coordonnees_gps":[44.6444140961,3.04893734063],"code_commune_insee":"48104"},"geometry":{"type":"Point","coordinates":[3.04893734063,44.6444140961]},"record_timestamp":"2016-05-09T15:17:00+02:00"},{"datasetid":"laposte_hexasmal","recordid":"01356398878feebc693a723ea3d5fdffa8eb0f68","fields":{"nom_de_la_commune":"PALHERS","libell_d_acheminement":"PALHERS","code_postal":"48100","coordonnees_gps":[44.5204094847,3.30780766253],"code_commune_insee":"48107"},"geometry":{"type":"Point","coordinates":[3.30780766253,44.5204094847]},"record_timestamp":"2016-05-09T15:17:00+02:00"},{"datasetid":"laposte_hexasmal","recordid":"cd719ef75d723133a346e7bd5b946c92697f201c","fields":{"nom_de_la_commune":"PAULHAC EN MARGERIDE","libell_d_acheminement":"PAULHAC EN MARGERIDE","code_postal":"48140","coordonnees_gps":[44.9435917668,3.38544485053],"code_commune_insee":"48110"},"geometry":{"type":"Point","coordinates":[3.38544485053,44.9435917668]},"record_timestamp":"2016-05-09T15:17:00+02:00"},{"datasetid":"laposte_hexasmal","recordid":"dd55a7d31ec31c9f149d8da27fb1472327bc96fb","fields":{"nom_de_la_commune":"POURCHARESSES","libell_d_acheminement":"POURCHARESSES","code_postal":"48800","coordonnees_gps":[44.434038613,3.89869744048],"code_commune_insee":"48117"},"geometry":{"type":"Point","coordinates":[3.89869744048,44.434038613]},"record_timestamp":"2016-05-09T15:17:00+02:00"},{"datasetid":"laposte_hexasmal","recordid":"a0462522692892b9047c91b38fbd637c3b1fbde5","fields":{"code_postal":"48320","code_commune_insee":"48122","libell_d_acheminement":"QUEZAC","ligne_5":"BLAJOUX","nom_de_la_commune":"QUEZAC","coordonnees_gps":[44.3551038651,3.51863359908]},"geometry":{"type":"Point","coordinates":[3.51863359908,44.3551038651]},"record_timestamp":"2016-05-09T15:17:00+02:00"},{"datasetid":"laposte_hexasmal","recordid":"42ed5c14fcfd48df4acd2df8d67dc9eecbe35ff5","fields":{"nom_de_la_commune":"LE RECOUX","libell_d_acheminement":"LE RECOUX","code_postal":"48500","coordonnees_gps":[44.3437335898,3.16392711408],"code_commune_insee":"48125"},"geometry":{"type":"Point","coordinates":[3.16392711408,44.3437335898]},"record_timestamp":"2016-05-09T15:17:00+02:00"},{"datasetid":"laposte_hexasmal","recordid":"adab3c4e7316e88511fd378e7a239dcbabfc641e","fields":{"nom_de_la_commune":"LE ROZIER","libell_d_acheminement":"LE ROZIER","code_postal":"48150","coordonnees_gps":[44.1953326945,3.21846877697],"code_commune_insee":"48131"},"geometry":{"type":"Point","coordinates":[3.21846877697,44.1953326945]},"record_timestamp":"2016-05-09T15:17:00+02:00"},{"datasetid":"laposte_hexasmal","recordid":"ecfaa7b9486d78e2520ba3271e3c137154a6faca","fields":{"nom_de_la_commune":"ST ANDRE DE LANCIZE","libell_d_acheminement":"ST ANDRE DE LANCIZE","code_postal":"48240","coordonnees_gps":[44.2738839787,3.79461663158],"code_commune_insee":"48136"},"geometry":{"type":"Point","coordinates":[3.79461663158,44.2738839787]},"record_timestamp":"2016-05-09T15:17:00+02:00"},{"datasetid":"laposte_hexasmal","recordid":"1cbbf18b3cb0312459434748d0c07c83d6cf6264","fields":{"nom_de_la_commune":"ST ETIENNE VALLEE FRANCAISE","libell_d_acheminement":"ST ETIENNE VALLEE FRANCAISE","code_postal":"48330","coordonnees_gps":[44.1711188054,3.8568943356],"code_commune_insee":"48148"},"geometry":{"type":"Point","coordinates":[3.8568943356,44.1711188054]},"record_timestamp":"2016-05-09T15:17:00+02:00"},{"datasetid":"laposte_hexasmal","recordid":"06b93848c3d0d21953489f9a1d94b84fc2a1ae0d","fields":{"nom_de_la_commune":"ST GEORGES DE LEVEJAC","libell_d_acheminement":"ST GEORGES DE LEVEJAC","code_postal":"48500","coordonnees_gps":[44.3347458529,3.23583489511],"code_commune_insee":"48154"},"geometry":{"type":"Point","coordinates":[3.23583489511,44.3347458529]},"record_timestamp":"2016-05-09T15:17:00+02:00"},{"datasetid":"laposte_hexasmal","recordid":"0439d5f04f54b92b7169aa29c607068a3d6bae30","fields":{"nom_de_la_commune":"ST MARTIN DE LANSUSCLE","libell_d_acheminement":"ST MARTIN DE LANSUSCLE","code_postal":"48110","coordonnees_gps":[44.2230644532,3.75067066931],"code_commune_insee":"48171"},"geometry":{"type":"Point","coordinates":[3.75067066931,44.2230644532]},"record_timestamp":"2016-05-09T15:17:00+02:00"},{"datasetid":"laposte_hexasmal","recordid":"003598d6bf0bf91b75a021881b747c38753597e0","fields":{"nom_de_la_commune":"ST PIERRE DES TRIPIERS","libell_d_acheminement":"ST PIERRE DES TRIPIERS","code_postal":"48150","coordonnees_gps":[44.2243200504,3.26998184024],"code_commune_insee":"48176"},"geometry":{"type":"Point","coordinates":[3.26998184024,44.2243200504]},"record_timestamp":"2016-05-09T15:17:00+02:00"},{"datasetid":"laposte_hexasmal","recordid":"10bf64b9182e0910520385cdb9c517b482e01d49","fields":{"nom_de_la_commune":"ST PRIVAT DE VALLONGUE","libell_d_acheminement":"ST PRIVAT DE VALLONGUE","code_postal":"48240","coordonnees_gps":[44.2854432826,3.82446827604],"code_commune_insee":"48178"},"geometry":{"type":"Point","coordinates":[3.82446827604,44.2854432826]},"record_timestamp":"2016-05-09T15:17:00+02:00"},{"datasetid":"laposte_hexasmal","recordid":"85163c23b053694f070b3aae81ed202da9c5e843","fields":{"nom_de_la_commune":"ST SATURNIN","libell_d_acheminement":"ST SATURNIN","code_postal":"48500","coordonnees_gps":[44.405047281,3.1969905802],"code_commune_insee":"48181"},"geometry":{"type":"Point","coordinates":[3.1969905802,44.405047281]},"record_timestamp":"2016-05-09T15:17:00+02:00"},{"datasetid":"laposte_hexasmal","recordid":"345d980a23554b05a2583e5993688e53439f89dd","fields":{"nom_de_la_commune":"ST SYMPHORIEN","libell_d_acheminement":"ST SYMPHORIEN","code_postal":"48600","coordonnees_gps":[44.8399709197,3.62339715605],"code_commune_insee":"48184"},"geometry":{"type":"Point","coordinates":[3.62339715605,44.8399709197]},"record_timestamp":"2016-05-09T15:17:00+02:00"},{"datasetid":"laposte_hexasmal","recordid":"ca6d57151bad94f131591e4d4ea57ab7cf005784","fields":{"code_postal":"48400","code_commune_insee":"48193","libell_d_acheminement":"VEBRON","ligne_5":"LES VANELS","nom_de_la_commune":"VEBRON","coordonnees_gps":[44.2551348683,3.54353418299]},"geometry":{"type":"Point","coordinates":[3.54353418299,44.2551348683]},"record_timestamp":"2016-05-09T15:17:00+02:00"},{"datasetid":"laposte_hexasmal","recordid":"def9f2a5f6aa29bff3441e89b56c9c54237fbda1","fields":{"nom_de_la_commune":"LA VILLEDIEU","libell_d_acheminement":"LA VILLEDIEU","code_postal":"48700","coordonnees_gps":[44.7170082266,3.53559461062],"code_commune_insee":"48197"},"geometry":{"type":"Point","coordinates":[3.53559461062,44.7170082266]},"record_timestamp":"2016-05-09T15:17:00+02:00"},{"datasetid":"laposte_hexasmal","recordid":"0b87843babd36f80aff4d7eeb5083df82d321b63","fields":{"code_postal":"48800","code_commune_insee":"48198","libell_d_acheminement":"VILLEFORT","ligne_5":"MAS DE LA BARQUE","nom_de_la_commune":"VILLEFORT","coordonnees_gps":[44.4441033418,3.93038185016]},"geometry":{"type":"Point","coordinates":[3.93038185016,44.4441033418]},"record_timestamp":"2016-05-09T15:17:00+02:00"},{"datasetid":"laposte_hexasmal","recordid":"aa75fca296dd361cc616e155774167e0a262de8d","fields":{"nom_de_la_commune":"LAVEYRUNE","libell_d_acheminement":"LAVEYRUNE","code_postal":"48250","coordonnees_gps":[44.6207258816,3.91933819175],"code_commune_insee":"07136"},"geometry":{"type":"Point","coordinates":[3.91933819175,44.6207258816]},"record_timestamp":"2016-05-09T15:17:00+02:00"},{"datasetid":"laposte_hexasmal","recordid":"3dac1c832dda0f1f166b295d98f724ec6e790c70","fields":{"nom_de_la_commune":"ALBARET LE COMTAL","libell_d_acheminement":"ALBARET LE COMTAL","code_postal":"48310","coordonnees_gps":[44.8676627998,3.14383678125],"code_commune_insee":"48001"},"geometry":{"type":"Point","coordinates":[3.14383678125,44.8676627998]},"record_timestamp":"2016-05-09T15:17:00+02:00"},{"datasetid":"laposte_hexasmal","recordid":"dbcc328f56789159ff0c3c6bc7d0151942a30f61","fields":{"nom_de_la_commune":"ARZENC D APCHER","libell_d_acheminement":"ARZENC D APCHER","code_postal":"48310","coordonnees_gps":[44.8446740951,3.11215598428],"code_commune_insee":"48007"},"geometry":{"type":"Point","coordinates":[3.11215598428,44.8446740951]},"record_timestamp":"2016-05-09T15:17:00+02:00"},{"datasetid":"laposte_hexasmal","recordid":"b1f9b829be90157981a60627d9eeb3857e913d0d","fields":{"nom_de_la_commune":"AUROUX","libell_d_acheminement":"AUROUX","code_postal":"48600","coordonnees_gps":[44.7574886567,3.72694597224],"code_commune_insee":"48010"},"geometry":{"type":"Point","coordinates":[3.72694597224,44.7574886567]},"record_timestamp":"2016-05-09T15:17:00+02:00"},{"datasetid":"laposte_hexasmal","recordid":"038493ca6f39e28120945d9a1ab13425b9aa7f0b","fields":{"code_postal":"48200","code_commune_insee":"48012","libell_d_acheminement":"LES MONTS VERTS","ligne_5":"BERC","nom_de_la_commune":"LES MONTS VERTS","coordonnees_gps":[44.8489134822,3.22180661807]},"geometry":{"type":"Point","coordinates":[3.22180661807,44.8489134822]},"record_timestamp":"2016-05-09T15:17:00+02:00"},{"datasetid":"laposte_hexasmal","recordid":"746f836604abe2b02bc96e6eed0989c7e2c54a62","fields":{"code_postal":"48500","code_commune_insee":"48017","libell_d_acheminement":"BANASSAC CANILHAC","ligne_5":"CANILHAC","nom_de_la_commune":"BANASSAC CANILHAC","coordonnees_gps":[44.4325411696,3.17908745544]},"geometry":{"type":"Point","coordinates":[3.17908745544,44.4325411696]},"record_timestamp":"2016-05-09T15:17:00+02:00"},{"datasetid":"laposte_hexasmal","recordid":"06edb834386f3bfdbe6645830524b421f95ef6e2","fields":{"nom_de_la_commune":"BLAVIGNAC","libell_d_acheminement":"BLAVIGNAC","code_postal":"48200","coordonnees_gps":[44.8710692879,3.28412988196],"code_commune_insee":"48026"},"geometry":{"type":"Point","coordinates":[3.28412988196,44.8710692879]},"record_timestamp":"2016-05-09T15:17:00+02:00"},{"datasetid":"laposte_hexasmal","recordid":"7532e820098d62d1f508ffd5b011753b8e163085","fields":{"nom_de_la_commune":"CASSAGNAS","libell_d_acheminement":"CASSAGNAS","code_postal":"48400","coordonnees_gps":[44.2769981093,3.73641506874],"code_commune_insee":"48036"},"geometry":{"type":"Point","coordinates":[3.73641506874,44.2769981093]},"record_timestamp":"2016-05-09T15:17:00+02:00"},{"datasetid":"laposte_hexasmal","recordid":"900c34d6d7f62205ac0d02259c5002b9dbdf27b1","fields":{"nom_de_la_commune":"CHAMBON LE CHATEAU","libell_d_acheminement":"CHAMBON LE CHATEAU","code_postal":"48600","coordonnees_gps":[44.8556410691,3.65464522563],"code_commune_insee":"48038"},"geometry":{"type":"Point","coordinates":[3.65464522563,44.8556410691]},"record_timestamp":"2016-05-09T15:17:00+02:00"},{"datasetid":"laposte_hexasmal","recordid":"d53455442df15f84bfa963ff64eca13a0fbf1df7","fields":{"code_postal":"48230","code_commune_insee":"48039","libell_d_acheminement":"CHANAC","ligne_5":"LE VILLARD","nom_de_la_commune":"CHANAC","coordonnees_gps":[44.4502200567,3.34457977647]},"geometry":{"type":"Point","coordinates":[3.34457977647,44.4502200567]},"record_timestamp":"2016-05-09T15:17:00+02:00"},{"datasetid":"laposte_hexasmal","recordid":"47e35258941f776b359945a05574c3289560e063","fields":{"nom_de_la_commune":"CHASSERADES","libell_d_acheminement":"CHASSERADES","code_postal":"48250","coordonnees_gps":[44.5519524888,3.82030750728],"code_commune_insee":"48040"},"geometry":{"type":"Point","coordinates":[3.82030750728,44.5519524888]},"record_timestamp":"2016-05-09T15:17:00+02:00"},{"datasetid":"laposte_hexasmal","recordid":"9c6d36f4db2305ee5c5a76d13954581604f47f33","fields":{"nom_de_la_commune":"CHATEAUNEUF DE RANDON","libell_d_acheminement":"CHATEAUNEUF DE RANDON","code_postal":"48170","coordonnees_gps":[44.6479862625,3.68590972615],"code_commune_insee":"48043"},"geometry":{"type":"Point","coordinates":[3.68590972615,44.6479862625]},"record_timestamp":"2016-05-09T15:17:00+02:00"},{"datasetid":"laposte_hexasmal","recordid":"0329d853e181b6220536412a8eb812a5192ad3c7","fields":{"nom_de_la_commune":"CHAUCHAILLES","libell_d_acheminement":"CHAUCHAILLES","code_postal":"48310","coordonnees_gps":[44.7932282466,3.07355645186],"code_commune_insee":"48044"},"geometry":{"type":"Point","coordinates":[3.07355645186,44.7932282466]},"record_timestamp":"2016-05-09T15:17:00+02:00"},{"datasetid":"laposte_hexasmal","recordid":"9fd4d850cdfe635fb749acaa0efc654278388d68","fields":{"nom_de_la_commune":"CHEYLARD L EVEQUE","libell_d_acheminement":"CHEYLARD L EVEQUE","code_postal":"48300","coordonnees_gps":[44.6315294707,3.80974114923],"code_commune_insee":"48048"},"geometry":{"type":"Point","coordinates":[3.80974114923,44.6315294707]},"record_timestamp":"2016-05-09T15:17:00+02:00"},{"datasetid":"laposte_hexasmal","recordid":"ca0a855a1d178a5a89b64fec48e6192ee97c21bc","fields":{"nom_de_la_commune":"BEDOUES COCURES","libell_d_acheminement":"BEDOUES COCURES","code_postal":"48400","coordonnees_gps":[44.3539456684,3.61955972065],"code_commune_insee":"48050"},"geometry":{"type":"Point","coordinates":[3.61955972065,44.3539456684]},"record_timestamp":"2016-05-09T15:17:00+02:00"},{"datasetid":"laposte_hexasmal","recordid":"6d1f8aa7ade4b27a223fa273d35520deb7146939","fields":{"code_postal":"48400","code_commune_insee":"48050","libell_d_acheminement":"BEDOUES COCURES","ligne_5":"BEDOUES","nom_de_la_commune":"BEDOUES COCURES","coordonnees_gps":[44.3539456684,3.61955972065]},"geometry":{"type":"Point","coordinates":[3.61955972065,44.3539456684]},"record_timestamp":"2016-05-09T15:17:00+02:00"},{"datasetid":"laposte_hexasmal","recordid":"cc909bc08d53a3c93b21caaf931d02f1b99ec57e","fields":{"nom_de_la_commune":"ESCLANEDES","libell_d_acheminement":"ESCLANEDES","code_postal":"48230","coordonnees_gps":[44.4813587557,3.36743197603],"code_commune_insee":"48056"},"geometry":{"type":"Point","coordinates":[3.36743197603,44.4813587557]},"record_timestamp":"2016-05-09T15:17:00+02:00"},{"datasetid":"laposte_hexasmal","recordid":"ab4abb3264338d4e6b31029172810c31eb9cf2e6","fields":{"code_postal":"48400","code_commune_insee":"48061","libell_d_acheminement":"FLORAC TROIS RIVIERES","ligne_5":"LA SALLE PRUNET","nom_de_la_commune":"FLORAC TROIS RIVIERES","coordonnees_gps":[44.3162079295,3.58273527435]},"geometry":{"type":"Point","coordinates":[3.58273527435,44.3162079295]},"record_timestamp":"2016-05-09T15:17:00+02:00"},{"datasetid":"laposte_hexasmal","recordid":"d4a3b184aa7f317a4a561e64c7618d955831ad84","fields":{"nom_de_la_commune":"FONTANS","libell_d_acheminement":"FONTANS","code_postal":"48700","coordonnees_gps":[44.7447322312,3.37636258527],"code_commune_insee":"48063"},"geometry":{"type":"Point","coordinates":[3.37636258527,44.7447322312]},"record_timestamp":"2016-05-09T15:17:00+02:00"},{"datasetid":"laposte_hexasmal","recordid":"8b7ba83da727e9ac508d5a408f40a1f458c62570","fields":{"nom_de_la_commune":"FRAISSINET DE FOURQUES","libell_d_acheminement":"FRAISSINET DE FOURQUES","code_postal":"48400","coordonnees_gps":[44.2089087169,3.53134006271],"code_commune_insee":"48065"},"geometry":{"type":"Point","coordinates":[3.53134006271,44.2089087169]},"record_timestamp":"2016-05-09T15:17:00+02:00"},{"datasetid":"laposte_hexasmal","recordid":"2b1299449967027ccc5afc2de41f0ce54a138476","fields":{"nom_de_la_commune":"GABRIAC","libell_d_acheminement":"GABRIAC","code_postal":"48110","coordonnees_gps":[44.1784497946,3.71130756296],"code_commune_insee":"48067"},"geometry":{"type":"Point","coordinates":[3.71130756296,44.1784497946]},"record_timestamp":"2016-05-09T15:17:00+02:00"},{"datasetid":"laposte_hexasmal","recordid":"a96b96c759e059a998cc820d1a11af3e47056d23","fields":{"nom_de_la_commune":"GRANDVALS","libell_d_acheminement":"GRANDVALS","code_postal":"48260","coordonnees_gps":[44.7313582398,3.05208837669],"code_commune_insee":"48071"},"geometry":{"type":"Point","coordinates":[3.05208837669,44.7313582398]},"record_timestamp":"2016-05-09T15:17:00+02:00"},{"datasetid":"laposte_hexasmal","recordid":"adf3a99c7bd805dcc6d83da53836bd7fb069a446","fields":{"nom_de_la_commune":"LES HERMAUX","libell_d_acheminement":"LES HERMAUX","code_postal":"48340","coordonnees_gps":[44.5235838442,3.13204161699],"code_commune_insee":"48073"},"geometry":{"type":"Point","coordinates":[3.13204161699,44.5235838442]},"record_timestamp":"2016-05-09T15:17:00+02:00"},{"datasetid":"laposte_hexasmal","recordid":"23dc44c487db306b34a76579825acf3f459af786","fields":{"nom_de_la_commune":"LAVAL DU TARN","libell_d_acheminement":"LAVAL DU TARN","code_postal":"48500","coordonnees_gps":[44.3736109677,3.34460539469],"code_commune_insee":"48085"},"geometry":{"type":"Point","coordinates":[3.34460539469,44.3736109677]},"record_timestamp":"2016-05-09T15:17:00+02:00"},{"datasetid":"laposte_hexasmal","recordid":"4649849308a6d35d089d3750d30380196df856fc","fields":{"nom_de_la_commune":"LUC","libell_d_acheminement":"LUC","code_postal":"48250","coordonnees_gps":[44.6366875851,3.86550888829],"code_commune_insee":"48086"},"geometry":{"type":"Point","coordinates":[3.86550888829,44.6366875851]},"record_timestamp":"2016-05-09T15:17:00+02:00"},{"datasetid":"laposte_hexasmal","recordid":"d0d27124541523e3b61223a737e3e72ae36ee58a","fields":{"nom_de_la_commune":"MOLEZON","libell_d_acheminement":"MOLEZON","code_postal":"48110","coordonnees_gps":[44.2188601955,3.69509468816],"code_commune_insee":"48098"},"geometry":{"type":"Point","coordinates":[3.69509468816,44.2188601955]},"record_timestamp":"2016-05-09T15:17:00+02:00"},{"datasetid":"laposte_hexasmal","recordid":"1099d96b6a85b9c6d9d221dd771a3ab994dd919f","fields":{"code_postal":"48300","code_commune_insee":"48105","libell_d_acheminement":"NAUSSAC FONTANES","ligne_5":"FONTANES","nom_de_la_commune":"NAUSSAC FONTANES","coordonnees_gps":[44.7573739721,3.8000356543]},"geometry":{"type":"Point","coordinates":[3.8000356543,44.7573739721]},"record_timestamp":"2016-05-09T15:17:00+02:00"},{"datasetid":"laposte_hexasmal","recordid":"209ba4781bb3ef598ddb9f678f0b322b8460db72","fields":{"nom_de_la_commune":"LA PANOUSE","libell_d_acheminement":"LA PANOUSE","code_postal":"48600","coordonnees_gps":[44.7368256595,3.58794717174],"code_commune_insee":"48108"},"geometry":{"type":"Point","coordinates":[3.58794717174,44.7368256595]},"record_timestamp":"2016-05-09T15:17:00+02:00"},{"datasetid":"laposte_hexasmal","recordid":"85f3707343a42e330e1390ee232089376085bd29","fields":{"nom_de_la_commune":"PELOUSE","libell_d_acheminement":"PELOUSE","code_postal":"48000","coordonnees_gps":[44.5725282842,3.60664798147],"code_commune_insee":"48111"},"geometry":{"type":"Point","coordinates":[3.60664798147,44.5725282842]},"record_timestamp":"2016-05-09T15:17:00+02:00"},{"datasetid":"laposte_hexasmal","recordid":"8c4ea737604e1d51f379fe20f9b9cf7d3720930b","fields":{"code_postal":"48220","code_commune_insee":"48116","libell_d_acheminement":"PONT DE MONTVERT SUD MONT LOZERE","ligne_5":"FRAISSINET DE LOZERE","nom_de_la_commune":"PONT DE MONTVERT SUD MONT LOZERE","coordonnees_gps":[44.3742853816,3.76917997857]},"geometry":{"type":"Point","coordinates":[3.76917997857,44.3742853816]},"record_timestamp":"2016-05-09T15:17:00+02:00"},{"datasetid":"laposte_hexasmal","recordid":"cae2d220f4a3683b2cd77ddb40f394291e308889","fields":{"nom_de_la_commune":"QUEZAC","libell_d_acheminement":"QUEZAC","code_postal":"48320","coordonnees_gps":[44.3551038651,3.51863359908],"code_commune_insee":"48122"},"geometry":{"type":"Point","coordinates":[3.51863359908,44.3551038651]},"record_timestamp":"2016-05-09T15:17:00+02:00"},{"datasetid":"laposte_hexasmal","recordid":"69349c9aa7f5722eeeee012c6430fef6470c1059","fields":{"nom_de_la_commune":"ST AMANS","libell_d_acheminement":"ST AMANS","code_postal":"48700","coordonnees_gps":[44.6683375494,3.45507468285],"code_commune_insee":"48133"},"geometry":{"type":"Point","coordinates":[3.45507468285,44.6683375494]},"record_timestamp":"2016-05-09T15:17:00+02:00"},{"datasetid":"laposte_hexasmal","recordid":"9b694b0e5a90e3b717b1ffe71b0319ca54c1ba43","fields":{"nom_de_la_commune":"ST BAUZILE","libell_d_acheminement":"ST BAUZILE","code_postal":"48000","coordonnees_gps":[44.4690744788,3.49143883359],"code_commune_insee":"48137"},"geometry":{"type":"Point","coordinates":[3.49143883359,44.4690744788]},"record_timestamp":"2016-05-09T15:17:00+02:00"},{"datasetid":"laposte_hexasmal","recordid":"e8aa97cabc8e8d9a43bfd4863323761924993297","fields":{"nom_de_la_commune":"ST BONNET DE CHIRAC","libell_d_acheminement":"ST BONNET DE CHIRAC","code_postal":"48100","coordonnees_gps":[44.5036552745,3.27693458859],"code_commune_insee":"48138"},"geometry":{"type":"Point","coordinates":[3.27693458859,44.5036552745]},"record_timestamp":"2016-05-09T15:17:00+02:00"},{"datasetid":"laposte_hexasmal","recordid":"13fe1fbdb1e0a2f16e5f008fac1f81d3e231b8df","fields":{"nom_de_la_commune":"ST CHELY D APCHER","libell_d_acheminement":"ST CHELY D APCHER","code_postal":"48200","coordonnees_gps":[44.8126363545,3.2751576154],"code_commune_insee":"48140"},"geometry":{"type":"Point","coordinates":[3.2751576154,44.8126363545]},"record_timestamp":"2016-05-09T15:17:00+02:00"},{"datasetid":"laposte_hexasmal","recordid":"97ae55e44f05bd8ca8f4f9b029f21ed97e418a20","fields":{"nom_de_la_commune":"ST DENIS EN MARGERIDE","libell_d_acheminement":"ST DENIS EN MARGERIDE","code_postal":"48700","coordonnees_gps":[44.7410960032,3.47353884292],"code_commune_insee":"48145"},"geometry":{"type":"Point","coordinates":[3.47353884292,44.7410960032]},"record_timestamp":"2016-05-09T15:17:00+02:00"},{"datasetid":"laposte_hexasmal","recordid":"9536e780cb4544243561e66afdc04ff0dff439f3","fields":{"nom_de_la_commune":"STE ENIMIE","libell_d_acheminement":"STE ENIMIE","code_postal":"48210","coordonnees_gps":[44.3777129567,3.41934570392],"code_commune_insee":"48146"},"geometry":{"type":"Point","coordinates":[3.41934570392,44.3777129567]},"record_timestamp":"2016-05-09T15:17:00+02:00"},{"datasetid":"laposte_hexasmal","recordid":"da4c0db7e7a73ea19dcca960cd06af253927e0b5","fields":{"code_postal":"48210","code_commune_insee":"48146","libell_d_acheminement":"STE ENIMIE","ligne_5":"PRADES","nom_de_la_commune":"STE ENIMIE","coordonnees_gps":[44.3777129567,3.41934570392]},"geometry":{"type":"Point","coordinates":[3.41934570392,44.3777129567]},"record_timestamp":"2016-05-09T15:17:00+02:00"},{"datasetid":"laposte_hexasmal","recordid":"920bab869f414fe58a47ba9b5e871422e3e4bc94","fields":{"nom_de_la_commune":"ST FLOUR DE MERCOIRE","libell_d_acheminement":"ST FLOUR DE MERCOIRE","code_postal":"48300","coordonnees_gps":[44.6814106122,3.82941959224],"code_commune_insee":"48150"},"geometry":{"type":"Point","coordinates":[3.82941959224,44.6814106122]},"record_timestamp":"2016-05-09T15:17:00+02:00"},{"datasetid":"laposte_hexasmal","recordid":"05151f31907927c674cb6ec766573a2eaeea6a49","fields":{"nom_de_la_commune":"ST FREZAL D ALBUGES","libell_d_acheminement":"ST FREZAL D ALBUGES","code_postal":"48170","coordonnees_gps":[44.580874652,3.76717918984],"code_commune_insee":"48151"},"geometry":{"type":"Point","coordinates":[3.76717918984,44.580874652]},"record_timestamp":"2016-05-09T15:17:00+02:00"},{"datasetid":"laposte_hexasmal","recordid":"b9fad2d509b269d643a6d8726345f9beb5b8667b","fields":{"code_postal":"48160","code_commune_insee":"48152","libell_d_acheminement":"VENTALON EN CEVENNES","ligne_5":"ST ANDEOL DE CLERGUEMORT","nom_de_la_commune":"VENTALON EN CEVENNES","coordonnees_gps":[44.2940872699,3.8666152032]},"geometry":{"type":"Point","coordinates":[3.8666152032,44.2940872699]},"record_timestamp":"2016-05-09T15:17:00+02:00"},{"datasetid":"laposte_hexasmal","recordid":"87958eee70d037d336d9d759a445268e3f460fc1","fields":{"nom_de_la_commune":"ST GERMAIN DE CALBERTE","libell_d_acheminement":"ST GERMAIN DE CALBERTE","code_postal":"48370","coordonnees_gps":[44.2216658847,3.81002631474],"code_commune_insee":"48155"},"geometry":{"type":"Point","coordinates":[3.81002631474,44.2216658847]},"record_timestamp":"2016-05-09T15:17:00+02:00"},{"datasetid":"laposte_hexasmal","recordid":"d8f8cb726e7604551056b3b99e6bab58b3369f27","fields":{"nom_de_la_commune":"ST JULIEN DU TOURNEL","libell_d_acheminement":"ST JULIEN DU TOURNEL","code_postal":"48190","coordonnees_gps":[44.4951981731,3.67969267896],"code_commune_insee":"48164"},"geometry":{"type":"Point","coordinates":[3.67969267896,44.4951981731]},"record_timestamp":"2016-05-09T15:17:00+02:00"},{"datasetid":"laposte_hexasmal","recordid":"1a6bfed3de9bb96560d9bb5a92e1ca13e76fbdec","fields":{"nom_de_la_commune":"ST LEGER DU MALZIEU","libell_d_acheminement":"ST LEGER DU MALZIEU","code_postal":"48140","coordonnees_gps":[44.8986893937,3.31608500848],"code_commune_insee":"48169"},"geometry":{"type":"Point","coordinates":[3.31608500848,44.8986893937]},"record_timestamp":"2016-05-09T15:17:00+02:00"},{"datasetid":"laposte_hexasmal","recordid":"40d4fb90cc9a6f25e90c32e88f16778ab312ff2c","fields":{"nom_de_la_commune":"ST PAUL LE FROID","libell_d_acheminement":"ST PAUL LE FROID","code_postal":"48600","coordonnees_gps":[44.7953874731,3.5412624136],"code_commune_insee":"48174"},"geometry":{"type":"Point","coordinates":[3.5412624136,44.7953874731]},"record_timestamp":"2016-05-09T15:17:00+02:00"},{"datasetid":"laposte_hexasmal","recordid":"10d9080872dcb223161bd4d68ef7d1dfaadc138b","fields":{"nom_de_la_commune":"ST PRIVAT DU FAU","libell_d_acheminement":"ST PRIVAT DU FAU","code_postal":"48140","coordonnees_gps":[44.9186181805,3.35635253803],"code_commune_insee":"48179"},"geometry":{"type":"Point","coordinates":[3.35635253803,44.9186181805]},"record_timestamp":"2016-05-09T15:17:00+02:00"},{"datasetid":"laposte_hexasmal","recordid":"e81c351182675f63a19dd8e304ce43824ce1336c","fields":{"nom_de_la_commune":"ST SAUVEUR DE PEYRE","libell_d_acheminement":"ST SAUVEUR DE PEYRE","code_postal":"48130","coordonnees_gps":[44.652810778,3.2885496609],"code_commune_insee":"48183"},"geometry":{"type":"Point","coordinates":[3.2885496609,44.652810778]},"record_timestamp":"2016-05-09T15:17:00+02:00"},{"datasetid":"laposte_hexasmal","recordid":"f6c5f24edee1dc35b41bce1aee4177ebbece87c4","fields":{"nom_de_la_commune":"LES SALCES","libell_d_acheminement":"LES SALCES","code_postal":"48100","coordonnees_gps":[44.5611463487,3.13595674342],"code_commune_insee":"48187"},"geometry":{"type":"Point","coordinates":[3.13595674342,44.5611463487]},"record_timestamp":"2016-05-09T15:17:00+02:00"},{"datasetid":"laposte_hexasmal","recordid":"9f275d7844e8c48d7f168e8f444cb8ec911d8bff","fields":{"nom_de_la_commune":"SERVERETTE","libell_d_acheminement":"SERVERETTE","code_postal":"48700","coordonnees_gps":[44.7000537421,3.39168881156],"code_commune_insee":"48188"},"geometry":{"type":"Point","coordinates":[3.39168881156,44.7000537421]},"record_timestamp":"2016-05-09T15:17:00+02:00"},{"datasetid":"laposte_hexasmal","recordid":"117b66c7f3ac6bd0da1ef7ecbe6641f059f1844d","fields":{"nom_de_la_commune":"LES VIGNES","libell_d_acheminement":"LES VIGNES","code_postal":"48210","coordonnees_gps":[44.268883271,3.25062860598],"code_commune_insee":"48195"},"geometry":{"type":"Point","coordinates":[3.25062860598,44.268883271]},"record_timestamp":"2016-05-09T15:17:00+02:00"},{"datasetid":"laposte_hexasmal","recordid":"03eeae6348f400298f3df693c1c5e0ed39b86ac2","fields":{"code_postal":"48200","code_commune_insee":"48002","libell_d_acheminement":"ALBARET STE MARIE","ligne_5":"LA GARDE","nom_de_la_commune":"ALBARET STE MARIE","coordonnees_gps":[44.8864422814,3.25064355451]},"geometry":{"type":"Point","coordinates":[3.25064355451,44.8864422814]},"record_timestamp":"2016-05-09T15:17:00+02:00"},{"datasetid":"laposte_hexasmal","recordid":"f3fa165fb6639e1b7a6adc1ce198c1f1e12cfc29","fields":{"nom_de_la_commune":"ALTIER","libell_d_acheminement":"ALTIER","code_postal":"48800","coordonnees_gps":[44.459680191,3.85680054017],"code_commune_insee":"48004"},"geometry":{"type":"Point","coordinates":[3.85680054017,44.459680191]},"record_timestamp":"2016-05-09T15:17:00+02:00"},{"datasetid":"laposte_hexasmal","recordid":"248ff8e7390bec10184a4866787725e62d41a8cd","fields":{"nom_de_la_commune":"BAGNOLS LES BAINS","libell_d_acheminement":"BAGNOLS LES BAINS","code_postal":"48190","coordonnees_gps":[44.5110337689,3.66278959249],"code_commune_insee":"48014"},"geometry":{"type":"Point","coordinates":[3.66278959249,44.5110337689]},"record_timestamp":"2016-05-09T15:17:00+02:00"},{"datasetid":"laposte_hexasmal","recordid":"fe2fa12848a0b875363fe657943a75f18f84cce8","fields":{"nom_de_la_commune":"BALSIEGES","libell_d_acheminement":"BALSIEGES","code_postal":"48000","coordonnees_gps":[44.4754747624,3.44126913972],"code_commune_insee":"48016"},"geometry":{"type":"Point","coordinates":[3.44126913972,44.4754747624]},"record_timestamp":"2016-05-09T15:17:00+02:00"},{"datasetid":"laposte_hexasmal","recordid":"64c3457f3ec2aa76c9ac8221d3e3863e3b81ab43","fields":{"nom_de_la_commune":"BARJAC","libell_d_acheminement":"BARJAC","code_postal":"48000","coordonnees_gps":[44.5220189708,3.40925330342],"code_commune_insee":"48018"},"geometry":{"type":"Point","coordinates":[3.40925330342,44.5220189708]},"record_timestamp":"2016-05-09T15:17:00+02:00"},{"datasetid":"laposte_hexasmal","recordid":"77759e204f8dfe41c47e26db1737e86a21ca436e","fields":{"nom_de_la_commune":"LA BASTIDE PUYLAURENT","libell_d_acheminement":"LA BASTIDE PUYLAURENT","code_postal":"48250","coordonnees_gps":[44.5655559984,3.88803843314],"code_commune_insee":"48021"},"geometry":{"type":"Point","coordinates":[3.88803843314,44.5655559984]},"record_timestamp":"2016-05-09T15:17:00+02:00"},{"datasetid":"laposte_hexasmal","recordid":"a5f71725f83e308bca388f102ecc58922fc0e369","fields":{"nom_de_la_commune":"BELVEZET","libell_d_acheminement":"BELVEZET","code_postal":"48170","coordonnees_gps":[44.5556527766,3.74112796046],"code_commune_insee":"48023"},"geometry":{"type":"Point","coordinates":[3.74112796046,44.5556527766]},"record_timestamp":"2016-05-09T15:17:00+02:00"},{"datasetid":"laposte_hexasmal","recordid":"6550f3f4efbf073ed9d36f2277901c62788ab0ac","fields":{"code_postal":"48310","code_commune_insee":"48031","libell_d_acheminement":"BRION","ligne_5":"LA CHALDETTE","nom_de_la_commune":"BRION","coordonnees_gps":[44.7498734557,3.07854846372]},"geometry":{"type":"Point","coordinates":[3.07854846372,44.7498734557]},"record_timestamp":"2016-05-09T15:17:00+02:00"},{"datasetid":"laposte_hexasmal","recordid":"0f071b9089d3c0f65d54e493b35bb5ad061c51df","fields":{"nom_de_la_commune":"LE BUISSON","libell_d_acheminement":"LE BUISSON","code_postal":"48100","coordonnees_gps":[44.6289447122,3.22357816109],"code_commune_insee":"48032"},"geometry":{"type":"Point","coordinates":[3.22357816109,44.6289447122]},"record_timestamp":"2016-05-09T15:17:00+02:00"},{"datasetid":"laposte_hexasmal","recordid":"75773b14ac5874ab84a4126e9f5d1ca4ddbaa760","fields":{"code_postal":"48500","code_commune_insee":"48034","libell_d_acheminement":"LA CANOURGUE","ligne_5":"AUXILLAC","nom_de_la_commune":"LA CANOURGUE","coordonnees_gps":[44.4193711769,3.25711827627]},"geometry":{"type":"Point","coordinates":[3.25711827627,44.4193711769]},"record_timestamp":"2016-05-09T15:17:00+02:00"},{"datasetid":"laposte_hexasmal","recordid":"0a1ed95a102c3ce8bb2747fcd7d26aea44bbece1","fields":{"code_postal":"48500","code_commune_insee":"48034","libell_d_acheminement":"LA CANOURGUE","ligne_5":"LA CAPELLE","nom_de_la_commune":"LA CANOURGUE","coordonnees_gps":[44.4193711769,3.25711827627]},"geometry":{"type":"Point","coordinates":[3.25711827627,44.4193711769]},"record_timestamp":"2016-05-09T15:17:00+02:00"},{"datasetid":"laposte_hexasmal","recordid":"abe5b8955d100520d36d7cab0dd8843cd5d95954","fields":{"nom_de_la_commune":"CHADENET","libell_d_acheminement":"CHADENET","code_postal":"48190","coordonnees_gps":[44.5118082071,3.64019508936],"code_commune_insee":"48037"},"geometry":{"type":"Point","coordinates":[3.64019508936,44.5118082071]},"record_timestamp":"2016-05-09T15:17:00+02:00"},{"datasetid":"laposte_hexasmal","recordid":"5efc4fa0b096284a59bb03afdadbc1fc0ca4b41a","fields":{"nom_de_la_commune":"CUBIERES","libell_d_acheminement":"CUBIERES","code_postal":"48190","coordonnees_gps":[44.475323724,3.7868022391],"code_commune_insee":"48053"},"geometry":{"type":"Point","coordinates":[3.7868022391,44.475323724]},"record_timestamp":"2016-05-09T15:17:00+02:00"},{"datasetid":"laposte_hexasmal","recordid":"e8a6c887d2a1fb86f5b0910e36aa25f0e9822b72","fields":{"nom_de_la_commune":"FAU DE PEYRE","libell_d_acheminement":"FAU DE PEYRE","code_postal":"48130","coordonnees_gps":[44.7389442204,3.21015921593],"code_commune_insee":"48060"},"geometry":{"type":"Point","coordinates":[3.21015921593,44.7389442204]},"record_timestamp":"2016-05-09T15:17:00+02:00"},{"datasetid":"laposte_hexasmal","recordid":"2d5f3052e04bcd6ec9c5152a825cbb61fa5303c5","fields":{"nom_de_la_commune":"ISPAGNAC","libell_d_acheminement":"ISPAGNAC","code_postal":"48320","coordonnees_gps":[44.3984529023,3.53146290562],"code_commune_insee":"48075"},"geometry":{"type":"Point","coordinates":[3.53146290562,44.3984529023]},"record_timestamp":"2016-05-09T15:17:00+02:00"},{"datasetid":"laposte_hexasmal","recordid":"2d1b1fe1159bd19618cf38bc1822922a0c0027da","fields":{"nom_de_la_commune":"JAVOLS","libell_d_acheminement":"JAVOLS","code_postal":"48130","coordonnees_gps":[44.6928904154,3.33324794395],"code_commune_insee":"48076"},"geometry":{"type":"Point","coordinates":[3.33324794395,44.6928904154]},"record_timestamp":"2016-05-09T15:17:00+02:00"},{"datasetid":"laposte_hexasmal","recordid":"c2df96a9fe664e0897b112ccf35e2560214074cf","fields":{"nom_de_la_commune":"LAJO","libell_d_acheminement":"LAJO","code_postal":"48120","coordonnees_gps":[44.8288847769,3.439863707],"code_commune_insee":"48079"},"geometry":{"type":"Point","coordinates":[3.439863707,44.8288847769]},"record_timestamp":"2016-05-09T15:17:00+02:00"},{"datasetid":"laposte_hexasmal","recordid":"d11ea1ea9d70c1058920e74d9c839cba27522fcf","fields":{"nom_de_la_commune":"LANGOGNE","libell_d_acheminement":"LANGOGNE","code_postal":"48300","coordonnees_gps":[44.7237405653,3.83363110341],"code_commune_insee":"48080"},"geometry":{"type":"Point","coordinates":[3.83363110341,44.7237405653]},"record_timestamp":"2016-05-09T15:17:00+02:00"},{"datasetid":"laposte_hexasmal","recordid":"bb439984cab95f842dbf410cde29f438d09fe9a8","fields":{"nom_de_la_commune":"LANUEJOLS","libell_d_acheminement":"LANUEJOLS","code_postal":"48000","coordonnees_gps":[44.4904680879,3.58785456631],"code_commune_insee":"48081"},"geometry":{"type":"Point","coordinates":[3.58785456631,44.4904680879]},"record_timestamp":"2016-05-09T15:17:00+02:00"},{"datasetid":"laposte_hexasmal","recordid":"cbfb782c1463096014290d676de49e1f73d9687c","fields":{"nom_de_la_commune":"LAUBERT","libell_d_acheminement":"LAUBERT","code_postal":"48170","coordonnees_gps":[44.5972040067,3.64498618428],"code_commune_insee":"48082"},"geometry":{"type":"Point","coordinates":[3.64498618428,44.5972040067]},"record_timestamp":"2016-05-09T15:17:00+02:00"},{"datasetid":"laposte_hexasmal","recordid":"990ed1126434f2e323ab6f712b9e99ab22cc555c","fields":{"nom_de_la_commune":"LES LAUBIES","libell_d_acheminement":"LES LAUBIES","code_postal":"48700","coordonnees_gps":[44.7021823175,3.44235183055],"code_commune_insee":"48083"},"geometry":{"type":"Point","coordinates":[3.44235183055,44.7021823175]},"record_timestamp":"2016-05-09T15:17:00+02:00"},{"datasetid":"laposte_hexasmal","recordid":"08d49d9de6996ef5d9674d5354ddd5393ee9c2cd","fields":{"nom_de_la_commune":"LA MALENE","libell_d_acheminement":"LA MALENE","code_postal":"48210","coordonnees_gps":[44.3020788352,3.31365173313],"code_commune_insee":"48088"},"geometry":{"type":"Point","coordinates":[3.31365173313,44.3020788352]},"record_timestamp":"2016-05-09T15:17:00+02:00"},{"datasetid":"laposte_hexasmal","recordid":"b380018c81beb5b92ab1fb5130851e64021b2f8b","fields":{"nom_de_la_commune":"LE MALZIEU FORAIN","libell_d_acheminement":"LE MALZIEU FORAIN","code_postal":"48140","coordonnees_gps":[44.8695737618,3.38991258654],"code_commune_insee":"48089"},"geometry":{"type":"Point","coordinates":[3.38991258654,44.8695737618]},"record_timestamp":"2016-05-09T15:17:00+02:00"},{"datasetid":"laposte_hexasmal","recordid":"cc4ce522e96bd0312de28aaf80a0074dd5e8a302","fields":{"nom_de_la_commune":"MONTBEL","libell_d_acheminement":"MONTBEL","code_postal":"48170","coordonnees_gps":[44.5963342329,3.71249068186],"code_commune_insee":"48100"},"geometry":{"type":"Point","coordinates":[3.71249068186,44.5963342329]},"record_timestamp":"2016-05-09T15:17:00+02:00"},{"datasetid":"laposte_hexasmal","recordid":"46befb5c1612d71f07b8d8c07f64927c554d0aee","fields":{"nom_de_la_commune":"MONTBRUN","libell_d_acheminement":"MONTBRUN","code_postal":"48210","coordonnees_gps":[44.3167366431,3.50947194935],"code_commune_insee":"48101"},"geometry":{"type":"Point","coordinates":[3.50947194935,44.3167366431]},"record_timestamp":"2016-05-09T15:17:00+02:00"},{"datasetid":"laposte_hexasmal","recordid":"7af4812e70e5b80a3d0a9b0a2d83b81e87c13805","fields":{"nom_de_la_commune":"MONTRODAT","libell_d_acheminement":"MONTRODAT","code_postal":"48100","coordonnees_gps":[44.5574972812,3.32949888703],"code_commune_insee":"48103"},"geometry":{"type":"Point","coordinates":[3.32949888703,44.5574972812]},"record_timestamp":"2016-05-09T15:17:00+02:00"},{"datasetid":"laposte_hexasmal","recordid":"946b124f8da94514dccb3bffbe40b6ca0ce9e3a5","fields":{"nom_de_la_commune":"PRUNIERES","libell_d_acheminement":"PRUNIERES","code_postal":"48200","coordonnees_gps":[44.8174063677,3.3349356186],"code_commune_insee":"48121"},"geometry":{"type":"Point","coordinates":[3.3349356186,44.8174063677]},"record_timestamp":"2016-05-09T15:17:00+02:00"},{"datasetid":"laposte_hexasmal","recordid":"5e204995c3d56b6c88658813976a375358e8c011","fields":{"nom_de_la_commune":"RECOULES DE FUMAS","libell_d_acheminement":"RECOULES DE FUMAS","code_postal":"48100","coordonnees_gps":[44.6318260486,3.3333350494],"code_commune_insee":"48124"},"geometry":{"type":"Point","coordinates":[3.3333350494,44.6318260486]},"record_timestamp":"2016-05-09T15:17:00+02:00"},{"datasetid":"laposte_hexasmal","recordid":"e500fbbf8383b6d9d93941c2f4f7a81dceb5db34","fields":{"nom_de_la_commune":"RIEUTORT DE RANDON","libell_d_acheminement":"RIEUTORT DE RANDON","code_postal":"48700","coordonnees_gps":[44.6238353175,3.4886504946],"code_commune_insee":"48127"},"geometry":{"type":"Point","coordinates":[3.4886504946,44.6238353175]},"record_timestamp":"2016-05-09T15:17:00+02:00"},{"datasetid":"laposte_hexasmal","recordid":"0531f8817045a30b623325433530ab8b55fac37f","fields":{"nom_de_la_commune":"ROUSSES","libell_d_acheminement":"ROUSSES","code_postal":"48400","coordonnees_gps":[44.1935759156,3.57352564571],"code_commune_insee":"48130"},"geometry":{"type":"Point","coordinates":[3.57352564571,44.1935759156]},"record_timestamp":"2016-05-09T15:17:00+02:00"},{"datasetid":"laposte_hexasmal","recordid":"a9d4c4bb06298aad0f2cb115ead06ca79fe671ea","fields":{"nom_de_la_commune":"ST BONNET DE MONTAUROUX","libell_d_acheminement":"ST BONNET DE MONTAUROUX","code_postal":"48600","coordonnees_gps":[44.8174157178,3.72227564708],"code_commune_insee":"48139"},"geometry":{"type":"Point","coordinates":[3.72227564708,44.8174157178]},"record_timestamp":"2016-05-09T15:17:00+02:00"},{"datasetid":"laposte_hexasmal","recordid":"78cc791fdb46aca843bc72bec7d597fcd8f9be78","fields":{"code_postal":"48600","code_commune_insee":"48139","libell_d_acheminement":"ST BONNET DE MONTAUROUX","ligne_5":"CHAPEAUROUX","nom_de_la_commune":"ST BONNET DE MONTAUROUX","coordonnees_gps":[44.8174157178,3.72227564708]},"geometry":{"type":"Point","coordinates":[3.72227564708,44.8174157178]},"record_timestamp":"2016-05-09T15:17:00+02:00"},{"datasetid":"laposte_hexasmal","recordid":"51add283abbb04b4e719ececa288021957231633","fields":{"nom_de_la_commune":"STE COLOMBE DE PEYRE","libell_d_acheminement":"STE COLOMBE DE PEYRE","code_postal":"48130","coordonnees_gps":[44.6769208097,3.23191868734],"code_commune_insee":"48142"},"geometry":{"type":"Point","coordinates":[3.23191868734,44.6769208097]},"record_timestamp":"2016-05-09T15:17:00+02:00"},{"datasetid":"laposte_hexasmal","recordid":"46f0b6d4aef229b742acf0cbcc818559240291a6","fields":{"nom_de_la_commune":"STE CROIX VALLEE FRANCAISE","libell_d_acheminement":"STE CROIX VALLEE FRANCAISE","code_postal":"48110","coordonnees_gps":[44.1863337479,3.74222985458],"code_commune_insee":"48144"},"geometry":{"type":"Point","coordinates":[3.74222985458,44.1863337479]},"record_timestamp":"2016-05-09T15:17:00+02:00"},{"datasetid":"laposte_hexasmal","recordid":"12e8086d187a51e77027d9870ae2986d8d52c8e3","fields":{"nom_de_la_commune":"STE EULALIE","libell_d_acheminement":"STE EULALIE","code_postal":"48120","coordonnees_gps":[44.7843192803,3.48437305584],"code_commune_insee":"48149"},"geometry":{"type":"Point","coordinates":[3.48437305584,44.7843192803]},"record_timestamp":"2016-05-09T15:17:00+02:00"},{"datasetid":"laposte_hexasmal","recordid":"a41abb0f9b02db4a98b0d8dcf79057da2c0038da","fields":{"code_postal":"48240","code_commune_insee":"48152","libell_d_acheminement":"VENTALON EN CEVENNES","ligne_5":"ST FREZAL DE VENTALON","nom_de_la_commune":"VENTALON EN CEVENNES","coordonnees_gps":[44.2940872699,3.8666152032]},"geometry":{"type":"Point","coordinates":[3.8666152032,44.2940872699]},"record_timestamp":"2016-05-09T15:17:00+02:00"},{"datasetid":"laposte_hexasmal","recordid":"2071b68886c906fd7cc2cd6dbbade872318342e4","fields":{"nom_de_la_commune":"ST JULIEN DES POINTS","libell_d_acheminement":"ST JULIEN DES POINTS","code_postal":"48160","coordonnees_gps":[44.259634137,3.96080381254],"code_commune_insee":"48163"},"geometry":{"type":"Point","coordinates":[3.96080381254,44.259634137]},"record_timestamp":"2016-05-09T15:17:00+02:00"},{"datasetid":"laposte_hexasmal","recordid":"6a04b4406a2cd628aa3fa93dabd417369599fe67","fields":{"nom_de_la_commune":"ST LAURENT DE MURET","libell_d_acheminement":"ST LAURENT DE MURET","code_postal":"48100","coordonnees_gps":[44.5986955189,3.17537194079],"code_commune_insee":"48165"},"geometry":{"type":"Point","coordinates":[3.17537194079,44.5986955189]},"record_timestamp":"2016-05-09T15:17:00+02:00"},{"datasetid":"laposte_hexasmal","recordid":"27f0dafa017fdc5bc4ef76fc450e30bf5bf17735","fields":{"nom_de_la_commune":"ST MICHEL DE DEZE","libell_d_acheminement":"ST MICHEL DE DEZE","code_postal":"48160","coordonnees_gps":[44.240223078,3.88529361784],"code_commune_insee":"48173"},"geometry":{"type":"Point","coordinates":[3.88529361784,44.240223078]},"record_timestamp":"2016-05-09T15:17:00+02:00"},{"datasetid":"laposte_hexasmal","recordid":"5de1aa145b79e6d030150026aada46432448331b","fields":{"nom_de_la_commune":"ST PIERRE DE NOGARET","libell_d_acheminement":"ST PIERRE DE NOGARET","code_postal":"48340","coordonnees_gps":[44.4874734198,3.1270768416],"code_commune_insee":"48175"},"geometry":{"type":"Point","coordinates":[3.1270768416,44.4874734198]},"record_timestamp":"2016-05-09T15:17:00+02:00"},{"datasetid":"laposte_hexasmal","recordid":"57efd81169033d7a63072318672d1f2adb173d2b","fields":{"nom_de_la_commune":"ST PIERRE LE VIEUX","libell_d_acheminement":"ST PIERRE LE VIEUX","code_postal":"48200","coordonnees_gps":[44.844671879,3.30623246683],"code_commune_insee":"48177"},"geometry":{"type":"Point","coordinates":[3.30623246683,44.844671879]},"record_timestamp":"2016-05-09T15:17:00+02:00"},{"datasetid":"laposte_hexasmal","recordid":"5ff12a2ec78a97f591bb06027381eee30880b779","fields":{"nom_de_la_commune":"ST ROME DE DOLAN","libell_d_acheminement":"ST ROME DE DOLAN","code_postal":"48500","coordonnees_gps":[44.2694614271,3.19482557519],"code_commune_insee":"48180"},"geometry":{"type":"Point","coordinates":[3.19482557519,44.2694614271]},"record_timestamp":"2016-05-09T15:17:00+02:00"},{"datasetid":"laposte_hexasmal","recordid":"dd2ed5433e485d3fb1f8c390e93e92d298f6513e","fields":{"nom_de_la_commune":"LA TIEULE","libell_d_acheminement":"LA TIEULE","code_postal":"48500","coordonnees_gps":[44.3826211706,3.16213006652],"code_commune_insee":"48191"},"geometry":{"type":"Point","coordinates":[3.16213006652,44.3826211706]},"record_timestamp":"2016-05-09T15:17:00+02:00"},{"datasetid":"laposte_hexasmal","recordid":"a714d28a536523f7a7c93011e5bdbe2c36c43337","fields":{"nom_de_la_commune":"TRELANS","libell_d_acheminement":"TRELANS","code_postal":"48340","coordonnees_gps":[44.520157863,3.09375123863],"code_commune_insee":"48192"},"geometry":{"type":"Point","coordinates":[3.09375123863,44.520157863]},"record_timestamp":"2016-05-09T15:17:00+02:00"},{"datasetid":"laposte_hexasmal","recordid":"aeb9fd9615f6127fb19c9b7e2cbab17691d6069a","fields":{"nom_de_la_commune":"VILLEFORT","libell_d_acheminement":"VILLEFORT","code_postal":"48800","coordonnees_gps":[44.4441033418,3.93038185016],"code_commune_insee":"48198"},"geometry":{"type":"Point","coordinates":[3.93038185016,44.4441033418]},"record_timestamp":"2016-05-09T15:17:00+02:00"},{"datasetid":"laposte_hexasmal","recordid":"104ea574632048ff9444e7a18d569d9b9cdf66c2","fields":{"nom_de_la_commune":"ALBARET STE MARIE","libell_d_acheminement":"ALBARET STE MARIE","code_postal":"48200","coordonnees_gps":[44.8864422814,3.25064355451],"code_commune_insee":"48002"},"geometry":{"type":"Point","coordinates":[3.25064355451,44.8864422814]},"record_timestamp":"2016-05-09T15:17:00+02:00"},{"datasetid":"laposte_hexasmal","recordid":"48b2054c1306932924a7dfbd026a39ee3278a696","fields":{"nom_de_la_commune":"ARZENC DE RANDON","libell_d_acheminement":"ARZENC DE RANDON","code_postal":"48170","coordonnees_gps":[44.6534793285,3.6149096338],"code_commune_insee":"48008"},"geometry":{"type":"Point","coordinates":[3.6149096338,44.6534793285]},"record_timestamp":"2016-05-09T15:17:00+02:00"},{"datasetid":"laposte_hexasmal","recordid":"b05f643ee3303476687799b9584f084e1cae716f","fields":{"nom_de_la_commune":"AUMONT AUBRAC","libell_d_acheminement":"AUMONT AUBRAC","code_postal":"48130","coordonnees_gps":[44.7233900467,3.28132614741],"code_commune_insee":"48009"},"geometry":{"type":"Point","coordinates":[3.28132614741,44.7233900467]},"record_timestamp":"2016-05-09T15:17:00+02:00"},{"datasetid":"laposte_hexasmal","recordid":"7cf617c3252b14502959d20d1b7f5fb884ced753","fields":{"nom_de_la_commune":"PIED DE BORNE","libell_d_acheminement":"PIED DE BORNE","code_postal":"48800","coordonnees_gps":[44.4805501734,3.9685848144],"code_commune_insee":"48015"},"geometry":{"type":"Point","coordinates":[3.9685848144,44.4805501734]},"record_timestamp":"2016-05-09T15:17:00+02:00"},{"datasetid":"laposte_hexasmal","recordid":"ba4d79cce1f42f0b92e4356567daad12f4ad8c81","fields":{"nom_de_la_commune":"LES BESSONS","libell_d_acheminement":"LES BESSONS","code_postal":"48200","coordonnees_gps":[44.77338024,3.24344025739],"code_commune_insee":"48025"},"geometry":{"type":"Point","coordinates":[3.24344025739,44.77338024]},"record_timestamp":"2016-05-09T15:17:00+02:00"},{"datasetid":"laposte_hexasmal","recordid":"ac33e6f6d62d676674b4934156c22ece152bafeb","fields":{"nom_de_la_commune":"LES BONDONS","libell_d_acheminement":"LES BONDONS","code_postal":"48400","coordonnees_gps":[44.3983249079,3.63428329173],"code_commune_insee":"48028"},"geometry":{"type":"Point","coordinates":[3.63428329173,44.3983249079]},"record_timestamp":"2016-05-09T15:17:00+02:00"},{"datasetid":"laposte_hexasmal","recordid":"8c0658461c6546475eabda0b0798e44f52399d94","fields":{"nom_de_la_commune":"CULTURES","libell_d_acheminement":"CULTURES","code_postal":"48230","coordonnees_gps":[44.4911701749,3.38102042197],"code_commune_insee":"48055"},"geometry":{"type":"Point","coordinates":[3.38102042197,44.4911701749]},"record_timestamp":"2016-05-09T15:17:00+02:00"},{"datasetid":"laposte_hexasmal","recordid":"f42ea5a48e808b0263858b9cdbd5ee8da6b24844","fields":{"nom_de_la_commune":"ESTABLES","libell_d_acheminement":"ESTABLES","code_postal":"48700","coordonnees_gps":[44.6759595262,3.50876760941],"code_commune_insee":"48057"},"geometry":{"type":"Point","coordinates":[3.50876760941,44.6759595262]},"record_timestamp":"2016-05-09T15:17:00+02:00"},{"datasetid":"laposte_hexasmal","recordid":"df041d0f2b156ef07a868405baafa9b69d915e32","fields":{"nom_de_la_commune":"LA FAGE MONTIVERNOUX","libell_d_acheminement":"LA FAGE MONTIVERNOUX","code_postal":"48310","coordonnees_gps":[44.7472604379,3.15153193685],"code_commune_insee":"48058"},"geometry":{"type":"Point","coordinates":[3.15153193685,44.7472604379]},"record_timestamp":"2016-05-09T15:17:00+02:00"},{"datasetid":"laposte_hexasmal","recordid":"8ab3e9244210ab984ebc5a4836d5cc209455a91b","fields":{"nom_de_la_commune":"LA FAGE ST JULIEN","libell_d_acheminement":"LA FAGE ST JULIEN","code_postal":"48200","coordonnees_gps":[44.7994035281,3.20844931182],"code_commune_insee":"48059"},"geometry":{"type":"Point","coordinates":[3.20844931182,44.7994035281]},"record_timestamp":"2016-05-09T15:17:00+02:00"},{"datasetid":"laposte_hexasmal","recordid":"1b8835079d69551cdd356c645231bcaa485816cc","fields":{"nom_de_la_commune":"FOURNELS","libell_d_acheminement":"FOURNELS","code_postal":"48310","coordonnees_gps":[44.8115219718,3.12932702251],"code_commune_insee":"48064"},"geometry":{"type":"Point","coordinates":[3.12932702251,44.8115219718]},"record_timestamp":"2016-05-09T15:17:00+02:00"},{"datasetid":"laposte_hexasmal","recordid":"8e24d3885eaace2936ecd8082c365c1c7300dba4","fields":{"nom_de_la_commune":"GABRIAS","libell_d_acheminement":"GABRIAS","code_postal":"48100","coordonnees_gps":[44.5531806601,3.37940446458],"code_commune_insee":"48068"},"geometry":{"type":"Point","coordinates":[3.37940446458,44.5531806601]},"record_timestamp":"2016-05-09T15:17:00+02:00"},{"datasetid":"laposte_hexasmal","recordid":"211ec7c6b0ace30986cc00a59291da481cf95741","fields":{"nom_de_la_commune":"MAS D ORCIERES","libell_d_acheminement":"MAS D ORCIERES","code_postal":"48190","coordonnees_gps":[44.4558840853,3.71168776074],"code_commune_insee":"48093"},"geometry":{"type":"Point","coordinates":[3.71168776074,44.4558840853]},"record_timestamp":"2016-05-09T15:17:00+02:00"},{"datasetid":"laposte_hexasmal","recordid":"f85c5adae12a1c0d89d919e322226fcd7052f35b","fields":{"nom_de_la_commune":"MOISSAC VALLEE FRANCAISE","libell_d_acheminement":"MOISSAC VALLEE FRANCAISE","code_postal":"48110","coordonnees_gps":[44.157860146,3.79127521457],"code_commune_insee":"48097"},"geometry":{"type":"Point","coordinates":[3.79127521457,44.157860146]},"record_timestamp":"2016-05-09T15:17:00+02:00"},{"datasetid":"laposte_hexasmal","recordid":"40d872964a7a692122753b9794f36232442ca7b2","fields":{"code_postal":"48100","code_commune_insee":"48099","libell_d_acheminement":"BOURGS SUR COLAGNE","ligne_5":"CHIRAC","nom_de_la_commune":"BOURGS SUR COLAGNE","coordonnees_gps":[44.5109335104,3.22653031553]},"geometry":{"type":"Point","coordinates":[3.22653031553,44.5109335104]},"record_timestamp":"2016-05-09T15:17:00+02:00"},{"datasetid":"laposte_hexasmal","recordid":"12b0e328ea72756faa5a8e4adcb58aacca342533","fields":{"nom_de_la_commune":"NOALHAC","libell_d_acheminement":"NOALHAC","code_postal":"48310","coordonnees_gps":[44.7988546205,3.11483101458],"code_commune_insee":"48106"},"geometry":{"type":"Point","coordinates":[3.11483101458,44.7988546205]},"record_timestamp":"2016-05-09T15:17:00+02:00"},{"datasetid":"laposte_hexasmal","recordid":"3a321f65a523d2b592b4ae1814107536e3175b1c","fields":{"code_postal":"48220","code_commune_insee":"48116","libell_d_acheminement":"PONT DE MONTVERT SUD MONT LOZERE","ligne_5":"LE PONT DE MONTVERT","nom_de_la_commune":"PONT DE MONTVERT SUD MONT LOZERE","coordonnees_gps":[44.3742853816,3.76917997857]},"geometry":{"type":"Point","coordinates":[3.76917997857,44.3742853816]},"record_timestamp":"2016-05-09T15:17:00+02:00"},{"datasetid":"laposte_hexasmal","recordid":"23dbe196ae61e13545a9d099d685cfbe53244a34","fields":{"nom_de_la_commune":"RECOULES D AUBRAC","libell_d_acheminement":"RECOULES D AUBRAC","code_postal":"48260","coordonnees_gps":[44.6928193837,3.03731293861],"code_commune_insee":"48123"},"geometry":{"type":"Point","coordinates":[3.03731293861,44.6928193837]},"record_timestamp":"2016-05-09T15:17:00+02:00"},{"datasetid":"laposte_hexasmal","recordid":"c3b66148aef26fae0ed5db71ae90d18b836cfe44","fields":{"nom_de_la_commune":"RIBENNES","libell_d_acheminement":"RIBENNES","code_postal":"48700","coordonnees_gps":[44.6498972232,3.386003003],"code_commune_insee":"48126"},"geometry":{"type":"Point","coordinates":[3.386003003,44.6498972232]},"record_timestamp":"2016-05-09T15:17:00+02:00"},{"datasetid":"laposte_hexasmal","recordid":"8d678bd9abafddc1b6705cbb2e9bc02a233d5eba","fields":{"nom_de_la_commune":"ST ALBAN SUR LIMAGNOLE","libell_d_acheminement":"ST ALBAN SUR LIMAGNOLE","code_postal":"48120","coordonnees_gps":[44.796708709,3.40321537339],"code_commune_insee":"48132"},"geometry":{"type":"Point","coordinates":[3.40321537339,44.796708709]},"record_timestamp":"2016-05-09T15:17:00+02:00"},{"datasetid":"laposte_hexasmal","recordid":"1461eaa29ebb8c09cbca4fa364b50ab36b4b94ec","fields":{"nom_de_la_commune":"ST ANDRE CAPCEZE","libell_d_acheminement":"ST ANDRE CAPCEZE","code_postal":"48800","coordonnees_gps":[44.4177897224,3.94229613948],"code_commune_insee":"48135"},"geometry":{"type":"Point","coordinates":[3.94229613948,44.4177897224]},"record_timestamp":"2016-05-09T15:17:00+02:00"},{"datasetid":"laposte_hexasmal","recordid":"0d4b0cdabba5cc2e61e9fd8245ea499f96583a15","fields":{"nom_de_la_commune":"MAS ST CHELY","libell_d_acheminement":"MAS ST CHELY","code_postal":"48210","coordonnees_gps":[44.3091282875,3.4143985008],"code_commune_insee":"48141"},"geometry":{"type":"Point","coordinates":[3.4143985008,44.3091282875]},"record_timestamp":"2016-05-09T15:17:00+02:00"},{"datasetid":"laposte_hexasmal","recordid":"940907396101adc386d03c66bc69f710239a9615","fields":{"nom_de_la_commune":"STE HELENE","libell_d_acheminement":"STE HELENE","code_postal":"48190","coordonnees_gps":[44.5200305066,3.60341341973],"code_commune_insee":"48157"},"geometry":{"type":"Point","coordinates":[3.60341341973,44.5200305066]},"record_timestamp":"2016-05-09T15:17:00+02:00"},{"datasetid":"laposte_hexasmal","recordid":"4bb2f30a3a9e3c51ce893b6813f799247c0c12aa","fields":{"nom_de_la_commune":"ST JEAN LA FOUILLOUSE","libell_d_acheminement":"ST JEAN LA FOUILLOUSE","code_postal":"48170","coordonnees_gps":[44.7097136887,3.69001544129],"code_commune_insee":"48160"},"geometry":{"type":"Point","coordinates":[3.69001544129,44.7097136887]},"record_timestamp":"2016-05-09T15:17:00+02:00"},{"datasetid":"laposte_hexasmal","recordid":"23a34c595beffcc59e31c85ddb6809fb1c71e6ee","fields":{"nom_de_la_commune":"ST JUERY","libell_d_acheminement":"ST JUERY","code_postal":"48310","coordonnees_gps":[44.8298892181,3.08370934221],"code_commune_insee":"48161"},"geometry":{"type":"Point","coordinates":[3.08370934221,44.8298892181]},"record_timestamp":"2016-05-09T15:17:00+02:00"},{"datasetid":"laposte_hexasmal","recordid":"2c36ccd0ba375295221e33a113ca22d1e5e15af7","fields":{"code_postal":"48400","code_commune_insee":"48162","libell_d_acheminement":"CANS ET CEVENNES","ligne_5":"ST JULIEN D ARPAON","nom_de_la_commune":"CANS ET CEVENNES","coordonnees_gps":[44.301436191,3.68067181243]},"geometry":{"type":"Point","coordinates":[3.68067181243,44.301436191]},"record_timestamp":"2016-05-09T15:17:00+02:00"},{"datasetid":"laposte_hexasmal","recordid":"4ae0dd3bae2f58f573b67cec34a5eb1995c3007f","fields":{"code_postal":"48400","code_commune_insee":"48162","libell_d_acheminement":"CANS ET CEVENNES","ligne_5":"ST LAURENT DE TREVES","nom_de_la_commune":"CANS ET CEVENNES","coordonnees_gps":[44.301436191,3.68067181243]},"geometry":{"type":"Point","coordinates":[3.68067181243,44.301436191]},"record_timestamp":"2016-05-09T15:17:00+02:00"},{"datasetid":"laposte_hexasmal","recordid":"981946d03ed25541c1ee5f94ec466680a9835861","fields":{"nom_de_la_commune":"ST SAUVEUR DE GINESTOUX","libell_d_acheminement":"ST SAUVEUR DE GINESTOUX","code_postal":"48170","coordonnees_gps":[44.7018049753,3.61535812137],"code_commune_insee":"48182"},"geometry":{"type":"Point","coordinates":[3.61535812137,44.7018049753]},"record_timestamp":"2016-05-09T15:17:00+02:00"},{"datasetid":"laposte_hexasmal","recordid":"e8b89b780c2e17bb1b5a4af39463d82ccfba0d27","fields":{"nom_de_la_commune":"LES SALELLES","libell_d_acheminement":"LES SALELLES","code_postal":"48230","coordonnees_gps":[44.4847386708,3.27413095434],"code_commune_insee":"48185"},"geometry":{"type":"Point","coordinates":[3.27413095434,44.4847386708]},"record_timestamp":"2016-05-09T15:17:00+02:00"},{"datasetid":"laposte_hexasmal","recordid":"3db90d9533d3e8077839dd1cef1cf7733a433268","fields":{"nom_de_la_commune":"SERVIERES","libell_d_acheminement":"SERVIERES","code_postal":"48000","coordonnees_gps":[44.5862173943,3.41770447473],"code_commune_insee":"48189"},"geometry":{"type":"Point","coordinates":[3.41770447473,44.5862173943]},"record_timestamp":"2016-05-09T15:17:00+02:00"},{"datasetid":"laposte_hexasmal","recordid":"704ea53147fe420acabe570226e5acb0839b4d2e","fields":{"nom_de_la_commune":"TERMES","libell_d_acheminement":"TERMES","code_postal":"48310","coordonnees_gps":[44.8258552553,3.16928104788],"code_commune_insee":"48190"},"geometry":{"type":"Point","coordinates":[3.16928104788,44.8258552553]},"record_timestamp":"2016-05-09T15:17:00+02:00"},{"datasetid":"laposte_hexasmal","recordid":"2704be083c4c2e0bfe1127e0cbadf1ecd3d4cbf7","fields":{"nom_de_la_commune":"ALLENC","libell_d_acheminement":"ALLENC","code_postal":"48190","coordonnees_gps":[44.5522761044,3.67650603753],"code_commune_insee":"48003"},"geometry":{"type":"Point","coordinates":[3.67650603753,44.5522761044]},"record_timestamp":"2016-05-09T15:17:00+02:00"},{"datasetid":"laposte_hexasmal","recordid":"b06067544f0e31e604338654fcc33891aa3cae38","fields":{"nom_de_la_commune":"LES MONTS VERTS","libell_d_acheminement":"LES MONTS VERTS","code_postal":"48200","coordonnees_gps":[44.8489134822,3.22180661807],"code_commune_insee":"48012"},"geometry":{"type":"Point","coordinates":[3.22180661807,44.8489134822]},"record_timestamp":"2016-05-09T15:17:00+02:00"},{"datasetid":"laposte_hexasmal","recordid":"524df7d304a0f1edfe1d1e80beaab4b80acb3462","fields":{"code_postal":"48200","code_commune_insee":"48012","libell_d_acheminement":"LES MONTS VERTS","ligne_5":"ARCOMIE","nom_de_la_commune":"LES MONTS VERTS","coordonnees_gps":[44.8489134822,3.22180661807]},"geometry":{"type":"Point","coordinates":[3.22180661807,44.8489134822]},"record_timestamp":"2016-05-09T15:17:00+02:00"},{"datasetid":"laposte_hexasmal","recordid":"7a25b93cbf44ada35bebfd903abce1b4a3c791ac","fields":{"nom_de_la_commune":"BARRE DES CEVENNES","libell_d_acheminement":"BARRE DES CEVENNES","code_postal":"48400","coordonnees_gps":[44.2534596387,3.67089692402],"code_commune_insee":"48019"},"geometry":{"type":"Point","coordinates":[3.67089692402,44.2534596387]},"record_timestamp":"2016-05-09T15:17:00+02:00"},{"datasetid":"laposte_hexasmal","recordid":"4444cfb789a4800eddca69ecc0eec286e9e4d7be","fields":{"nom_de_la_commune":"BASSURELS","libell_d_acheminement":"BASSURELS","code_postal":"48400","coordonnees_gps":[44.1576500165,3.60529692869],"code_commune_insee":"48020"},"geometry":{"type":"Point","coordinates":[3.60529692869,44.1576500165]},"record_timestamp":"2016-05-09T15:17:00+02:00"},{"datasetid":"laposte_hexasmal","recordid":"bff03537d448438cfb715e8296dd59b2d22a2ea0","fields":{"nom_de_la_commune":"BRENOUX","libell_d_acheminement":"BRENOUX","code_postal":"48000","coordonnees_gps":[44.4873961112,3.53320153981],"code_commune_insee":"48030"},"geometry":{"type":"Point","coordinates":[3.53320153981,44.4873961112]},"record_timestamp":"2016-05-09T15:17:00+02:00"},{"datasetid":"laposte_hexasmal","recordid":"93a3f5f77d27c57a1fc0877733b91199314724ca","fields":{"nom_de_la_commune":"CHASTANIER","libell_d_acheminement":"CHASTANIER","code_postal":"48300","coordonnees_gps":[44.722639702,3.75305127719],"code_commune_insee":"48041"},"geometry":{"type":"Point","coordinates":[3.75305127719,44.722639702]},"record_timestamp":"2016-05-09T15:17:00+02:00"},{"datasetid":"laposte_hexasmal","recordid":"8d71d26058a0438618eab60cff7d56a2320721d8","fields":{"nom_de_la_commune":"CHASTEL NOUVEL","libell_d_acheminement":"CHASTEL NOUVEL","code_postal":"48000","coordonnees_gps":[44.5707532071,3.49280598377],"code_commune_insee":"48042"},"geometry":{"type":"Point","coordinates":[3.49280598377,44.5707532071]},"record_timestamp":"2016-05-09T15:17:00+02:00"},{"datasetid":"laposte_hexasmal","recordid":"be4d171b6410aa9188c2939ab2684fc0815559ef","fields":{"nom_de_la_commune":"LA CHAZE DE PEYRE","libell_d_acheminement":"LA CHAZE DE PEYRE","code_postal":"48130","coordonnees_gps":[44.7026908168,3.24188242885],"code_commune_insee":"48047"},"geometry":{"type":"Point","coordinates":[3.24188242885,44.7026908168]},"record_timestamp":"2016-05-09T15:17:00+02:00"},{"datasetid":"laposte_hexasmal","recordid":"ad5ec6f2d47740d2ddd2ed1b0d8751b6eeb484c7","fields":{"nom_de_la_commune":"CUBIERETTES","libell_d_acheminement":"CUBIERETTES","code_postal":"48190","coordonnees_gps":[44.4437323687,3.78750024039],"code_commune_insee":"48054"},"geometry":{"type":"Point","coordinates":[3.78750024039,44.4437323687]},"record_timestamp":"2016-05-09T15:17:00+02:00"},{"datasetid":"laposte_hexasmal","recordid":"7c29bb830a4f33bde1da84c54beb95cd4f0b8373","fields":{"nom_de_la_commune":"MALBOUZON","libell_d_acheminement":"MALBOUZON","code_postal":"48270","coordonnees_gps":[44.7070956214,3.13030307295],"code_commune_insee":"48087"},"geometry":{"type":"Point","coordinates":[3.13030307295,44.7070956214]},"record_timestamp":"2016-05-09T15:17:00+02:00"},{"datasetid":"laposte_hexasmal","recordid":"07fb850dddbd40313c2f33b417ccfd297036956c","fields":{"nom_de_la_commune":"LE MALZIEU VILLE","libell_d_acheminement":"LE MALZIEU VILLE","code_postal":"48140","coordonnees_gps":[44.8630758811,3.33643761858],"code_commune_insee":"48090"},"geometry":{"type":"Point","coordinates":[3.33643761858,44.8630758811]},"record_timestamp":"2016-05-09T15:17:00+02:00"},{"datasetid":"laposte_hexasmal","recordid":"a2d10a9866ef0c96c330a4967ae13daf0a8c3fa5","fields":{"nom_de_la_commune":"MEYRUEIS","libell_d_acheminement":"MEYRUEIS","code_postal":"48150","coordonnees_gps":[44.1719020208,3.4516638341],"code_commune_insee":"48096"},"geometry":{"type":"Point","coordinates":[3.4516638341,44.1719020208]},"record_timestamp":"2016-05-09T15:17:00+02:00"},{"datasetid":"laposte_hexasmal","recordid":"85080038e7563c8c8785f285660dd3995c2e4a42","fields":{"nom_de_la_commune":"NAUSSAC FONTANES","libell_d_acheminement":"NAUSSAC FONTANES","code_postal":"48300","coordonnees_gps":[44.7573739721,3.8000356543],"code_commune_insee":"48105"},"geometry":{"type":"Point","coordinates":[3.8000356543,44.7573739721]},"record_timestamp":"2016-05-09T15:17:00+02:00"},{"datasetid":"laposte_hexasmal","recordid":"2d8d4090239ce65db1b62bd2ff3794a414dece8a","fields":{"nom_de_la_commune":"PIERREFICHE","libell_d_acheminement":"PIERREFICHE","code_postal":"48300","coordonnees_gps":[44.685286546,3.73234366061],"code_commune_insee":"48112"},"geometry":{"type":"Point","coordinates":[3.73234366061,44.685286546]},"record_timestamp":"2016-05-09T15:17:00+02:00"},{"datasetid":"laposte_hexasmal","recordid":"c79370f0b7a17e794d5df9a9d611929736f2f545","fields":{"nom_de_la_commune":"LE POMPIDOU","libell_d_acheminement":"LE POMPIDOU","code_postal":"48110","coordonnees_gps":[44.2034836971,3.65983483372],"code_commune_insee":"48115"},"geometry":{"type":"Point","coordinates":[3.65983483372,44.2034836971]},"record_timestamp":"2016-05-09T15:17:00+02:00"},{"datasetid":"laposte_hexasmal","recordid":"335fe7dca67bfecdc78cd4bb3c48f700b06972c0","fields":{"code_postal":"48220","code_commune_insee":"48116","libell_d_acheminement":"PONT DE MONTVERT SUD MONT LOZERE","ligne_5":"ST MAURICE DE VENTALON","nom_de_la_commune":"PONT DE MONTVERT SUD MONT LOZERE","coordonnees_gps":[44.3742853816,3.76917997857]},"geometry":{"type":"Point","coordinates":[3.76917997857,44.3742853816]},"record_timestamp":"2016-05-09T15:17:00+02:00"},{"datasetid":"laposte_hexasmal","recordid":"4fa2842d5491403f8a24520725415613b1c87183","fields":{"nom_de_la_commune":"PREVENCHERES","libell_d_acheminement":"PREVENCHERES","code_postal":"48800","coordonnees_gps":[44.5189016289,3.92049351127],"code_commune_insee":"48119"},"geometry":{"type":"Point","coordinates":[3.92049351127,44.5189016289]},"record_timestamp":"2016-05-09T15:17:00+02:00"},{"datasetid":"laposte_hexasmal","recordid":"6e0147b526341efec46f7a9e9b81da8af7df3f13","fields":{"nom_de_la_commune":"PRINSUEJOLS","libell_d_acheminement":"PRINSUEJOLS","code_postal":"48100","coordonnees_gps":[44.6685331995,3.1689820351],"code_commune_insee":"48120"},"geometry":{"type":"Point","coordinates":[3.1689820351,44.6685331995]},"record_timestamp":"2016-05-09T15:17:00+02:00"},{"datasetid":"laposte_hexasmal","recordid":"be5bc8a43548a8fc80f69292611708de65a13a81","fields":{"nom_de_la_commune":"RIMEIZE","libell_d_acheminement":"RIMEIZE","code_postal":"48200","coordonnees_gps":[44.764646204,3.31719285575],"code_commune_insee":"48128"},"geometry":{"type":"Point","coordinates":[3.31719285575,44.764646204]},"record_timestamp":"2016-05-09T15:17:00+02:00"},{"datasetid":"laposte_hexasmal","recordid":"6d99e41e9e895c7be0e2063ba3e8a5aace222221","fields":{"nom_de_la_commune":"ROCLES","libell_d_acheminement":"ROCLES","code_postal":"48300","coordonnees_gps":[44.7026866095,3.78578869081],"code_commune_insee":"48129"},"geometry":{"type":"Point","coordinates":[3.78578869081,44.7026866095]},"record_timestamp":"2016-05-09T15:17:00+02:00"},{"datasetid":"laposte_hexasmal","recordid":"41d846d1c9fdaf717f5a1e42b82da0cf2f16b069","fields":{"nom_de_la_commune":"ST ETIENNE DU VALDONNEZ","libell_d_acheminement":"ST ETIENNE DU VALDONNEZ","code_postal":"48000","coordonnees_gps":[44.4420560828,3.57373923919],"code_commune_insee":"48147"},"geometry":{"type":"Point","coordinates":[3.57373923919,44.4420560828]},"record_timestamp":"2016-05-09T15:17:00+02:00"},{"datasetid":"laposte_hexasmal","recordid":"8cd607a7b8ef1c6f21302c297ca2fa77c8c7b4a2","fields":{"nom_de_la_commune":"ST GAL","libell_d_acheminement":"ST GAL","code_postal":"48700","coordonnees_gps":[44.6677397831,3.41592493596],"code_commune_insee":"48153"},"geometry":{"type":"Point","coordinates":[3.41592493596,44.6677397831]},"record_timestamp":"2016-05-09T15:17:00+02:00"},{"datasetid":"laposte_hexasmal","recordid":"f61d4654d8f6061e4c48846a6b652af68c2b95f8","fields":{"nom_de_la_commune":"ST GERMAIN DU TEIL","libell_d_acheminement":"ST GERMAIN DU TEIL","code_postal":"48340","coordonnees_gps":[44.48168833,3.17237902865],"code_commune_insee":"48156"},"geometry":{"type":"Point","coordinates":[3.17237902865,44.48168833]},"record_timestamp":"2016-05-09T15:17:00+02:00"},{"datasetid":"laposte_hexasmal","recordid":"d517665907e719fd909945373b5914ebcd1a6ae7","fields":{"nom_de_la_commune":"ST HILAIRE DE LAVIT","libell_d_acheminement":"ST HILAIRE DE LAVIT","code_postal":"48160","coordonnees_gps":[44.2534149147,3.85445517188],"code_commune_insee":"48158"},"geometry":{"type":"Point","coordinates":[3.85445517188,44.2534149147]},"record_timestamp":"2016-05-09T15:17:00+02:00"},{"datasetid":"laposte_hexasmal","recordid":"a57d0ee5a77c00175a3e0ded1fb0666fd80f71a4","fields":{"nom_de_la_commune":"ST LAURENT DE VEYRES","libell_d_acheminement":"ST LAURENT DE VEYRES","code_postal":"48310","coordonnees_gps":[44.7666501599,3.1233766072],"code_commune_insee":"48167"},"geometry":{"type":"Point","coordinates":[3.1233766072,44.7666501599]},"record_timestamp":"2016-05-09T15:17:00+02:00"},{"datasetid":"laposte_hexasmal","recordid":"adaebd3b1ee39bb32ea92c9c245dccb67ae73d90","fields":{"nom_de_la_commune":"ST LEGER DE PEYRE","libell_d_acheminement":"ST LEGER DE PEYRE","code_postal":"48100","coordonnees_gps":[44.604203879,3.30637134661],"code_commune_insee":"48168"},"geometry":{"type":"Point","coordinates":[3.30637134661,44.604203879]},"record_timestamp":"2016-05-09T15:17:00+02:00"},{"datasetid":"laposte_hexasmal","recordid":"2a210932b204a3fa2f5b31c36beb8b7e7e0dec6c","fields":{"nom_de_la_commune":"ST MARTIN DE BOUBAUX","libell_d_acheminement":"ST MARTIN DE BOUBAUX","code_postal":"48160","coordonnees_gps":[44.194298693,3.9183444604],"code_commune_insee":"48170"},"geometry":{"type":"Point","coordinates":[3.9183444604,44.194298693]},"record_timestamp":"2016-05-09T15:17:00+02:00"},{"datasetid":"laposte_hexasmal","recordid":"0a2a4c009f1a96a020f6b9d6754eca23fefcaf36","fields":{"nom_de_la_commune":"VEBRON","libell_d_acheminement":"VEBRON","code_postal":"48400","coordonnees_gps":[44.2551348683,3.54353418299],"code_commune_insee":"48193"},"geometry":{"type":"Point","coordinates":[3.54353418299,44.2551348683]},"record_timestamp":"2016-05-09T15:17:00+02:00"},{"datasetid":"laposte_hexasmal","recordid":"bb9410ef26dd624e50c18ce142741d4787453188","fields":{"nom_de_la_commune":"VIALAS","libell_d_acheminement":"VIALAS","code_postal":"48220","coordonnees_gps":[44.3430125499,3.89043012589],"code_commune_insee":"48194"},"geometry":{"type":"Point","coordinates":[3.89043012589,44.3430125499]},"record_timestamp":"2016-05-09T15:17:00+02:00"}]