[{"datasetid":"laposte_hexasmal","recordid":"3bf2e506ae67e98e0548310b9625245862e103d9","fields":{"nom_de_la_commune":"ABLAIN ST NAZAIRE","libell_d_acheminement":"ABLAIN ST NAZAIRE","code_postal":"62153","coordonnees_gps":[50.3965609084,2.69725163344],"code_commune_insee":"62001"},"geometry":{"type":"Point","coordinates":[2.69725163344,50.3965609084]},"record_timestamp":"2016-05-09T15:17:00+02:00"},{"datasetid":"laposte_hexasmal","recordid":"6be6c5cd15af386819a756f3b5271f90f276973a","fields":{"nom_de_la_commune":"ACQ","libell_d_acheminement":"ACQ","code_postal":"62144","coordonnees_gps":[50.3494049466,2.65503527981],"code_commune_insee":"62007"},"geometry":{"type":"Point","coordinates":[2.65503527981,50.3494049466]},"record_timestamp":"2016-05-09T15:17:00+02:00"},{"datasetid":"laposte_hexasmal","recordid":"099bfb2a58d843f8b445866ab39e367bca6aca91","fields":{"nom_de_la_commune":"ACQUIN WESTBECOURT","libell_d_acheminement":"ACQUIN WESTBECOURT","code_postal":"62380","coordonnees_gps":[50.7293873198,2.07688748986],"code_commune_insee":"62008"},"geometry":{"type":"Point","coordinates":[2.07688748986,50.7293873198]},"record_timestamp":"2016-05-09T15:17:00+02:00"},{"datasetid":"laposte_hexasmal","recordid":"f5d9b3e0f76548cd9a796bb649dea35df9edb449","fields":{"nom_de_la_commune":"AIRON NOTRE DAME","libell_d_acheminement":"AIRON NOTRE DAME","code_postal":"62180","coordonnees_gps":[50.4412207446,1.66789087192],"code_commune_insee":"62015"},"geometry":{"type":"Point","coordinates":[1.66789087192,50.4412207446]},"record_timestamp":"2016-05-09T15:17:00+02:00"},{"datasetid":"laposte_hexasmal","recordid":"75ba3d8240af81c1b04059c795778ccfcaa7bdfd","fields":{"nom_de_la_commune":"AIX EN ERGNY","libell_d_acheminement":"AIX EN ERGNY","code_postal":"62650","coordonnees_gps":[50.5872440261,2.00011764709],"code_commune_insee":"62017"},"geometry":{"type":"Point","coordinates":[2.00011764709,50.5872440261]},"record_timestamp":"2016-05-09T15:17:00+02:00"},{"datasetid":"laposte_hexasmal","recordid":"0b1982ecbf5b789d81e42c03d8222b8bbced14cd","fields":{"nom_de_la_commune":"AIX NOULETTE","libell_d_acheminement":"AIX NOULETTE","code_postal":"62160","coordonnees_gps":[50.4212424085,2.71263968704],"code_commune_insee":"62019"},"geometry":{"type":"Point","coordinates":[2.71263968704,50.4212424085]},"record_timestamp":"2016-05-09T15:17:00+02:00"},{"datasetid":"laposte_hexasmal","recordid":"a6541cd8f1170a2e16561ca22093c1e0aa1baf33","fields":{"nom_de_la_commune":"AMBRINES","libell_d_acheminement":"AMBRINES","code_postal":"62127","coordonnees_gps":[50.3081142295,2.46698289083],"code_commune_insee":"62027"},"geometry":{"type":"Point","coordinates":[2.46698289083,50.3081142295]},"record_timestamp":"2016-05-09T15:17:00+02:00"},{"datasetid":"laposte_hexasmal","recordid":"51cae2b7b6d7ad22849e022ef506709604bc7c48","fields":{"nom_de_la_commune":"ANDRES","libell_d_acheminement":"ANDRES","code_postal":"62340","coordonnees_gps":[50.8658312835,1.91824266934],"code_commune_insee":"62031"},"geometry":{"type":"Point","coordinates":[1.91824266934,50.8658312835]},"record_timestamp":"2016-05-09T15:17:00+02:00"},{"datasetid":"laposte_hexasmal","recordid":"19651c4971bab2d68b2961600ba2a495b8a7191a","fields":{"nom_de_la_commune":"ANZIN ST AUBIN","libell_d_acheminement":"ANZIN ST AUBIN","code_postal":"62223","coordonnees_gps":[50.3178758623,2.74105063372],"code_commune_insee":"62037"},"geometry":{"type":"Point","coordinates":[2.74105063372,50.3178758623]},"record_timestamp":"2016-05-09T15:17:00+02:00"},{"datasetid":"laposte_hexasmal","recordid":"154861cf10d365d9cf02c47cca25efdd14cacfd4","fields":{"nom_de_la_commune":"AUBROMETZ","libell_d_acheminement":"AUBROMETZ","code_postal":"62390","coordonnees_gps":[50.3037964831,2.17623474177],"code_commune_insee":"62047"},"geometry":{"type":"Point","coordinates":[2.17623474177,50.3037964831]},"record_timestamp":"2016-05-09T15:17:00+02:00"},{"datasetid":"laposte_hexasmal","recordid":"4357b3cc65b8aab1c93f444f14dbbddd444012e8","fields":{"nom_de_la_commune":"AUCHY AU BOIS","libell_d_acheminement":"AUCHY AU BOIS","code_postal":"62190","coordonnees_gps":[50.5505941226,2.37330907284],"code_commune_insee":"62049"},"geometry":{"type":"Point","coordinates":[2.37330907284,50.5505941226]},"record_timestamp":"2016-05-09T15:17:00+02:00"},{"datasetid":"laposte_hexasmal","recordid":"e4e890be164eae51c1a33ac77570da0e1a073c3d","fields":{"nom_de_la_commune":"AUDINCTHUN","libell_d_acheminement":"AUDINCTHUN","code_postal":"62560","coordonnees_gps":[50.5786952858,2.12673374535],"code_commune_insee":"62053"},"geometry":{"type":"Point","coordinates":[2.12673374535,50.5786952858]},"record_timestamp":"2016-05-09T15:17:00+02:00"},{"datasetid":"laposte_hexasmal","recordid":"36524366c57c97092fab51193a10b4584ed8695d","fields":{"nom_de_la_commune":"AUDRESSELLES","libell_d_acheminement":"AUDRESSELLES","code_postal":"62164","coordonnees_gps":[50.8288589082,1.611270565],"code_commune_insee":"62056"},"geometry":{"type":"Point","coordinates":[1.611270565,50.8288589082]},"record_timestamp":"2016-05-09T15:17:00+02:00"},{"datasetid":"laposte_hexasmal","recordid":"e9d51447ad1896ad4c4339566560764a1e552fdf","fields":{"nom_de_la_commune":"AVONDANCE","libell_d_acheminement":"AVONDANCE","code_postal":"62310","coordonnees_gps":[50.4792838147,2.10125197413],"code_commune_insee":"62066"},"geometry":{"type":"Point","coordinates":[2.10125197413,50.4792838147]},"record_timestamp":"2016-05-09T15:17:00+02:00"},{"datasetid":"laposte_hexasmal","recordid":"3e1a6687a62a3d56ba941a55a55ab4bd7a4796c7","fields":{"nom_de_la_commune":"AZINCOURT","libell_d_acheminement":"AZINCOURT","code_postal":"62310","coordonnees_gps":[50.4588971511,2.11716559112],"code_commune_insee":"62069"},"geometry":{"type":"Point","coordinates":[2.11716559112,50.4588971511]},"record_timestamp":"2016-05-09T15:17:00+02:00"},{"datasetid":"laposte_hexasmal","recordid":"30defd45368334643205fdde0cca255c6f0f9472","fields":{"nom_de_la_commune":"BAILLEUL AUX CORNAILLES","libell_d_acheminement":"BAILLEUL AUX CORNAILLES","code_postal":"62127","coordonnees_gps":[50.3728404349,2.44878258653],"code_commune_insee":"62070"},"geometry":{"type":"Point","coordinates":[2.44878258653,50.3728404349]},"record_timestamp":"2016-05-09T15:17:00+02:00"},{"datasetid":"laposte_hexasmal","recordid":"b3359d195ed3328bab4e10b3d27835881663767f","fields":{"nom_de_la_commune":"BANCOURT","libell_d_acheminement":"BANCOURT","code_postal":"62450","coordonnees_gps":[50.1014519899,2.88965840912],"code_commune_insee":"62079"},"geometry":{"type":"Point","coordinates":[2.88965840912,50.1014519899]},"record_timestamp":"2016-05-09T15:17:00+02:00"},{"datasetid":"laposte_hexasmal","recordid":"ee877ed47c46c8a348d76a734b270624621be542","fields":{"nom_de_la_commune":"BARLIN","libell_d_acheminement":"BARLIN","code_postal":"62620","coordonnees_gps":[50.4565423999,2.61390140726],"code_commune_insee":"62083"},"geometry":{"type":"Point","coordinates":[2.61390140726,50.4565423999]},"record_timestamp":"2016-05-09T15:17:00+02:00"},{"datasetid":"laposte_hexasmal","recordid":"db275a8025da256122d14f59a8eeafe5d5fc4dcc","fields":{"nom_de_la_commune":"BARLY","libell_d_acheminement":"BARLY","code_postal":"62810","coordonnees_gps":[50.2482462373,2.53846548292],"code_commune_insee":"62084"},"geometry":{"type":"Point","coordinates":[2.53846548292,50.2482462373]},"record_timestamp":"2016-05-09T15:17:00+02:00"},{"datasetid":"laposte_hexasmal","recordid":"1eafbdb53272e08fc4d240b3e6b70f36c7eae700","fields":{"nom_de_la_commune":"BAVINCOURT","libell_d_acheminement":"BAVINCOURT","code_postal":"62158","coordonnees_gps":[50.2235500941,2.5641980363],"code_commune_insee":"62086"},"geometry":{"type":"Point","coordinates":[2.5641980363,50.2235500941]},"record_timestamp":"2016-05-09T15:17:00+02:00"},{"datasetid":"laposte_hexasmal","recordid":"50b6c1d8eb318b00d025e53ac268a7a7b4d4275c","fields":{"nom_de_la_commune":"BAYENGHEM LES SENINGHEM","libell_d_acheminement":"BAYENGHEM LES SENINGHEM","code_postal":"62380","coordonnees_gps":[50.7048864835,2.07577387326],"code_commune_insee":"62088"},"geometry":{"type":"Point","coordinates":[2.07577387326,50.7048864835]},"record_timestamp":"2016-05-09T15:17:00+02:00"},{"datasetid":"laposte_hexasmal","recordid":"f731ca6d20f9751f9fda6894b77233dcb4653acb","fields":{"nom_de_la_commune":"BAZINGHEN","libell_d_acheminement":"BAZINGHEN","code_postal":"62250","coordonnees_gps":[50.831272878,1.65838919631],"code_commune_insee":"62089"},"geometry":{"type":"Point","coordinates":[1.65838919631,50.831272878]},"record_timestamp":"2016-05-09T15:17:00+02:00"},{"datasetid":"laposte_hexasmal","recordid":"43b68108e4f6e662aaaf26a12e819c2e0c5d8924","fields":{"nom_de_la_commune":"BEAUFORT BLAVINCOURT","libell_d_acheminement":"BEAUFORT BLAVINCOURT","code_postal":"62810","coordonnees_gps":[50.2755246835,2.48584476187],"code_commune_insee":"62092"},"geometry":{"type":"Point","coordinates":[2.48584476187,50.2755246835]},"record_timestamp":"2016-05-09T15:17:00+02:00"},{"datasetid":"laposte_hexasmal","recordid":"ac6f9520b040ae42d76d76843f1215e550bb8dc7","fields":{"nom_de_la_commune":"BEAULENCOURT","libell_d_acheminement":"BEAULENCOURT","code_postal":"62450","coordonnees_gps":[50.0732677142,2.86940557722],"code_commune_insee":"62093"},"geometry":{"type":"Point","coordinates":[2.86940557722,50.0732677142]},"record_timestamp":"2016-05-09T15:17:00+02:00"},{"datasetid":"laposte_hexasmal","recordid":"95152cb8761ab891af4cde315958f194d2615e4c","fields":{"nom_de_la_commune":"BEAUMETZ LES LOGES","libell_d_acheminement":"BEAUMETZ LES LOGES","code_postal":"62123","coordonnees_gps":[50.2455653714,2.65887337603],"code_commune_insee":"62097"},"geometry":{"type":"Point","coordinates":[2.65887337603,50.2455653714]},"record_timestamp":"2016-05-09T15:17:00+02:00"},{"datasetid":"laposte_hexasmal","recordid":"11af653c3f9ec3a7d91de5622bde50f2a9a8b60f","fields":{"nom_de_la_commune":"BERLES AU BOIS","libell_d_acheminement":"BERLES AU BOIS","code_postal":"62123","coordonnees_gps":[50.1998422446,2.63005349312],"code_commune_insee":"62112"},"geometry":{"type":"Point","coordinates":[2.63005349312,50.1998422446]},"record_timestamp":"2016-05-09T15:17:00+02:00"},{"datasetid":"laposte_hexasmal","recordid":"72379a45587efb3c20275cc0e36ef0a179d73225","fields":{"nom_de_la_commune":"BERTINCOURT","libell_d_acheminement":"BERTINCOURT","code_postal":"62124","coordonnees_gps":[50.0875076095,2.98123833644],"code_commune_insee":"62117"},"geometry":{"type":"Point","coordinates":[2.98123833644,50.0875076095]},"record_timestamp":"2016-05-09T15:17:00+02:00"},{"datasetid":"laposte_hexasmal","recordid":"ae5775df4bcc28127ad6a59b021e4fb3b2252e43","fields":{"nom_de_la_commune":"BEZINGHEM","libell_d_acheminement":"BEZINGHEM","code_postal":"62650","coordonnees_gps":[50.5986244617,1.85180618484],"code_commune_insee":"62127"},"geometry":{"type":"Point","coordinates":[1.85180618484,50.5986244617]},"record_timestamp":"2016-05-09T15:17:00+02:00"},{"datasetid":"laposte_hexasmal","recordid":"9e2d9425f4203f8567d2947ec788c7337e4636e2","fields":{"nom_de_la_commune":"BLINGEL","libell_d_acheminement":"BLINGEL","code_postal":"62770","coordonnees_gps":[50.4051757793,2.15016843833],"code_commune_insee":"62142"},"geometry":{"type":"Point","coordinates":[2.15016843833,50.4051757793]},"record_timestamp":"2016-05-09T15:17:00+02:00"},{"datasetid":"laposte_hexasmal","recordid":"fc0cebfb5c51eceece66be77ebcbcead96fe9652","fields":{"nom_de_la_commune":"BOISJEAN","libell_d_acheminement":"BOISJEAN","code_postal":"62170","coordonnees_gps":[50.4084556449,1.78127372492],"code_commune_insee":"62150"},"geometry":{"type":"Point","coordinates":[1.78127372492,50.4084556449]},"record_timestamp":"2016-05-09T15:17:00+02:00"},{"datasetid":"laposte_hexasmal","recordid":"dc6559d4ebb90471e2dbca1b9b57eafb7741aed1","fields":{"nom_de_la_commune":"BOISLEUX ST MARC","libell_d_acheminement":"BOISLEUX ST MARC","code_postal":"62175","coordonnees_gps":[50.212910679,2.79651597969],"code_commune_insee":"62152"},"geometry":{"type":"Point","coordinates":[2.79651597969,50.212910679]},"record_timestamp":"2016-05-09T15:17:00+02:00"},{"datasetid":"laposte_hexasmal","recordid":"91f6ba542d1a3c5d40c394ecf79350bef60d2ee5","fields":{"nom_de_la_commune":"BOUBERS SUR CANCHE","libell_d_acheminement":"BOUBERS SUR CANCHE","code_postal":"62270","coordonnees_gps":[50.2910196847,2.236634893],"code_commune_insee":"62158"},"geometry":{"type":"Point","coordinates":[2.236634893,50.2910196847]},"record_timestamp":"2016-05-09T15:17:00+02:00"},{"datasetid":"laposte_hexasmal","recordid":"c4f7a9280d16eb9560136b2e8cf758ebbff9b5ac","fields":{"nom_de_la_commune":"BOURNONVILLE","libell_d_acheminement":"BOURNONVILLE","code_postal":"62240","coordonnees_gps":[50.698274703,1.84604616577],"code_commune_insee":"62165"},"geometry":{"type":"Point","coordinates":[1.84604616577,50.698274703]},"record_timestamp":"2016-05-09T15:17:00+02:00"},{"datasetid":"laposte_hexasmal","recordid":"67247731fe4985712e64bc349ab63937e7ee6b55","fields":{"nom_de_la_commune":"BOUVELINGHEM","libell_d_acheminement":"BOUVELINGHEM","code_postal":"62380","coordonnees_gps":[50.7353867231,2.03289516346],"code_commune_insee":"62169"},"geometry":{"type":"Point","coordinates":[2.03289516346,50.7353867231]},"record_timestamp":"2016-05-09T15:17:00+02:00"},{"datasetid":"laposte_hexasmal","recordid":"a9897fa9055899d3e996c8a5a91ee2d09faec7d3","fields":{"nom_de_la_commune":"BREBIERES","libell_d_acheminement":"BREBIERES","code_postal":"62117","coordonnees_gps":[50.3380926792,3.0195549694],"code_commune_insee":"62173"},"geometry":{"type":"Point","coordinates":[3.0195549694,50.3380926792]},"record_timestamp":"2016-05-09T15:17:00+02:00"},{"datasetid":"laposte_hexasmal","recordid":"0a111bd7911d643119116cf009269a1f193c9db5","fields":{"nom_de_la_commune":"CAFFIERS","libell_d_acheminement":"CAFFIERS","code_postal":"62132","coordonnees_gps":[50.843543317,1.81075267365],"code_commune_insee":"62191"},"geometry":{"type":"Point","coordinates":[1.81075267365,50.843543317]},"record_timestamp":"2016-05-09T15:17:00+02:00"},{"datasetid":"laposte_hexasmal","recordid":"90bd323d3b36723b1adb41f630a9f02a1e0c5e68","fields":{"nom_de_la_commune":"CALAIS","libell_d_acheminement":"CALAIS","code_postal":"62100","coordonnees_gps":[50.9502072754,1.87575566132],"code_commune_insee":"62193"},"geometry":{"type":"Point","coordinates":[1.87575566132,50.9502072754]},"record_timestamp":"2016-05-09T15:17:00+02:00"},{"datasetid":"laposte_hexasmal","recordid":"64940b077029ab6c94663d58b3a545344beac48f","fields":{"nom_de_la_commune":"CALONNE RICOUART","libell_d_acheminement":"CALONNE RICOUART","code_postal":"62470","coordonnees_gps":[50.4898416084,2.48534476198],"code_commune_insee":"62194"},"geometry":{"type":"Point","coordinates":[2.48534476198,50.4898416084]},"record_timestamp":"2016-05-09T15:17:00+02:00"},{"datasetid":"laposte_hexasmal","recordid":"1f00a273013d2be63421b6c9ad818d8046af6b30","fields":{"nom_de_la_commune":"CAMPAGNE LES BOULONNAIS","libell_d_acheminement":"CAMPAGNE LES BOULONNAIS","code_postal":"62650","coordonnees_gps":[50.6189686189,1.99566804739],"code_commune_insee":"62202"},"geometry":{"type":"Point","coordinates":[1.99566804739,50.6189686189]},"record_timestamp":"2016-05-09T15:17:00+02:00"},{"datasetid":"laposte_hexasmal","recordid":"e67dc8e026cbcada7c8ae24a86894a101c653cee","fields":{"nom_de_la_commune":"CANLERS","libell_d_acheminement":"CANLERS","code_postal":"62310","coordonnees_gps":[50.4863634901,2.14578275774],"code_commune_insee":"62209"},"geometry":{"type":"Point","coordinates":[2.14578275774,50.4863634901]},"record_timestamp":"2016-05-09T15:17:00+02:00"},{"datasetid":"laposte_hexasmal","recordid":"75ab956636b54718651fb2ff6bd41f926f7ba191","fields":{"nom_de_la_commune":"CAPELLE LES HESDIN","libell_d_acheminement":"CAPELLE LES HESDIN","code_postal":"62140","coordonnees_gps":[50.3470946607,1.99114146583],"code_commune_insee":"62212"},"geometry":{"type":"Point","coordinates":[1.99114146583,50.3470946607]},"record_timestamp":"2016-05-09T15:17:00+02:00"},{"datasetid":"laposte_hexasmal","recordid":"d27f6cc682aecf2f67e3bb09e725b879cb4c4068","fields":{"nom_de_la_commune":"LA CAUCHIE","libell_d_acheminement":"LA CAUCHIE","code_postal":"62158","coordonnees_gps":[50.2049912603,2.58249828284],"code_commune_insee":"62216"},"geometry":{"type":"Point","coordinates":[2.58249828284,50.2049912603]},"record_timestamp":"2016-05-09T15:17:00+02:00"},{"datasetid":"laposte_hexasmal","recordid":"62beb9ee2ed63141b15ea677318f01aa04e7c98a","fields":{"nom_de_la_commune":"CAUCHY A LA TOUR","libell_d_acheminement":"CAUCHY A LA TOUR","code_postal":"62260","coordonnees_gps":[50.5047864537,2.44974030755],"code_commune_insee":"62217"},"geometry":{"type":"Point","coordinates":[2.44974030755,50.5047864537]},"record_timestamp":"2016-05-09T15:17:00+02:00"},{"datasetid":"laposte_hexasmal","recordid":"b880b8b00ea8f90981a5350daefc710a3db8286a","fields":{"nom_de_la_commune":"CLAIRMARAIS","libell_d_acheminement":"CLAIRMARAIS","code_postal":"62500","coordonnees_gps":[50.7691557578,2.34273928671],"code_commune_insee":"62225"},"geometry":{"type":"Point","coordinates":[2.34273928671,50.7691557578]},"record_timestamp":"2016-05-09T15:17:00+02:00"},{"datasetid":"laposte_hexasmal","recordid":"5bd8c85d8eff9dc3cd5ca23e24f3effe2f61a8e4","fields":{"nom_de_la_commune":"LA COMTE","libell_d_acheminement":"LA COMTE","code_postal":"62150","coordonnees_gps":[50.4259527407,2.49981751816],"code_commune_insee":"62232"},"geometry":{"type":"Point","coordinates":[2.49981751816,50.4259527407]},"record_timestamp":"2016-05-09T15:17:00+02:00"},{"datasetid":"laposte_hexasmal","recordid":"f92520be5009cc52f1a42f984bd348ae23a76234","fields":{"nom_de_la_commune":"CONTEVILLE LES BOULOGNE","libell_d_acheminement":"CONTEVILLE LES BOULOGNE","code_postal":"62126","coordonnees_gps":[50.7441321021,1.72974942382],"code_commune_insee":"62237"},"geometry":{"type":"Point","coordinates":[1.72974942382,50.7441321021]},"record_timestamp":"2016-05-09T15:17:00+02:00"},{"datasetid":"laposte_hexasmal","recordid":"772273c8c1f2e7471b14535e4128c8dc2db86dfb","fields":{"nom_de_la_commune":"COUPELLE NEUVE","libell_d_acheminement":"COUPELLE NEUVE","code_postal":"62310","coordonnees_gps":[50.4980306908,2.10823141445],"code_commune_insee":"62246"},"geometry":{"type":"Point","coordinates":[2.10823141445,50.4980306908]},"record_timestamp":"2016-05-09T15:17:00+02:00"},{"datasetid":"laposte_hexasmal","recordid":"7f874e94be6cd1c034cd63c380ca93d06fcf0010","fields":{"nom_de_la_commune":"COURCELLES LES LENS","libell_d_acheminement":"COURCELLES LES LENS","code_postal":"62970","coordonnees_gps":[50.4147715319,3.01497181219],"code_commune_insee":"62249"},"geometry":{"type":"Point","coordinates":[3.01497181219,50.4147715319]},"record_timestamp":"2016-05-09T15:17:00+02:00"},{"datasetid":"laposte_hexasmal","recordid":"1445fe772d91537f1076272c2b771ffd94aea8d3","fields":{"nom_de_la_commune":"LA COUTURE","libell_d_acheminement":"LA COUTURE","code_postal":"62136","coordonnees_gps":[50.5786372651,2.69951640297],"code_commune_insee":"62252"},"geometry":{"type":"Point","coordinates":[2.69951640297,50.5786372651]},"record_timestamp":"2016-05-09T15:17:00+02:00"},{"datasetid":"laposte_hexasmal","recordid":"bed23777b8c86d44ece3faeab5dd15c360a1b8dd","fields":{"nom_de_la_commune":"CREPY","libell_d_acheminement":"CREPY","code_postal":"62310","coordonnees_gps":[50.4725099777,2.20322348829],"code_commune_insee":"62256"},"geometry":{"type":"Point","coordinates":[2.20322348829,50.4725099777]},"record_timestamp":"2016-05-09T15:17:00+02:00"},{"datasetid":"laposte_hexasmal","recordid":"d7cd709953caf3ef7b09de1e2d734bc5f446b0e7","fields":{"nom_de_la_commune":"CROISILLES","libell_d_acheminement":"CROISILLES","code_postal":"62128","coordonnees_gps":[50.1978734873,2.88112932349],"code_commune_insee":"62259"},"geometry":{"type":"Point","coordinates":[2.88112932349,50.1978734873]},"record_timestamp":"2016-05-09T15:17:00+02:00"},{"datasetid":"laposte_hexasmal","recordid":"f5a396c21fe665cb66af51254771e0f9504fd538","fields":{"nom_de_la_commune":"DENNEBROEUCQ","libell_d_acheminement":"DENNEBROEUCQ","code_postal":"62560","coordonnees_gps":[50.5841623425,2.15571582187],"code_commune_insee":"62267"},"geometry":{"type":"Point","coordinates":[2.15571582187,50.5841623425]},"record_timestamp":"2016-05-09T15:17:00+02:00"},{"datasetid":"laposte_hexasmal","recordid":"45076341b38ddd5a761fc39b28bad84a7e129d4e","fields":{"nom_de_la_commune":"DIVION","libell_d_acheminement":"DIVION","code_postal":"62460","coordonnees_gps":[50.4697599295,2.50465277071],"code_commune_insee":"62270"},"geometry":{"type":"Point","coordinates":[2.50465277071,50.4697599295]},"record_timestamp":"2016-05-09T15:17:00+02:00"},{"datasetid":"laposte_hexasmal","recordid":"8f1ae51d3ee30d194d3e1adfa22075973e154db0","fields":{"nom_de_la_commune":"ECUIRES","libell_d_acheminement":"ECUIRES","code_postal":"62170","coordonnees_gps":[50.4375878146,1.76808279831],"code_commune_insee":"62289"},"geometry":{"type":"Point","coordinates":[1.76808279831,50.4375878146]},"record_timestamp":"2016-05-09T15:17:00+02:00"},{"datasetid":"laposte_hexasmal","recordid":"49f8702a9524634d20b334702e5947de835c0ace","fields":{"nom_de_la_commune":"ELEU DIT LEAUWETTE","libell_d_acheminement":"ELEU DIT LEAUWETTE","code_postal":"62300","coordonnees_gps":[50.4182625415,2.81150914933],"code_commune_insee":"62291"},"geometry":{"type":"Point","coordinates":[2.81150914933,50.4182625415]},"record_timestamp":"2016-05-09T15:17:00+02:00"},{"datasetid":"laposte_hexasmal","recordid":"da7bda82904aca1209d9f2a7a7aac75053b5b6d3","fields":{"nom_de_la_commune":"ENGUINEGATTE","libell_d_acheminement":"ENGUINEGATTE","code_postal":"62145","coordonnees_gps":[50.6082639968,2.26812644414],"code_commune_insee":"62294"},"geometry":{"type":"Point","coordinates":[2.26812644414,50.6082639968]},"record_timestamp":"2016-05-09T15:17:00+02:00"},{"datasetid":"laposte_hexasmal","recordid":"054432e8dc5ccc0e88e21f613622ded36fc20ef9","fields":{"nom_de_la_commune":"ERNY ST JULIEN","libell_d_acheminement":"ERNY ST JULIEN","code_postal":"62960","coordonnees_gps":[50.5839233636,2.25140626649],"code_commune_insee":"62304"},"geometry":{"type":"Point","coordinates":[2.25140626649,50.5839233636]},"record_timestamp":"2016-05-09T15:17:00+02:00"},{"datasetid":"laposte_hexasmal","recordid":"4657a0e0170b9be1573ab8484a2d506dae34649c","fields":{"nom_de_la_commune":"ESTREE","libell_d_acheminement":"ESTREE","code_postal":"62170","coordonnees_gps":[50.4955374947,1.80353730749],"code_commune_insee":"62312"},"geometry":{"type":"Point","coordinates":[1.80353730749,50.4955374947]},"record_timestamp":"2016-05-09T15:17:00+02:00"},{"datasetid":"laposte_hexasmal","recordid":"9eb17f8750fdb36be1b343ae12baa54ba2301199","fields":{"nom_de_la_commune":"ESTREELLES","libell_d_acheminement":"ESTREELLES","code_postal":"62170","coordonnees_gps":[50.5013343429,1.77932498079],"code_commune_insee":"62315"},"geometry":{"type":"Point","coordinates":[1.77932498079,50.5013343429]},"record_timestamp":"2016-05-09T15:17:00+02:00"},{"datasetid":"laposte_hexasmal","recordid":"f1500e5998a6c331124753a3e3128ea9282a74fa","fields":{"nom_de_la_commune":"EVIN MALMAISON","libell_d_acheminement":"EVIN MALMAISON","code_postal":"62141","coordonnees_gps":[50.4353563235,3.03002444738],"code_commune_insee":"62321"},"geometry":{"type":"Point","coordinates":[3.03002444738,50.4353563235]},"record_timestamp":"2016-05-09T15:17:00+02:00"},{"datasetid":"laposte_hexasmal","recordid":"1b73fd003d05ed0344663ef7b18482037ebe1009","fields":{"nom_de_la_commune":"FICHEUX","libell_d_acheminement":"FICHEUX","code_postal":"62173","coordonnees_gps":[50.2258571465,2.74623560668],"code_commune_insee":"62332"},"geometry":{"type":"Point","coordinates":[2.74623560668,50.2258571465]},"record_timestamp":"2016-05-09T15:17:00+02:00"},{"datasetid":"laposte_hexasmal","recordid":"b9b764db6531eedfa7361627d37f96a3db770d6e","fields":{"nom_de_la_commune":"FOSSEUX","libell_d_acheminement":"FOSSEUX","code_postal":"62810","coordonnees_gps":[50.2541868154,2.56492880738],"code_commune_insee":"62347"},"geometry":{"type":"Point","coordinates":[2.56492880738,50.2541868154]},"record_timestamp":"2016-05-09T15:17:00+02:00"},{"datasetid":"laposte_hexasmal","recordid":"d2511b0265269bb89dfc18b7cf1708cc8da63e59","fields":{"nom_de_la_commune":"FOUQUEREUIL","libell_d_acheminement":"FOUQUEREUIL","code_postal":"62232","coordonnees_gps":[50.5207754925,2.59890688489],"code_commune_insee":"62349"},"geometry":{"type":"Point","coordinates":[2.59890688489,50.5207754925]},"record_timestamp":"2016-05-09T15:17:00+02:00"},{"datasetid":"laposte_hexasmal","recordid":"da3087eac104358b55ed696f11e391565dd5e468","fields":{"nom_de_la_commune":"FRESNOY","libell_d_acheminement":"FRESNOY","code_postal":"62770","coordonnees_gps":[50.3739202398,2.13763944148],"code_commune_insee":"62357"},"geometry":{"type":"Point","coordinates":[2.13763944148,50.3739202398]},"record_timestamp":"2016-05-09T15:17:00+02:00"},{"datasetid":"laposte_hexasmal","recordid":"be450f8c6ecf9142a3654168ce6f082a1f47b3da","fields":{"nom_de_la_commune":"FRESSIN","libell_d_acheminement":"FRESSIN","code_postal":"62140","coordonnees_gps":[50.4488605209,2.05259326434],"code_commune_insee":"62359"},"geometry":{"type":"Point","coordinates":[2.05259326434,50.4488605209]},"record_timestamp":"2016-05-09T15:17:00+02:00"},{"datasetid":"laposte_hexasmal","recordid":"39b05fa610329243484b732c825af1ecb96a301d","fields":{"nom_de_la_commune":"FREVENT","libell_d_acheminement":"FREVENT","code_postal":"62270","coordonnees_gps":[50.270911587,2.29293491451],"code_commune_insee":"62361"},"geometry":{"type":"Point","coordinates":[2.29293491451,50.270911587]},"record_timestamp":"2016-05-09T15:17:00+02:00"},{"datasetid":"laposte_hexasmal","recordid":"3f3331b0d927b0b13a5e79ddc588ec4d17d4efa5","fields":{"nom_de_la_commune":"FREVILLERS","libell_d_acheminement":"FREVILLERS","code_postal":"62127","coordonnees_gps":[50.40086365,2.52420922895],"code_commune_insee":"62362"},"geometry":{"type":"Point","coordinates":[2.52420922895,50.40086365]},"record_timestamp":"2016-05-09T15:17:00+02:00"},{"datasetid":"laposte_hexasmal","recordid":"74500d1c23b91186672964024107da93d28f9ffc","fields":{"nom_de_la_commune":"FRUGES","libell_d_acheminement":"FRUGES","code_postal":"62310","coordonnees_gps":[50.5130111281,2.1230697319],"code_commune_insee":"62364"},"geometry":{"type":"Point","coordinates":[2.1230697319,50.5130111281]},"record_timestamp":"2016-05-09T15:17:00+02:00"},{"datasetid":"laposte_hexasmal","recordid":"47b7f828107a15db5a5cb3d794ed6520833ba9b7","fields":{"nom_de_la_commune":"GOUY SERVINS","libell_d_acheminement":"GOUY SERVINS","code_postal":"62530","coordonnees_gps":[50.4026129183,2.65579808326],"code_commune_insee":"62380"},"geometry":{"type":"Point","coordinates":[2.65579808326,50.4026129183]},"record_timestamp":"2016-05-09T15:17:00+02:00"},{"datasetid":"laposte_hexasmal","recordid":"0eb29be9b384b3b3a13ffe6270c2497c16936bb1","fields":{"nom_de_la_commune":"GRAINCOURT LES HAVRINCOURT","libell_d_acheminement":"GRAINCOURT LES HAVRINCOURT","code_postal":"62147","coordonnees_gps":[50.1424794757,3.09706084719],"code_commune_insee":"62384"},"geometry":{"type":"Point","coordinates":[3.09706084719,50.1424794757]},"record_timestamp":"2016-05-09T15:17:00+02:00"},{"datasetid":"laposte_hexasmal","recordid":"7774adf3c0c3590e1fb1194cdcb50bae0c3682ba","fields":{"nom_de_la_commune":"GRENAY","libell_d_acheminement":"GRENAY","code_postal":"62160","coordonnees_gps":[50.4496814864,2.74513302656],"code_commune_insee":"62386"},"geometry":{"type":"Point","coordinates":[2.74513302656,50.4496814864]},"record_timestamp":"2016-05-09T15:17:00+02:00"},{"datasetid":"laposte_hexasmal","recordid":"131fc28f76b5d50ebfe0eb68097a682ef6bd95e5","fields":{"nom_de_la_commune":"GREVILLERS","libell_d_acheminement":"GREVILLERS","code_postal":"62450","coordonnees_gps":[50.1018030363,2.7985377862],"code_commune_insee":"62387"},"geometry":{"type":"Point","coordinates":[2.7985377862,50.1018030363]},"record_timestamp":"2016-05-09T15:17:00+02:00"},{"datasetid":"laposte_hexasmal","recordid":"49d3e19267da628c94131944ec237fc26180c167","fields":{"nom_de_la_commune":"GROFFLIERS","libell_d_acheminement":"GROFFLIERS","code_postal":"62600","coordonnees_gps":[50.3852621579,1.60399303027],"code_commune_insee":"62390"},"geometry":{"type":"Point","coordinates":[1.60399303027,50.3852621579]},"record_timestamp":"2016-05-09T15:17:00+02:00"},{"datasetid":"laposte_hexasmal","recordid":"27fc95d99ea97086003e797384658a46c8db4860","fields":{"nom_de_la_commune":"HAMELINCOURT","libell_d_acheminement":"HAMELINCOURT","code_postal":"62121","coordonnees_gps":[50.1833996066,2.80226363556],"code_commune_insee":"62406"},"geometry":{"type":"Point","coordinates":[2.80226363556,50.1833996066]},"record_timestamp":"2016-05-09T15:17:00+02:00"},{"datasetid":"laposte_hexasmal","recordid":"9066186f0af8a1d8c0b997aade67e2944518d1da","fields":{"nom_de_la_commune":"HAMES BOUCRES","libell_d_acheminement":"HAMES BOUCRES","code_postal":"62340","coordonnees_gps":[50.8843797191,1.8485231785],"code_commune_insee":"62408"},"geometry":{"type":"Point","coordinates":[1.8485231785,50.8843797191]},"record_timestamp":"2016-05-09T15:17:00+02:00"},{"datasetid":"laposte_hexasmal","recordid":"060548b3bdb6c4fd517618db30bb815880285f8f","fields":{"nom_de_la_commune":"HARAVESNES","libell_d_acheminement":"HARAVESNES","code_postal":"62390","coordonnees_gps":[50.2847351527,2.12582011822],"code_commune_insee":"62411"},"geometry":{"type":"Point","coordinates":[2.12582011822,50.2847351527]},"record_timestamp":"2016-05-09T15:17:00+02:00"},{"datasetid":"laposte_hexasmal","recordid":"49649432422468a657a54d22bc263a335ca61761","fields":{"nom_de_la_commune":"HAUTE AVESNES","libell_d_acheminement":"HAUTE AVESNES","code_postal":"62144","coordonnees_gps":[50.3298562005,2.63592929368],"code_commune_insee":"62415"},"geometry":{"type":"Point","coordinates":[2.63592929368,50.3298562005]},"record_timestamp":"2016-05-09T15:17:00+02:00"},{"datasetid":"laposte_hexasmal","recordid":"779d1140e51c101c468f158df7d75af3f4c18b10","fields":{"nom_de_la_commune":"HAUTECLOQUE","libell_d_acheminement":"HAUTECLOQUE","code_postal":"62130","coordonnees_gps":[50.3338971726,2.31705625508],"code_commune_insee":"62416"},"geometry":{"type":"Point","coordinates":[2.31705625508,50.3338971726]},"record_timestamp":"2016-05-09T15:17:00+02:00"},{"datasetid":"laposte_hexasmal","recordid":"8e7aa6dd66a388c6ead241d4f6c9566031187e1d","fields":{"nom_de_la_commune":"HAVRINCOURT","libell_d_acheminement":"HAVRINCOURT","code_postal":"62147","coordonnees_gps":[50.1006868952,3.07267779614],"code_commune_insee":"62421"},"geometry":{"type":"Point","coordinates":[3.07267779614,50.1006868952]},"record_timestamp":"2016-05-09T15:17:00+02:00"},{"datasetid":"laposte_hexasmal","recordid":"891bb4ea1769b615890c03d9cfd92fc7eecc37fd","fields":{"nom_de_la_commune":"HENDECOURT LES CAGNICOURT","libell_d_acheminement":"HENDECOURT LES CAGNICOURT","code_postal":"62182","coordonnees_gps":[50.2147999984,2.94877835826],"code_commune_insee":"62424"},"geometry":{"type":"Point","coordinates":[2.94877835826,50.2147999984]},"record_timestamp":"2016-05-09T15:17:00+02:00"},{"datasetid":"laposte_hexasmal","recordid":"753cab5e9d2a5e11227e8e97036f08dcb912b74b","fields":{"nom_de_la_commune":"HERLIN LE SEC","libell_d_acheminement":"HERLIN LE SEC","code_postal":"62130","coordonnees_gps":[50.3533382181,2.33277640011],"code_commune_insee":"62436"},"geometry":{"type":"Point","coordinates":[2.33277640011,50.3533382181]},"record_timestamp":"2016-05-09T15:17:00+02:00"},{"datasetid":"laposte_hexasmal","recordid":"e604dd3c18474ff0e095969d47cce05003f3d1a7","fields":{"nom_de_la_commune":"HERMIES","libell_d_acheminement":"HERMIES","code_postal":"62147","coordonnees_gps":[50.1094195341,3.03670684063],"code_commune_insee":"62440"},"geometry":{"type":"Point","coordinates":[3.03670684063,50.1094195341]},"record_timestamp":"2016-05-09T15:17:00+02:00"},{"datasetid":"laposte_hexasmal","recordid":"329a48f04d9e9daf5c6f79b0497a4455abeaf770","fields":{"nom_de_la_commune":"HESDIN","libell_d_acheminement":"HESDIN","code_postal":"62140","coordonnees_gps":[50.3737561031,2.03813237444],"code_commune_insee":"62447"},"geometry":{"type":"Point","coordinates":[2.03813237444,50.3737561031]},"record_timestamp":"2016-05-09T15:17:00+02:00"},{"datasetid":"laposte_hexasmal","recordid":"0b9c08aaf3e748fbb9d69585726ae814a71a7ee6","fields":{"nom_de_la_commune":"HEURINGHEM","libell_d_acheminement":"HEURINGHEM","code_postal":"62575","coordonnees_gps":[50.6957474078,2.29391988057],"code_commune_insee":"62452"},"geometry":{"type":"Point","coordinates":[2.29391988057,50.6957474078]},"record_timestamp":"2016-05-09T15:17:00+02:00"},{"datasetid":"laposte_hexasmal","recordid":"7e687193e778d1e4d52f38a3f1c852a927c18443","fields":{"nom_de_la_commune":"HOULLE","libell_d_acheminement":"HOULLE","code_postal":"62910","coordonnees_gps":[50.7969936327,2.16484725691],"code_commune_insee":"62458"},"geometry":{"type":"Point","coordinates":[2.16484725691,50.7969936327]},"record_timestamp":"2016-05-09T15:17:00+02:00"},{"datasetid":"laposte_hexasmal","recordid":"11411745400bec16c2e76f5337d600a1154a72b7","fields":{"nom_de_la_commune":"HOUVIN HOUVIGNEUL","libell_d_acheminement":"HOUVIN HOUVIGNEUL","code_postal":"62270","coordonnees_gps":[50.2960440098,2.37739765685],"code_commune_insee":"62459"},"geometry":{"type":"Point","coordinates":[2.37739765685,50.2960440098]},"record_timestamp":"2016-05-09T15:17:00+02:00"},{"datasetid":"laposte_hexasmal","recordid":"3e50393afb0f9455ad35784c321d83d84841def0","fields":{"nom_de_la_commune":"HULLUCH","libell_d_acheminement":"HULLUCH","code_postal":"62410","coordonnees_gps":[50.4843039018,2.81123592957],"code_commune_insee":"62464"},"geometry":{"type":"Point","coordinates":[2.81123592957,50.4843039018]},"record_timestamp":"2016-05-09T15:17:00+02:00"},{"datasetid":"laposte_hexasmal","recordid":"bfd6c6222d8d54603dbe782b9edac494fe51d8f8","fields":{"nom_de_la_commune":"INCHY EN ARTOIS","libell_d_acheminement":"INCHY EN ARTOIS","code_postal":"62860","coordonnees_gps":[50.1745599898,3.03944320203],"code_commune_insee":"62469"},"geometry":{"type":"Point","coordinates":[3.03944320203,50.1745599898]},"record_timestamp":"2016-05-09T15:17:00+02:00"},{"datasetid":"laposte_hexasmal","recordid":"81c8b4546f1d1d23477eca50e0ff08d180a7a340","fields":{"nom_de_la_commune":"ISBERGUES","libell_d_acheminement":"ISBERGUES","code_postal":"62330","coordonnees_gps":[50.6163010723,2.45566347831],"code_commune_insee":"62473"},"geometry":{"type":"Point","coordinates":[2.45566347831,50.6163010723]},"record_timestamp":"2016-05-09T15:17:00+02:00"},{"datasetid":"laposte_hexasmal","recordid":"a3b5e12844ce598f5aa3f5b2af8dacbb02ebff6c","fields":{"nom_de_la_commune":"ISQUES","libell_d_acheminement":"ISQUES","code_postal":"62360","coordonnees_gps":[50.6822962991,1.65634356393],"code_commune_insee":"62474"},"geometry":{"type":"Point","coordinates":[1.65634356393,50.6822962991]},"record_timestamp":"2016-05-09T15:17:00+02:00"},{"datasetid":"laposte_hexasmal","recordid":"797c631384e25e7cece89a1b3c4c9f688eff0d47","fields":{"nom_de_la_commune":"IZEL LES HAMEAU","libell_d_acheminement":"IZEL LES HAMEAU","code_postal":"62690","coordonnees_gps":[50.3147014081,2.53156899896],"code_commune_insee":"62477"},"geometry":{"type":"Point","coordinates":[2.53156899896,50.3147014081]},"record_timestamp":"2016-05-09T15:17:00+02:00"},{"datasetid":"laposte_hexasmal","recordid":"787c4303f87ed6b211336826ad111226c3926d9a","fields":{"nom_de_la_commune":"LABEUVRIERE","libell_d_acheminement":"LABEUVRIERE","code_postal":"62122","coordonnees_gps":[50.5215621853,2.57161381831],"code_commune_insee":"62479"},"geometry":{"type":"Point","coordinates":[2.57161381831,50.5215621853]},"record_timestamp":"2016-05-09T15:17:00+02:00"},{"datasetid":"laposte_hexasmal","recordid":"8024ac398f112511bbf22b9ba76aa8d2b922a2b2","fields":{"nom_de_la_commune":"LANDRETHUN LE NORD","libell_d_acheminement":"LANDRETHUN LE NORD","code_postal":"62250","coordonnees_gps":[50.8498865079,1.77882908623],"code_commune_insee":"62487"},"geometry":{"type":"Point","coordinates":[1.77882908623,50.8498865079]},"record_timestamp":"2016-05-09T15:17:00+02:00"},{"datasetid":"laposte_hexasmal","recordid":"dadf2bd6238d30797911e97c923a343a44082dea","fields":{"nom_de_la_commune":"LIENCOURT","libell_d_acheminement":"LIENCOURT","code_postal":"62810","coordonnees_gps":[50.2739197024,2.44860991608],"code_commune_insee":"62507"},"geometry":{"type":"Point","coordinates":[2.44860991608,50.2739197024]},"record_timestamp":"2016-05-09T15:17:00+02:00"},{"datasetid":"laposte_hexasmal","recordid":"98869b2fe16fdc5505c34d2ea10432970f30cb12","fields":{"nom_de_la_commune":"LIGNY THILLOY","libell_d_acheminement":"LIGNY THILLOY","code_postal":"62450","coordonnees_gps":[50.0798753739,2.82498264917],"code_commune_insee":"62515"},"geometry":{"type":"Point","coordinates":[2.82498264917,50.0798753739]},"record_timestamp":"2016-05-09T15:17:00+02:00"},{"datasetid":"laposte_hexasmal","recordid":"832cae1bcd7f4794b656e42f5d0069d5e56fd548","fields":{"nom_de_la_commune":"LONGUENESSE","libell_d_acheminement":"LONGUENESSE","code_postal":"62219","coordonnees_gps":[50.7356717764,2.24445927669],"code_commune_insee":"62525"},"geometry":{"type":"Point","coordinates":[2.24445927669,50.7356717764]},"record_timestamp":"2016-05-09T15:17:00+02:00"},{"datasetid":"laposte_hexasmal","recordid":"7503d5611ea062a2d975635486f0d9da9d8aeec9","fields":{"nom_de_la_commune":"LONGUEVILLE","libell_d_acheminement":"LONGUEVILLE","code_postal":"62142","coordonnees_gps":[50.7288500512,1.88045163542],"code_commune_insee":"62526"},"geometry":{"type":"Point","coordinates":[1.88045163542,50.7288500512]},"record_timestamp":"2016-05-09T15:17:00+02:00"},{"datasetid":"laposte_hexasmal","recordid":"01e87ff2933da41a230e8943078a926cfc83bbd6","fields":{"nom_de_la_commune":"LORGIES","libell_d_acheminement":"LORGIES","code_postal":"62840","coordonnees_gps":[50.5665642235,2.79775803436],"code_commune_insee":"62529"},"geometry":{"type":"Point","coordinates":[2.79775803436,50.5665642235]},"record_timestamp":"2016-05-09T15:17:00+02:00"},{"datasetid":"laposte_hexasmal","recordid":"2f2b29a2eea645308928d4703b572b57f13c08a8","fields":{"nom_de_la_commune":"LOUCHES","libell_d_acheminement":"LOUCHES","code_postal":"62610","coordonnees_gps":[50.8268079904,1.99961507698],"code_commune_insee":"62531"},"geometry":{"type":"Point","coordinates":[1.99961507698,50.8268079904]},"record_timestamp":"2016-05-09T15:17:00+02:00"},{"datasetid":"laposte_hexasmal","recordid":"93c0a092ebe2f0d7f01118b84b5b3483212d718e","fields":{"nom_de_la_commune":"LUMBRES","libell_d_acheminement":"LUMBRES","code_postal":"62380","coordonnees_gps":[50.705094418,2.11706482499],"code_commune_insee":"62534"},"geometry":{"type":"Point","coordinates":[2.11706482499,50.705094418]},"record_timestamp":"2016-05-09T15:17:00+02:00"},{"datasetid":"laposte_hexasmal","recordid":"a4724b141005a48186ad9ece79931586cbd380e2","fields":{"nom_de_la_commune":"LA MADELAINE SOUS MONTREUIL","libell_d_acheminement":"LA MADELAINE SOUS MONTREUIL","code_postal":"62170","coordonnees_gps":[50.4657638325,1.74915066351],"code_commune_insee":"62535"},"geometry":{"type":"Point","coordinates":[1.74915066351,50.4657638325]},"record_timestamp":"2016-05-09T15:17:00+02:00"},{"datasetid":"laposte_hexasmal","recordid":"3bc1dc6ed76032ace093cbb414fbe0fefdb23fde","fields":{"nom_de_la_commune":"MAISONCELLE","libell_d_acheminement":"MAISONCELLE","code_postal":"62310","coordonnees_gps":[50.4509090574,2.14815135855],"code_commune_insee":"62541"},"geometry":{"type":"Point","coordinates":[2.14815135855,50.4509090574]},"record_timestamp":"2016-05-09T15:17:00+02:00"},{"datasetid":"laposte_hexasmal","recordid":"7df91c84a2d779eba672e1f99c6cd6e9df4c1299","fields":{"nom_de_la_commune":"MARCK","libell_d_acheminement":"MARCK","code_postal":"62730","coordonnees_gps":[50.9539156079,1.94945765215],"code_commune_insee":"62548"},"geometry":{"type":"Point","coordinates":[1.94945765215,50.9539156079]},"record_timestamp":"2016-05-09T15:17:00+02:00"},{"datasetid":"laposte_hexasmal","recordid":"546c87e5d340e60e7ba88f9902facbfe14527eb9","fields":{"nom_de_la_commune":"MARESQUEL ECQUEMICOURT","libell_d_acheminement":"MARESQUEL ECQUEMICOURT","code_postal":"62990","coordonnees_gps":[50.3999401675,1.93489288336],"code_commune_insee":"62552"},"geometry":{"type":"Point","coordinates":[1.93489288336,50.3999401675]},"record_timestamp":"2016-05-09T15:17:00+02:00"},{"datasetid":"laposte_hexasmal","recordid":"16a6a15ae597ca82108409e64f5c0e344ad129e2","fields":{"nom_de_la_commune":"MARQUISE","libell_d_acheminement":"MARQUISE","code_postal":"62250","coordonnees_gps":[50.8125786719,1.70113966333],"code_commune_insee":"62560"},"geometry":{"type":"Point","coordinates":[1.70113966333,50.8125786719]},"record_timestamp":"2016-05-09T15:17:00+02:00"},{"datasetid":"laposte_hexasmal","recordid":"4d194dffa461eae80c5851cdd33e4e9b1afa74f9","fields":{"nom_de_la_commune":"MERCATEL","libell_d_acheminement":"MERCATEL","code_postal":"62217","coordonnees_gps":[50.2345646876,2.78842840897],"code_commune_insee":"62568"},"geometry":{"type":"Point","coordinates":[2.78842840897,50.2345646876]},"record_timestamp":"2016-05-09T15:17:00+02:00"},{"datasetid":"laposte_hexasmal","recordid":"e91ad8313d140b7cc7fb876a42e3a8f7991edd0c","fields":{"nom_de_la_commune":"METZ EN COUTURE","libell_d_acheminement":"METZ EN COUTURE","code_postal":"62124","coordonnees_gps":[50.0624565501,3.06272750972],"code_commune_insee":"62572"},"geometry":{"type":"Point","coordinates":[3.06272750972,50.0624565501]},"record_timestamp":"2016-05-09T15:17:00+02:00"},{"datasetid":"laposte_hexasmal","recordid":"a8f7718e7fd12a1b55ddfce65f22bbb6f6ec165e","fields":{"nom_de_la_commune":"MINGOVAL","libell_d_acheminement":"MINGOVAL","code_postal":"62690","coordonnees_gps":[50.376078209,2.56887018606],"code_commune_insee":"62574"},"geometry":{"type":"Point","coordinates":[2.56887018606,50.376078209]},"record_timestamp":"2016-05-09T15:17:00+02:00"},{"datasetid":"laposte_hexasmal","recordid":"e1f54c0da147cf85c1be8659af977c49baa50515","fields":{"nom_de_la_commune":"MONCHEL SUR CANCHE","libell_d_acheminement":"MONCHEL SUR CANCHE","code_postal":"62270","coordonnees_gps":[50.3037937856,2.21852869181],"code_commune_insee":"62577"},"geometry":{"type":"Point","coordinates":[2.21852869181,50.3037937856]},"record_timestamp":"2016-05-09T15:17:00+02:00"},{"datasetid":"laposte_hexasmal","recordid":"6d7cdb8a939b705fe5d13b1ed13963325aca728f","fields":{"nom_de_la_commune":"MONCHY AU BOIS","libell_d_acheminement":"MONCHY AU BOIS","code_postal":"62111","coordonnees_gps":[50.1799080557,2.65841335513],"code_commune_insee":"62579"},"geometry":{"type":"Point","coordinates":[2.65841335513,50.1799080557]},"record_timestamp":"2016-05-09T15:17:00+02:00"},{"datasetid":"laposte_hexasmal","recordid":"d10009fe00be3b3b72408c25645447ffc674eb59","fields":{"nom_de_la_commune":"MONCHY BRETON","libell_d_acheminement":"MONCHY BRETON","code_postal":"62127","coordonnees_gps":[50.3984333716,2.43602889753],"code_commune_insee":"62580"},"geometry":{"type":"Point","coordinates":[2.43602889753,50.3984333716]},"record_timestamp":"2016-05-09T15:17:00+02:00"},{"datasetid":"laposte_hexasmal","recordid":"84bc4e20a1ae33a0334c9bc04621a45fd2656501","fields":{"nom_de_la_commune":"MONT ST ELOI","libell_d_acheminement":"MONT ST ELOI","code_postal":"62144","coordonnees_gps":[50.3502329575,2.69040970286],"code_commune_insee":"62589"},"geometry":{"type":"Point","coordinates":[2.69040970286,50.3502329575]},"record_timestamp":"2016-05-09T15:17:00+02:00"},{"datasetid":"laposte_hexasmal","recordid":"09936b92168970b35adde14f21e9e42265ea2cd1","fields":{"nom_de_la_commune":"MONTS EN TERNOIS","libell_d_acheminement":"MONTS EN TERNOIS","code_postal":"62130","coordonnees_gps":[50.3211000612,2.38646498424],"code_commune_insee":"62590"},"geometry":{"type":"Point","coordinates":[2.38646498424,50.3211000612]},"record_timestamp":"2016-05-09T15:17:00+02:00"},{"datasetid":"laposte_hexasmal","recordid":"affb210f9ce1512066f731ae3b66c68ac361323c","fields":{"nom_de_la_commune":"MORINGHEM","libell_d_acheminement":"MORINGHEM","code_postal":"62910","coordonnees_gps":[50.7633897725,2.12682414351],"code_commune_insee":"62592"},"geometry":{"type":"Point","coordinates":[2.12682414351,50.7633897725]},"record_timestamp":"2016-05-09T15:17:00+02:00"},{"datasetid":"laposte_hexasmal","recordid":"b449b6e542c8490fbfab4c27bb87422324802b4c","fields":{"nom_de_la_commune":"NEDON","libell_d_acheminement":"NEDON","code_postal":"62550","coordonnees_gps":[50.5178234445,2.36307041105],"code_commune_insee":"62600"},"geometry":{"type":"Point","coordinates":[2.36307041105,50.5178234445]},"record_timestamp":"2016-05-09T15:17:00+02:00"},{"datasetid":"laposte_hexasmal","recordid":"0a706fbc41448cb2d5d577c594d1640372b2bb99","fields":{"nom_de_la_commune":"NEUFCHATEL HARDELOT","libell_d_acheminement":"NEUFCHATEL HARDELOT","code_postal":"62152","coordonnees_gps":[50.6171328385,1.61729338887],"code_commune_insee":"62604"},"geometry":{"type":"Point","coordinates":[1.61729338887,50.6171328385]},"record_timestamp":"2016-05-09T15:17:00+02:00"},{"datasetid":"laposte_hexasmal","recordid":"6b3eab97920245f7d364b18d5a515dbe8070001c","fields":{"nom_de_la_commune":"NEUVE CHAPELLE","libell_d_acheminement":"NEUVE CHAPELLE","code_postal":"62840","coordonnees_gps":[50.585092327,2.77952080173],"code_commune_insee":"62606"},"geometry":{"type":"Point","coordinates":[2.77952080173,50.585092327]},"record_timestamp":"2016-05-09T15:17:00+02:00"},{"datasetid":"laposte_hexasmal","recordid":"1e4d76853b69e20e9c9ac704d33206371dd03744","fields":{"nom_de_la_commune":"NEUVILLE AU CORNET","libell_d_acheminement":"NEUVILLE AU CORNET","code_postal":"62130","coordonnees_gps":[50.334282171,2.36952468939],"code_commune_insee":"62607"},"geometry":{"type":"Point","coordinates":[2.36952468939,50.334282171]},"record_timestamp":"2016-05-09T15:17:00+02:00"},{"datasetid":"laposte_hexasmal","recordid":"653d54ce86768e2b3e8b626d84e5aa74a8fedc77","fields":{"nom_de_la_commune":"NEUVIREUIL","libell_d_acheminement":"NEUVIREUIL","code_postal":"62580","coordonnees_gps":[50.3531492484,2.91444913531],"code_commune_insee":"62612"},"geometry":{"type":"Point","coordinates":[2.91444913531,50.3531492484]},"record_timestamp":"2016-05-09T15:17:00+02:00"},{"datasetid":"laposte_hexasmal","recordid":"39be4192f3edd0c71ca1fa83405d57a8212fa987","fields":{"nom_de_la_commune":"NOEUX LES AUXI","libell_d_acheminement":"NOEUX LES AUXI","code_postal":"62390","coordonnees_gps":[50.2408362056,2.18178131298],"code_commune_insee":"62616"},"geometry":{"type":"Point","coordinates":[2.18178131298,50.2408362056]},"record_timestamp":"2016-05-09T15:17:00+02:00"},{"datasetid":"laposte_hexasmal","recordid":"c43f75ed11d701500ee37f806701ca2c93d715fc","fields":{"nom_de_la_commune":"NOUVELLE EGLISE","libell_d_acheminement":"NOUVELLE EGLISE","code_postal":"62370","coordonnees_gps":[50.9318131132,2.0456999898],"code_commune_insee":"62623"},"geometry":{"type":"Point","coordinates":[2.0456999898,50.9318131132]},"record_timestamp":"2016-05-09T15:17:00+02:00"},{"datasetid":"laposte_hexasmal","recordid":"4ab08f8ec24ac404a222e8e8b97e307bb8bb911e","fields":{"nom_de_la_commune":"NOYELLES LES HUMIERES","libell_d_acheminement":"NOYELLES LES HUMIERES","code_postal":"62770","coordonnees_gps":[50.3754237505,2.17737764186],"code_commune_insee":"62625"},"geometry":{"type":"Point","coordinates":[2.17737764186,50.3754237505]},"record_timestamp":"2016-05-09T15:17:00+02:00"},{"datasetid":"laposte_hexasmal","recordid":"840eb2867e6dba17f8fd3c98734b8226ea861b4a","fields":{"nom_de_la_commune":"NOYELLE VION","libell_d_acheminement":"NOYELLE VION","code_postal":"62810","coordonnees_gps":[50.2915190134,2.54478161296],"code_commune_insee":"62630"},"geometry":{"type":"Point","coordinates":[2.54478161296,50.2915190134]},"record_timestamp":"2016-05-09T15:17:00+02:00"},{"datasetid":"laposte_hexasmal","recordid":"777ce9efd223fd6ebe37197822de003b3ec89a75","fields":{"code_postal":"62270","code_commune_insee":"62631","libell_d_acheminement":"NUNCQ HAUTECOTE","ligne_5":"HAUTECOTE","nom_de_la_commune":"NUNCQ HAUTECOTE","coordonnees_gps":[50.3077191679,2.28678904322]},"geometry":{"type":"Point","coordinates":[2.28678904322,50.3077191679]},"record_timestamp":"2016-05-09T15:17:00+02:00"},{"datasetid":"laposte_hexasmal","recordid":"ec252144254b9dab732673b4000d2c01b782d626","fields":{"nom_de_la_commune":"OSTREVILLE","libell_d_acheminement":"OSTREVILLE","code_postal":"62130","coordonnees_gps":[50.3941779286,2.39782308177],"code_commune_insee":"62641"},"geometry":{"type":"Point","coordinates":[2.39782308177,50.3941779286]},"record_timestamp":"2016-05-09T15:17:00+02:00"},{"datasetid":"laposte_hexasmal","recordid":"ceba20b8eaa2acda7f27aec808dd6405672addc6","fields":{"nom_de_la_commune":"OURTON","libell_d_acheminement":"OURTON","code_postal":"62460","coordonnees_gps":[50.4555544554,2.47132859309],"code_commune_insee":"62642"},"geometry":{"type":"Point","coordinates":[2.47132859309,50.4555544554]},"record_timestamp":"2016-05-09T15:17:00+02:00"},{"datasetid":"laposte_hexasmal","recordid":"c3e37defccac674feea0e07d038aa0be099cbae3","fields":{"nom_de_la_commune":"PARENTY","libell_d_acheminement":"PARENTY","code_postal":"62650","coordonnees_gps":[50.5942219579,1.80057178458],"code_commune_insee":"62648"},"geometry":{"type":"Point","coordinates":[1.80057178458,50.5942219579]},"record_timestamp":"2016-05-09T15:17:00+02:00"},{"datasetid":"laposte_hexasmal","recordid":"7826b520b555fd488eee9407c549ba90d3658e20","fields":{"nom_de_la_commune":"PIHEM","libell_d_acheminement":"PIHEM","code_postal":"62570","coordonnees_gps":[50.6761891157,2.21194474254],"code_commune_insee":"62656"},"geometry":{"type":"Point","coordinates":[2.21194474254,50.6761891157]},"record_timestamp":"2016-05-09T15:17:00+02:00"},{"datasetid":"laposte_hexasmal","recordid":"ef16550262964f06b9c7e37b1693b598ce3c3b6f","fields":{"nom_de_la_commune":"PIHEN LES GUINES","libell_d_acheminement":"PIHEN LES GUINES","code_postal":"62340","coordonnees_gps":[50.8717360678,1.79132748835],"code_commune_insee":"62657"},"geometry":{"type":"Point","coordinates":[1.79132748835,50.8717360678]},"record_timestamp":"2016-05-09T15:17:00+02:00"},{"datasetid":"laposte_hexasmal","recordid":"8628fbe488cc6f3fa77a73c14817fe6306335617","fields":{"nom_de_la_commune":"PLANQUES","libell_d_acheminement":"PLANQUES","code_postal":"62310","coordonnees_gps":[50.4663856926,2.08885022364],"code_commune_insee":"62659"},"geometry":{"type":"Point","coordinates":[2.08885022364,50.4663856926]},"record_timestamp":"2016-05-09T15:17:00+02:00"},{"datasetid":"laposte_hexasmal","recordid":"72439eaf19017786ac26b8fcd7742100c36d84d1","fields":{"code_postal":"62140","code_commune_insee":"62661","libell_d_acheminement":"BOUIN PLUMOISON","ligne_5":"BOUIN","nom_de_la_commune":"BOUIN PLUMOISON","coordonnees_gps":[50.3760980886,1.98171782386]},"geometry":{"type":"Point","coordinates":[1.98171782386,50.3760980886]},"record_timestamp":"2016-05-09T15:17:00+02:00"},{"datasetid":"laposte_hexasmal","recordid":"3687088884e9a1c5863e330c2288af4c14990a04","fields":{"nom_de_la_commune":"POLINCOVE","libell_d_acheminement":"POLINCOVE","code_postal":"62370","coordonnees_gps":[50.8615356416,2.10891305299],"code_commune_insee":"62662"},"geometry":{"type":"Point","coordinates":[2.10891305299,50.8615356416]},"record_timestamp":"2016-05-09T15:17:00+02:00"},{"datasetid":"laposte_hexasmal","recordid":"0a7facc7bec880f28a768921daccae097cd30f8a","fields":{"nom_de_la_commune":"PONT A VENDIN","libell_d_acheminement":"PONT A VENDIN","code_postal":"62880","coordonnees_gps":[50.4760049841,2.88811858203],"code_commune_insee":"62666"},"geometry":{"type":"Point","coordinates":[2.88811858203,50.4760049841]},"record_timestamp":"2016-05-09T15:17:00+02:00"},{"datasetid":"laposte_hexasmal","recordid":"9b85b321d979660edeb30b07fef14d17e1a36d92","fields":{"nom_de_la_commune":"PREDEFIN","libell_d_acheminement":"PREDEFIN","code_postal":"62134","coordonnees_gps":[50.5049426008,2.25899233284],"code_commune_insee":"62668"},"geometry":{"type":"Point","coordinates":[2.25899233284,50.5049426008]},"record_timestamp":"2016-05-09T15:17:00+02:00"},{"datasetid":"laposte_hexasmal","recordid":"185be3cf8baaf3230c0c2de0d0c237b6b71302d9","fields":{"nom_de_la_commune":"PUISIEUX","libell_d_acheminement":"PUISIEUX","code_postal":"62116","coordonnees_gps":[50.1064415329,2.68870005517],"code_commune_insee":"62672"},"geometry":{"type":"Point","coordinates":[2.68870005517,50.1064415329]},"record_timestamp":"2016-05-09T15:17:00+02:00"},{"datasetid":"laposte_hexasmal","recordid":"046c3e0bbede1be3ae2eccc55693f26eb461d974","fields":{"nom_de_la_commune":"LE QUESNOY EN ARTOIS","libell_d_acheminement":"LE QUESNOY EN ARTOIS","code_postal":"62140","coordonnees_gps":[50.3316939023,2.0384112079],"code_commune_insee":"62677"},"geometry":{"type":"Point","coordinates":[2.0384112079,50.3316939023]},"record_timestamp":"2016-05-09T15:17:00+02:00"},{"datasetid":"laposte_hexasmal","recordid":"a5b7d3ac7fe9e12d5f24ae68521a65782718e002","fields":{"nom_de_la_commune":"QUESTRECQUES","libell_d_acheminement":"QUESTRECQUES","code_postal":"62830","coordonnees_gps":[50.6645692579,1.74592527562],"code_commune_insee":"62679"},"geometry":{"type":"Point","coordinates":[1.74592527562,50.6645692579]},"record_timestamp":"2016-05-09T15:17:00+02:00"},{"datasetid":"laposte_hexasmal","recordid":"8bd3433bd4cf4c232ba6f80b86eec26d8217b791","fields":{"nom_de_la_commune":"RECOURT","libell_d_acheminement":"RECOURT","code_postal":"62860","coordonnees_gps":[50.2572703806,3.02765469348],"code_commune_insee":"62697"},"geometry":{"type":"Point","coordinates":[3.02765469348,50.2572703806]},"record_timestamp":"2016-05-09T15:17:00+02:00"},{"datasetid":"laposte_hexasmal","recordid":"b333c82be5e529b2728112afb8c1b317c33037c7","fields":{"nom_de_la_commune":"RECQUES SUR COURSE","libell_d_acheminement":"RECQUES SUR COURSE","code_postal":"62170","coordonnees_gps":[50.5183914542,1.77865917585],"code_commune_insee":"62698"},"geometry":{"type":"Point","coordinates":[1.77865917585,50.5183914542]},"record_timestamp":"2016-05-09T15:17:00+02:00"},{"datasetid":"laposte_hexasmal","recordid":"4acbfd98f96970335dbb20a4f352ce0b02d73cdf","fields":{"nom_de_la_commune":"RECQUES SUR HEM","libell_d_acheminement":"RECQUES SUR HEM","code_postal":"62890","coordonnees_gps":[50.8355345504,2.08017520799],"code_commune_insee":"62699"},"geometry":{"type":"Point","coordinates":[2.08017520799,50.8355345504]},"record_timestamp":"2016-05-09T15:17:00+02:00"},{"datasetid":"laposte_hexasmal","recordid":"32ae2915037f889ca4b00946720373c9edfc3769","fields":{"nom_de_la_commune":"RENTY","libell_d_acheminement":"RENTY","code_postal":"62560","coordonnees_gps":[50.5795789917,2.06891103096],"code_commune_insee":"62704"},"geometry":{"type":"Point","coordinates":[2.06891103096,50.5795789917]},"record_timestamp":"2016-05-09T15:17:00+02:00"},{"datasetid":"laposte_hexasmal","recordid":"e832d9c879e4bcf41251cbc47d90a3ad3d180026","fields":{"nom_de_la_commune":"RIVIERE","libell_d_acheminement":"RIVIERE","code_postal":"62173","coordonnees_gps":[50.232029156,2.68653803853],"code_commune_insee":"62712"},"geometry":{"type":"Point","coordinates":[2.68653803853,50.232029156]},"record_timestamp":"2016-05-09T15:17:00+02:00"},{"datasetid":"laposte_hexasmal","recordid":"0c3d08823eb17ce357640b74cc794e83cf61f1c0","fields":{"nom_de_la_commune":"ROCLINCOURT","libell_d_acheminement":"ROCLINCOURT","code_postal":"62223","coordonnees_gps":[50.3298536154,2.78984756836],"code_commune_insee":"62714"},"geometry":{"type":"Point","coordinates":[2.78984756836,50.3298536154]},"record_timestamp":"2016-05-09T15:17:00+02:00"},{"datasetid":"laposte_hexasmal","recordid":"612931b31f5dbbd185a35d6253b210c48edaa45e","fields":{"nom_de_la_commune":"ROMBLY","libell_d_acheminement":"ROMBLY","code_postal":"62120","coordonnees_gps":[50.5951805534,2.38984957197],"code_commune_insee":"62720"},"geometry":{"type":"Point","coordinates":[2.38984957197,50.5951805534]},"record_timestamp":"2016-05-09T15:17:00+02:00"},{"datasetid":"laposte_hexasmal","recordid":"e0148c5b478b222c804e6739dfb277733d4290cd","fields":{"nom_de_la_commune":"RUMILLY","libell_d_acheminement":"RUMILLY","code_postal":"62650","coordonnees_gps":[50.5793719163,2.01782227688],"code_commune_insee":"62729"},"geometry":{"type":"Point","coordinates":[2.01782227688,50.5793719163]},"record_timestamp":"2016-05-09T15:17:00+02:00"},{"datasetid":"laposte_hexasmal","recordid":"b369495a876bfe845818560f327f54654c4a7df0","fields":{"nom_de_la_commune":"RUMINGHEM","libell_d_acheminement":"RUMINGHEM","code_postal":"62370","coordonnees_gps":[50.8561596741,2.16768057488],"code_commune_insee":"62730"},"geometry":{"type":"Point","coordinates":[2.16768057488,50.8561596741]},"record_timestamp":"2016-05-09T15:17:00+02:00"},{"datasetid":"laposte_hexasmal","recordid":"a11034ed88c48eee78435f5e0076fb2ac3687eef","fields":{"nom_de_la_commune":"SAILLY EN OSTREVENT","libell_d_acheminement":"SAILLY EN OSTREVENT","code_postal":"62490","coordonnees_gps":[50.2875880806,2.99003702164],"code_commune_insee":"62734"},"geometry":{"type":"Point","coordinates":[2.99003702164,50.2875880806]},"record_timestamp":"2016-05-09T15:17:00+02:00"},{"datasetid":"laposte_hexasmal","recordid":"cdfa7e721b111f9f16e93e9af7be8549e1067333","fields":{"nom_de_la_commune":"SAILLY LABOURSE","libell_d_acheminement":"SAILLY LABOURSE","code_postal":"62113","coordonnees_gps":[50.501663993,2.70273580801],"code_commune_insee":"62735"},"geometry":{"type":"Point","coordinates":[2.70273580801,50.501663993]},"record_timestamp":"2016-05-09T15:17:00+02:00"},{"datasetid":"laposte_hexasmal","recordid":"63a92c530219ebfeb6e5285fe556eb88946932e2","fields":{"nom_de_la_commune":"SAINS LES PERNES","libell_d_acheminement":"SAINS LES PERNES","code_postal":"62550","coordonnees_gps":[50.4791687953,2.34885594845],"code_commune_insee":"62740"},"geometry":{"type":"Point","coordinates":[2.34885594845,50.4791687953]},"record_timestamp":"2016-05-09T15:17:00+02:00"},{"datasetid":"laposte_hexasmal","recordid":"34cd6d45f0bcefbb97af7af300b41d7cbd4d9e10","fields":{"nom_de_la_commune":"STE AUSTREBERTHE","libell_d_acheminement":"STE AUSTREBERTHE","code_postal":"62140","coordonnees_gps":[50.3579438229,2.04425580197],"code_commune_insee":"62743"},"geometry":{"type":"Point","coordinates":[2.04425580197,50.3579438229]},"record_timestamp":"2016-05-09T15:17:00+02:00"},{"datasetid":"laposte_hexasmal","recordid":"7a8d0cdbc3f3aa933f1b513c8b1c93f237d1e5b8","fields":{"nom_de_la_commune":"ST HILAIRE COTTES","libell_d_acheminement":"ST HILAIRE COTTES","code_postal":"62120","coordonnees_gps":[50.5673889188,2.39680232031],"code_commune_insee":"62750"},"geometry":{"type":"Point","coordinates":[2.39680232031,50.5673889188]},"record_timestamp":"2016-05-09T15:17:00+02:00"},{"datasetid":"laposte_hexasmal","recordid":"459756adb5a339696bf561ef101b7923686df751","fields":{"nom_de_la_commune":"ST INGLEVERT","libell_d_acheminement":"ST INGLEVERT","code_postal":"62250","coordonnees_gps":[50.8715347562,1.74383112864],"code_commune_insee":"62751"},"geometry":{"type":"Point","coordinates":[1.74383112864,50.8715347562]},"record_timestamp":"2016-05-09T15:17:00+02:00"},{"datasetid":"laposte_hexasmal","recordid":"68c9e6dd73c5f7ee27558c2d1ac4e1ec6d5c4e17","fields":{"nom_de_la_commune":"ST LEGER","libell_d_acheminement":"ST LEGER","code_postal":"62128","coordonnees_gps":[50.1836392129,2.8515731694],"code_commune_insee":"62754"},"geometry":{"type":"Point","coordinates":[2.8515731694,50.1836392129]},"record_timestamp":"2016-05-09T15:17:00+02:00"},{"datasetid":"laposte_hexasmal","recordid":"e58c4f8fe2995ca3f960b424e4cad47e5f5d3090","fields":{"code_postal":"62500","code_commune_insee":"62757","libell_d_acheminement":"ST MARTIN LEZ TATINGHEM","ligne_5":"TATINGHEM","nom_de_la_commune":"ST MARTIN LEZ TATINGHEM","coordonnees_gps":[50.7568801196,2.2297072767]},"geometry":{"type":"Point","coordinates":[2.2297072767,50.7568801196]},"record_timestamp":"2016-05-09T15:17:00+02:00"},{"datasetid":"laposte_hexasmal","recordid":"256fea1bc8d1b9d34163413e059f6ecbd12d0015","fields":{"nom_de_la_commune":"SAMER","libell_d_acheminement":"SAMER","code_postal":"62830","coordonnees_gps":[50.6338926429,1.75485002535],"code_commune_insee":"62773"},"geometry":{"type":"Point","coordinates":[1.75485002535,50.6338926429]},"record_timestamp":"2016-05-09T15:17:00+02:00"},{"datasetid":"laposte_hexasmal","recordid":"bb88d95c9264029f36028e6f04282ded2f88e24d","fields":{"code_postal":"62231","code_commune_insee":"62774","libell_d_acheminement":"SANGATTE","ligne_5":"BLERIOT","nom_de_la_commune":"SANGATTE","coordonnees_gps":[50.9410415453,1.76958356617]},"geometry":{"type":"Point","coordinates":[1.76958356617,50.9410415453]},"record_timestamp":"2016-05-09T15:17:00+02:00"},{"datasetid":"laposte_hexasmal","recordid":"c7ab945c2fa35e254f6422cc1df8639467ea3774","fields":{"nom_de_la_commune":"SAUDEMONT","libell_d_acheminement":"SAUDEMONT","code_postal":"62860","coordonnees_gps":[50.238640039,3.03137519569],"code_commune_insee":"62782"},"geometry":{"type":"Point","coordinates":[3.03137519569,50.238640039]},"record_timestamp":"2016-05-09T15:17:00+02:00"},{"datasetid":"laposte_hexasmal","recordid":"e9dd05f2a3a279facd4142cde73b4e9662c0f53b","fields":{"nom_de_la_commune":"SAVY BERLETTE","libell_d_acheminement":"SAVY BERLETTE","code_postal":"62690","coordonnees_gps":[50.3544160083,2.55845813427],"code_commune_insee":"62785"},"geometry":{"type":"Point","coordinates":[2.55845813427,50.3544160083]},"record_timestamp":"2016-05-09T15:17:00+02:00"},{"datasetid":"laposte_hexasmal","recordid":"4d78ab5e2daee14672d6b0aa0b1c9a220c36f650","fields":{"nom_de_la_commune":"SEMPY","libell_d_acheminement":"SEMPY","code_postal":"62170","coordonnees_gps":[50.4962113332,1.87768243694],"code_commune_insee":"62787"},"geometry":{"type":"Point","coordinates":[1.87768243694,50.4962113332]},"record_timestamp":"2016-05-09T15:17:00+02:00"},{"datasetid":"laposte_hexasmal","recordid":"ae2bce383777913b1d339c549c351a0c8e6ed09d","fields":{"nom_de_la_commune":"SIMENCOURT","libell_d_acheminement":"SIMENCOURT","code_postal":"62123","coordonnees_gps":[50.2544725245,2.63378258972],"code_commune_insee":"62796"},"geometry":{"type":"Point","coordinates":[2.63378258972,50.2544725245]},"record_timestamp":"2016-05-09T15:17:00+02:00"},{"datasetid":"laposte_hexasmal","recordid":"827f3bc461bfd2551c76d025951d76462a835dd9","fields":{"nom_de_la_commune":"SOUASTRE","libell_d_acheminement":"SOUASTRE","code_postal":"62111","coordonnees_gps":[50.1493830163,2.57000343449],"code_commune_insee":"62800"},"geometry":{"type":"Point","coordinates":[2.57000343449,50.1493830163]},"record_timestamp":"2016-05-09T15:17:00+02:00"},{"datasetid":"laposte_hexasmal","recordid":"86ddf8c2c33f6bbc2ffa1e3a322a9d9f62c0407f","fields":{"nom_de_la_commune":"TARDINGHEN","libell_d_acheminement":"TARDINGHEN","code_postal":"62179","coordonnees_gps":[50.8654992895,1.64282403638],"code_commune_insee":"62806"},"geometry":{"type":"Point","coordinates":[1.64282403638,50.8654992895]},"record_timestamp":"2016-05-09T15:17:00+02:00"},{"datasetid":"laposte_hexasmal","recordid":"21559bbc095926e4db68e3a8172cc71b6bc6100c","fields":{"nom_de_la_commune":"TORTEQUESNE","libell_d_acheminement":"TORTEQUESNE","code_postal":"62490","coordonnees_gps":[50.2909229989,3.03256081417],"code_commune_insee":"62825"},"geometry":{"type":"Point","coordinates":[3.03256081417,50.2909229989]},"record_timestamp":"2016-05-09T15:17:00+02:00"},{"datasetid":"laposte_hexasmal","recordid":"30de43e121d8fd6e5dbe1c7f2d892319621708be","fields":{"nom_de_la_commune":"TRAMECOURT","libell_d_acheminement":"TRAMECOURT","code_postal":"62310","coordonnees_gps":[50.46970334,2.15213924885],"code_commune_insee":"62828"},"geometry":{"type":"Point","coordinates":[2.15213924885,50.46970334]},"record_timestamp":"2016-05-09T15:17:00+02:00"},{"datasetid":"laposte_hexasmal","recordid":"ce60e98f2eacefc5848452d84a5fc99da297120c","fields":{"nom_de_la_commune":"LE TRANSLOY","libell_d_acheminement":"LE TRANSLOY","code_postal":"62450","coordonnees_gps":[50.0502514612,2.89232344],"code_commune_insee":"62829"},"geometry":{"type":"Point","coordinates":[2.89232344,50.0502514612]},"record_timestamp":"2016-05-09T15:17:00+02:00"},{"datasetid":"laposte_hexasmal","recordid":"b13218f22dd99efe145a6573ab60f8470cc7f2a6","fields":{"nom_de_la_commune":"TUBERSENT","libell_d_acheminement":"TUBERSENT","code_postal":"62630","coordonnees_gps":[50.5216866473,1.69918169379],"code_commune_insee":"62832"},"geometry":{"type":"Point","coordinates":[1.69918169379,50.5216866473]},"record_timestamp":"2016-05-09T15:17:00+02:00"},{"datasetid":"laposte_hexasmal","recordid":"b42b6c57dc709e014b5bf0a66fad185592d0e095","fields":{"nom_de_la_commune":"VAULX","libell_d_acheminement":"VAULX","code_postal":"62390","coordonnees_gps":[50.2710456344,2.1045646963],"code_commune_insee":"62838"},"geometry":{"type":"Point","coordinates":[2.1045646963,50.2710456344]},"record_timestamp":"2016-05-09T15:17:00+02:00"},{"datasetid":"laposte_hexasmal","recordid":"fa0fc5ad0d96a868bbec1cfda4df4a3ddfe79100","fields":{"nom_de_la_commune":"VERQUIN","libell_d_acheminement":"VERQUIN","code_postal":"62131","coordonnees_gps":[50.5014162013,2.64245100087],"code_commune_insee":"62848"},"geometry":{"type":"Point","coordinates":[2.64245100087,50.5014162013]},"record_timestamp":"2016-05-09T15:17:00+02:00"},{"datasetid":"laposte_hexasmal","recordid":"01a6a3449e109734b2931bcd5a5f6099e9e66ab8","fields":{"nom_de_la_commune":"VERTON","libell_d_acheminement":"VERTON","code_postal":"62180","coordonnees_gps":[50.4023869418,1.65093274373],"code_commune_insee":"62849"},"geometry":{"type":"Point","coordinates":[1.65093274373,50.4023869418]},"record_timestamp":"2016-05-09T15:17:00+02:00"},{"datasetid":"laposte_hexasmal","recordid":"7c23b878c14c958de575d9e1e1d776e66a889fa4","fields":{"nom_de_la_commune":"VIEILLE EGLISE","libell_d_acheminement":"VIEILLE EGLISE","code_postal":"62162","coordonnees_gps":[50.9332624726,2.07653957537],"code_commune_insee":"62852"},"geometry":{"type":"Point","coordinates":[2.07653957537,50.9332624726]},"record_timestamp":"2016-05-09T15:17:00+02:00"},{"datasetid":"laposte_hexasmal","recordid":"ca28ac4aebe8cb95657bdc438cfd0d8886b29575","fields":{"nom_de_la_commune":"VILLERS CHATEL","libell_d_acheminement":"VILLERS CHATEL","code_postal":"62690","coordonnees_gps":[50.3751045916,2.58988048072],"code_commune_insee":"62857"},"geometry":{"type":"Point","coordinates":[2.58988048072,50.3751045916]},"record_timestamp":"2016-05-09T15:17:00+02:00"},{"datasetid":"laposte_hexasmal","recordid":"3056d12d4ed77970620c2e6c773d4c8072072818","fields":{"nom_de_la_commune":"VILLERS L HOPITAL","libell_d_acheminement":"VILLERS L HOPITAL","code_postal":"62390","coordonnees_gps":[50.2291696538,2.21010808284],"code_commune_insee":"62859"},"geometry":{"type":"Point","coordinates":[2.21010808284,50.2291696538]},"record_timestamp":"2016-05-09T15:17:00+02:00"},{"datasetid":"laposte_hexasmal","recordid":"2cffb892fefa4da236f3a1ead1ff6e18703e220d","fields":{"nom_de_la_commune":"VIMY","libell_d_acheminement":"VIMY","code_postal":"62580","coordonnees_gps":[50.3776460123,2.81116855896],"code_commune_insee":"62861"},"geometry":{"type":"Point","coordinates":[2.81116855896,50.3776460123]},"record_timestamp":"2016-05-09T15:17:00+02:00"},{"datasetid":"laposte_hexasmal","recordid":"969575e5fbd3ad1b976061e4f252ef0787908afd","fields":{"nom_de_la_commune":"VINCLY","libell_d_acheminement":"VINCLY","code_postal":"62310","coordonnees_gps":[50.5561858278,2.17901178873],"code_commune_insee":"62862"},"geometry":{"type":"Point","coordinates":[2.17901178873,50.5561858278]},"record_timestamp":"2016-05-09T15:17:00+02:00"},{"datasetid":"laposte_hexasmal","recordid":"442cb7e21cbd5021265ac5221c31d178264322b2","fields":{"nom_de_la_commune":"VIS EN ARTOIS","libell_d_acheminement":"VIS EN ARTOIS","code_postal":"62156","coordonnees_gps":[50.245875467,2.93609831247],"code_commune_insee":"62864"},"geometry":{"type":"Point","coordinates":[2.93609831247,50.245875467]},"record_timestamp":"2016-05-09T15:17:00+02:00"},{"datasetid":"laposte_hexasmal","recordid":"21681847985ff336fdc9919696ae6265cfdbd3d1","fields":{"nom_de_la_commune":"VITRY EN ARTOIS","libell_d_acheminement":"VITRY EN ARTOIS","code_postal":"62490","coordonnees_gps":[50.3256177847,2.98092673342],"code_commune_insee":"62865"},"geometry":{"type":"Point","coordinates":[2.98092673342,50.3256177847]},"record_timestamp":"2016-05-09T15:17:00+02:00"},{"datasetid":"laposte_hexasmal","recordid":"c856579ca97e34840ed6e4bb3074810f0b5f303a","fields":{"nom_de_la_commune":"WABEN","libell_d_acheminement":"WABEN","code_postal":"62180","coordonnees_gps":[50.3822929262,1.65041372546],"code_commune_insee":"62866"},"geometry":{"type":"Point","coordinates":[1.65041372546,50.3822929262]},"record_timestamp":"2016-05-09T15:17:00+02:00"},{"datasetid":"laposte_hexasmal","recordid":"048b8fb478fcc488222588dd21d10fabecda0dcc","fields":{"nom_de_la_commune":"WACQUINGHEN","libell_d_acheminement":"WACQUINGHEN","code_postal":"62250","coordonnees_gps":[50.780796244,1.66928695416],"code_commune_insee":"62867"},"geometry":{"type":"Point","coordinates":[1.66928695416,50.780796244]},"record_timestamp":"2016-05-09T15:17:00+02:00"},{"datasetid":"laposte_hexasmal","recordid":"c8a5f558b9d07c0f10bf5436e65a2816f69c131e","fields":{"nom_de_la_commune":"WAVRANS SUR L AA","libell_d_acheminement":"WAVRANS SUR L AA","code_postal":"62380","coordonnees_gps":[50.6749530079,2.13817752788],"code_commune_insee":"62882"},"geometry":{"type":"Point","coordinates":[2.13817752788,50.6749530079]},"record_timestamp":"2016-05-09T15:17:00+02:00"},{"datasetid":"laposte_hexasmal","recordid":"7292cfb86a9d1880eafb53a3b4f6794e222eee94","fields":{"nom_de_la_commune":"WAVRANS SUR TERNOISE","libell_d_acheminement":"WAVRANS SUR TERNOISE","code_postal":"62130","coordonnees_gps":[50.409386121,2.2840999024],"code_commune_insee":"62883"},"geometry":{"type":"Point","coordinates":[2.2840999024,50.409386121]},"record_timestamp":"2016-05-09T15:17:00+02:00"},{"datasetid":"laposte_hexasmal","recordid":"9b43b41ddf3a182c2b06603c3a7075a4c06eaade","fields":{"nom_de_la_commune":"WICQUINGHEM","libell_d_acheminement":"WICQUINGHEM","code_postal":"62650","coordonnees_gps":[50.5725871336,1.95032069551],"code_commune_insee":"62886"},"geometry":{"type":"Point","coordinates":[1.95032069551,50.5725871336]},"record_timestamp":"2016-05-09T15:17:00+02:00"},{"datasetid":"laposte_hexasmal","recordid":"a09b143806fa7fca2581998e69c2a61dc92945ea","fields":{"nom_de_la_commune":"WIMEREUX","libell_d_acheminement":"WIMEREUX","code_postal":"62930","coordonnees_gps":[50.7792497892,1.6134323131],"code_commune_insee":"62893"},"geometry":{"type":"Point","coordinates":[1.6134323131,50.7792497892]},"record_timestamp":"2016-05-09T15:17:00+02:00"},{"datasetid":"laposte_hexasmal","recordid":"58c402509dd1767f140100ccc4a86e1a664c3fd3","fields":{"nom_de_la_commune":"WISMES","libell_d_acheminement":"WISMES","code_postal":"62380","coordonnees_gps":[50.6613559583,2.07972084711],"code_commune_insee":"62897"},"geometry":{"type":"Point","coordinates":[2.07972084711,50.6613559583]},"record_timestamp":"2016-05-09T15:17:00+02:00"},{"datasetid":"laposte_hexasmal","recordid":"48cf7ce7436fd156cef100a5a78d705d413fc5eb","fields":{"code_postal":"62890","code_commune_insee":"62904","libell_d_acheminement":"ZOUAFQUES","ligne_5":"LA RECOUSSE","nom_de_la_commune":"ZOUAFQUES","coordonnees_gps":[50.8228097659,2.05320953187]},"geometry":{"type":"Point","coordinates":[2.05320953187,50.8228097659]},"record_timestamp":"2016-05-09T15:17:00+02:00"},{"datasetid":"laposte_hexasmal","recordid":"ff7ca5991536d2c394935d4f050be7e3c26799f1","fields":{"nom_de_la_commune":"ZUDAUSQUES","libell_d_acheminement":"ZUDAUSQUES","code_postal":"62500","coordonnees_gps":[50.7526605163,2.16024730203],"code_commune_insee":"62905"},"geometry":{"type":"Point","coordinates":[2.16024730203,50.7526605163]},"record_timestamp":"2016-05-09T15:17:00+02:00"},{"datasetid":"laposte_hexasmal","recordid":"fc8c2096cce53bff4e15b717f1a423dfa14eb027","fields":{"nom_de_la_commune":"ZUTKERQUE","libell_d_acheminement":"ZUTKERQUE","code_postal":"62370","coordonnees_gps":[50.8528869572,2.05960239074],"code_commune_insee":"62906"},"geometry":{"type":"Point","coordinates":[2.05960239074,50.8528869572]},"record_timestamp":"2016-05-09T15:17:00+02:00"},{"datasetid":"laposte_hexasmal","recordid":"4896736d066f00475d83b51cbd0c5e270532c5a3","fields":{"nom_de_la_commune":"BAINCTHUN","libell_d_acheminement":"BAINCTHUN","code_postal":"62360","coordonnees_gps":[50.7014421299,1.71289310882],"code_commune_insee":"62075"},"geometry":{"type":"Point","coordinates":[1.71289310882,50.7014421299]},"record_timestamp":"2016-05-09T15:17:00+02:00"},{"datasetid":"laposte_hexasmal","recordid":"098d559557baaee68549abdac0df583c03a9b708","fields":{"nom_de_la_commune":"BASSEUX","libell_d_acheminement":"BASSEUX","code_postal":"62123","coordonnees_gps":[50.2289727397,2.64740800316],"code_commune_insee":"62085"},"geometry":{"type":"Point","coordinates":[2.64740800316,50.2289727397]},"record_timestamp":"2016-05-09T15:17:00+02:00"},{"datasetid":"laposte_hexasmal","recordid":"194315ce7279596ae187813a4df760ae4df89389","fields":{"nom_de_la_commune":"BEAURAINVILLE","libell_d_acheminement":"BEAURAINVILLE","code_postal":"62990","coordonnees_gps":[50.4202171445,1.90313818619],"code_commune_insee":"62100"},"geometry":{"type":"Point","coordinates":[1.90313818619,50.4202171445]},"record_timestamp":"2016-05-09T15:17:00+02:00"},{"datasetid":"laposte_hexasmal","recordid":"7b8d19f4183da856d27eaad5a4a28c7feeea6bfb","fields":{"nom_de_la_commune":"BECOURT","libell_d_acheminement":"BECOURT","code_postal":"62240","coordonnees_gps":[50.6398225963,1.90227068236],"code_commune_insee":"62102"},"geometry":{"type":"Point","coordinates":[1.90227068236,50.6398225963]},"record_timestamp":"2016-05-09T15:17:00+02:00"},{"datasetid":"laposte_hexasmal","recordid":"aa6eeb9737e3a6a4f6c0503c80f2405a2a758789","fields":{"nom_de_la_commune":"BELLEBRUNE","libell_d_acheminement":"BELLEBRUNE","code_postal":"62142","coordonnees_gps":[50.7326742454,1.77771584162],"code_commune_insee":"62104"},"geometry":{"type":"Point","coordinates":[1.77771584162,50.7326742454]},"record_timestamp":"2016-05-09T15:17:00+02:00"},{"datasetid":"laposte_hexasmal","recordid":"9d3e3606e76578eb9f50487cb4587553ffb39a0c","fields":{"nom_de_la_commune":"BERLENCOURT LE CAUROY","libell_d_acheminement":"BERLENCOURT LE CAUROY","code_postal":"62810","coordonnees_gps":[50.2733690161,2.42347894966],"code_commune_insee":"62111"},"geometry":{"type":"Point","coordinates":[2.42347894966,50.2733690161]},"record_timestamp":"2016-05-09T15:17:00+02:00"},{"datasetid":"laposte_hexasmal","recordid":"44b7011628f61ee81d4a069c408bbc3dac6778b3","fields":{"nom_de_la_commune":"BERMICOURT","libell_d_acheminement":"BERMICOURT","code_postal":"62130","coordonnees_gps":[50.4079914817,2.23309928615],"code_commune_insee":"62114"},"geometry":{"type":"Point","coordinates":[2.23309928615,50.4079914817]},"record_timestamp":"2016-05-09T15:17:00+02:00"},{"datasetid":"laposte_hexasmal","recordid":"948b261efce3ae620e40fc70bd022770cd2fc89b","fields":{"nom_de_la_commune":"BEUSSENT","libell_d_acheminement":"BEUSSENT","code_postal":"62170","coordonnees_gps":[50.5580041151,1.81455798669],"code_commune_insee":"62123"},"geometry":{"type":"Point","coordinates":[1.81455798669,50.5580041151]},"record_timestamp":"2016-05-09T15:17:00+02:00"},{"datasetid":"laposte_hexasmal","recordid":"bc4deeda7218c5f8ab2ad1ee726555243f695e7c","fields":{"nom_de_la_commune":"BEUVREQUEN","libell_d_acheminement":"BEUVREQUEN","code_postal":"62250","coordonnees_gps":[50.7987535793,1.67420667033],"code_commune_insee":"62125"},"geometry":{"type":"Point","coordinates":[1.67420667033,50.7987535793]},"record_timestamp":"2016-05-09T15:17:00+02:00"},{"datasetid":"laposte_hexasmal","recordid":"6a1a8e1cd6e292eb624cb20e7a12961d01380ea2","fields":{"nom_de_la_commune":"BIHUCOURT","libell_d_acheminement":"BIHUCOURT","code_postal":"62121","coordonnees_gps":[50.1268891083,2.80101394028],"code_commune_insee":"62131"},"geometry":{"type":"Point","coordinates":[2.80101394028,50.1268891083]},"record_timestamp":"2016-05-09T15:17:00+02:00"},{"datasetid":"laposte_hexasmal","recordid":"583d27e4276d400b9cc0eca13228ebc4bfe9be10","fields":{"nom_de_la_commune":"BLENDECQUES","libell_d_acheminement":"BLENDECQUES","code_postal":"62575","coordonnees_gps":[50.7159944346,2.27536301448],"code_commune_insee":"62139"},"geometry":{"type":"Point","coordinates":[2.27536301448,50.7159944346]},"record_timestamp":"2016-05-09T15:17:00+02:00"},{"datasetid":"laposte_hexasmal","recordid":"aca724ab9965fe1f585e4ee5aa0b848b3b4c7987","fields":{"nom_de_la_commune":"BLESSY","libell_d_acheminement":"BLESSY","code_postal":"62120","coordonnees_gps":[50.6164683999,2.33114392012],"code_commune_insee":"62141"},"geometry":{"type":"Point","coordinates":[2.33114392012,50.6164683999]},"record_timestamp":"2016-05-09T15:17:00+02:00"},{"datasetid":"laposte_hexasmal","recordid":"616a109eab1da8ba897b901fc66102ae7917939f","fields":{"nom_de_la_commune":"BOISLEUX AU MONT","libell_d_acheminement":"BOISLEUX AU MONT","code_postal":"62175","coordonnees_gps":[50.212571363,2.77755045242],"code_commune_insee":"62151"},"geometry":{"type":"Point","coordinates":[2.77755045242,50.212571363]},"record_timestamp":"2016-05-09T15:17:00+02:00"},{"datasetid":"laposte_hexasmal","recordid":"add616fee40f3ff5a285543c5c3ad2be9b00f3b5","fields":{"nom_de_la_commune":"BONNINGUES LES CALAIS","libell_d_acheminement":"BONNINGUES LES CALAIS","code_postal":"62340","coordonnees_gps":[50.8931678254,1.77107438801],"code_commune_insee":"62156"},"geometry":{"type":"Point","coordinates":[1.77107438801,50.8931678254]},"record_timestamp":"2016-05-09T15:17:00+02:00"},{"datasetid":"laposte_hexasmal","recordid":"bc8e358ef7967d53929ca5e98b171b815d275032","fields":{"nom_de_la_commune":"BOUBERS LES HESMOND","libell_d_acheminement":"BOUBERS LES HESMOND","code_postal":"62990","coordonnees_gps":[50.4791206101,1.94657771886],"code_commune_insee":"62157"},"geometry":{"type":"Point","coordinates":[1.94657771886,50.4791206101]},"record_timestamp":"2016-05-09T15:17:00+02:00"},{"datasetid":"laposte_hexasmal","recordid":"787dfc20e22ccda0fb13dbf02bfa6e00b40fa5b3","fields":{"nom_de_la_commune":"BOUQUEHAULT","libell_d_acheminement":"BOUQUEHAULT","code_postal":"62340","coordonnees_gps":[50.8160934944,1.89974480886],"code_commune_insee":"62161"},"geometry":{"type":"Point","coordinates":[1.89974480886,50.8160934944]},"record_timestamp":"2016-05-09T15:17:00+02:00"},{"datasetid":"laposte_hexasmal","recordid":"07af722c3cac39c1fc75c76e9e16f716acc7a192","fields":{"nom_de_la_commune":"BOURTHES","libell_d_acheminement":"BOURTHES","code_postal":"62650","coordonnees_gps":[50.6133691642,1.93499522484],"code_commune_insee":"62168"},"geometry":{"type":"Point","coordinates":[1.93499522484,50.6133691642]},"record_timestamp":"2016-05-09T15:17:00+02:00"},{"datasetid":"laposte_hexasmal","recordid":"e12640c63e3f7efe737508a6b206baaf2a1100bd","fields":{"nom_de_la_commune":"BREVILLERS","libell_d_acheminement":"BREVILLERS","code_postal":"62140","coordonnees_gps":[50.3473733228,2.02124878449],"code_commune_insee":"62175"},"geometry":{"type":"Point","coordinates":[2.02124878449,50.3473733228]},"record_timestamp":"2016-05-09T15:17:00+02:00"},{"datasetid":"laposte_hexasmal","recordid":"7dbca6cb1f7dc6256e38349b4ae95c284a66ce3a","fields":{"nom_de_la_commune":"BRUNEMBERT","libell_d_acheminement":"BRUNEMBERT","code_postal":"62240","coordonnees_gps":[50.7149478254,1.88770340365],"code_commune_insee":"62179"},"geometry":{"type":"Point","coordinates":[1.88770340365,50.7149478254]},"record_timestamp":"2016-05-09T15:17:00+02:00"},{"datasetid":"laposte_hexasmal","recordid":"15e4b62181f615b8624ca2587975ca844099f483","fields":{"nom_de_la_commune":"BUCQUOY","libell_d_acheminement":"BUCQUOY","code_postal":"62116","coordonnees_gps":[50.1459428141,2.69722641414],"code_commune_insee":"62181"},"geometry":{"type":"Point","coordinates":[2.69722641414,50.1459428141]},"record_timestamp":"2016-05-09T15:17:00+02:00"},{"datasetid":"laposte_hexasmal","recordid":"8237ef558fb60bbfa2f974333e03220af8a09a81","fields":{"nom_de_la_commune":"BULLECOURT","libell_d_acheminement":"BULLECOURT","code_postal":"62128","coordonnees_gps":[50.1927400368,2.92876143561],"code_commune_insee":"62185"},"geometry":{"type":"Point","coordinates":[2.92876143561,50.1927400368]},"record_timestamp":"2016-05-09T15:17:00+02:00"},{"datasetid":"laposte_hexasmal","recordid":"16afac36fda110e477bc8cf5b49c9dc65d28d628","fields":{"nom_de_la_commune":"BUSNES","libell_d_acheminement":"BUSNES","code_postal":"62350","coordonnees_gps":[50.588902264,2.51386787052],"code_commune_insee":"62190"},"geometry":{"type":"Point","coordinates":[2.51386787052,50.588902264]},"record_timestamp":"2016-05-09T15:17:00+02:00"},{"datasetid":"laposte_hexasmal","recordid":"fea22450da577eea17e84d1babd5236c2fbcbc19","fields":{"nom_de_la_commune":"CALONNE SUR LA LYS","libell_d_acheminement":"CALONNE SUR LA LYS","code_postal":"62350","coordonnees_gps":[50.6135521823,2.60895962502],"code_commune_insee":"62195"},"geometry":{"type":"Point","coordinates":[2.60895962502,50.6135521823]},"record_timestamp":"2016-05-09T15:17:00+02:00"},{"datasetid":"laposte_hexasmal","recordid":"6718a81ce3a41d807131efdeabe26bf106be4918","fields":{"nom_de_la_commune":"CAUCOURT","libell_d_acheminement":"CAUCOURT","code_postal":"62150","coordonnees_gps":[50.3943730066,2.57209168767],"code_commune_insee":"62218"},"geometry":{"type":"Point","coordinates":[2.57209168767,50.3943730066]},"record_timestamp":"2016-05-09T15:17:00+02:00"},{"datasetid":"laposte_hexasmal","recordid":"d18c2899c509ff29ffd65304f846907cea38ff03","fields":{"nom_de_la_commune":"CONDETTE","libell_d_acheminement":"CONDETTE","code_postal":"62360","coordonnees_gps":[50.6499272537,1.63946214432],"code_commune_insee":"62235"},"geometry":{"type":"Point","coordinates":[1.63946214432,50.6499272537]},"record_timestamp":"2016-05-09T15:17:00+02:00"},{"datasetid":"laposte_hexasmal","recordid":"4f13ce5edc3c2cbe96c0d8a361a343f319d90fd7","fields":{"nom_de_la_commune":"COURRIERES","libell_d_acheminement":"COURRIERES","code_postal":"62710","coordonnees_gps":[50.4532038748,2.94633053767],"code_commune_insee":"62250"},"geometry":{"type":"Point","coordinates":[2.94633053767,50.4532038748]},"record_timestamp":"2016-05-09T15:17:00+02:00"},{"datasetid":"laposte_hexasmal","recordid":"f295d3f6c476976dc2bd969e56d05cc480703349","fields":{"nom_de_la_commune":"COYECQUES","libell_d_acheminement":"COYECQUES","code_postal":"62560","coordonnees_gps":[50.6006814818,2.18485516321],"code_commune_insee":"62254"},"geometry":{"type":"Point","coordinates":[2.18485516321,50.6006814818]},"record_timestamp":"2016-05-09T15:17:00+02:00"},{"datasetid":"laposte_hexasmal","recordid":"996d0b81d923ad4543bf46df651f3a6222e9d00c","fields":{"nom_de_la_commune":"CUCQ","libell_d_acheminement":"CUCQ","code_postal":"62780","coordonnees_gps":[50.4861371651,1.6129406035],"code_commune_insee":"62261"},"geometry":{"type":"Point","coordinates":[1.6129406035,50.4861371651]},"record_timestamp":"2016-05-09T15:17:00+02:00"},{"datasetid":"laposte_hexasmal","recordid":"90837d9e0c07f86ea1140069ea240b6440e66eab","fields":{"code_postal":"62780","code_commune_insee":"62261","libell_d_acheminement":"CUCQ","ligne_5":"TREPIED","nom_de_la_commune":"CUCQ","coordonnees_gps":[50.4861371651,1.6129406035]},"geometry":{"type":"Point","coordinates":[1.6129406035,50.4861371651]},"record_timestamp":"2016-05-09T15:17:00+02:00"},{"datasetid":"laposte_hexasmal","recordid":"88676a4b6d794c5fad5d210cea2cfc05a88da85f","fields":{"nom_de_la_commune":"DELETTES","libell_d_acheminement":"DELETTES","code_postal":"62129","coordonnees_gps":[50.6223136659,2.21751946622],"code_commune_insee":"62265"},"geometry":{"type":"Point","coordinates":[2.21751946622,50.6223136659]},"record_timestamp":"2016-05-09T15:17:00+02:00"},{"datasetid":"laposte_hexasmal","recordid":"0496c43a0123b6805f85194c3174d8a5c9a06958","fields":{"nom_de_la_commune":"DENIER","libell_d_acheminement":"DENIER","code_postal":"62810","coordonnees_gps":[50.2905902827,2.44714550707],"code_commune_insee":"62266"},"geometry":{"type":"Point","coordinates":[2.44714550707,50.2905902827]},"record_timestamp":"2016-05-09T15:17:00+02:00"},{"datasetid":"laposte_hexasmal","recordid":"27e19e802eb0bd20c917530ca29d2ac929852c33","fields":{"nom_de_la_commune":"DOHEM","libell_d_acheminement":"DOHEM","code_postal":"62380","coordonnees_gps":[50.6269973774,2.16928920194],"code_commune_insee":"62271"},"geometry":{"type":"Point","coordinates":[2.16928920194,50.6269973774]},"record_timestamp":"2016-05-09T15:17:00+02:00"},{"datasetid":"laposte_hexasmal","recordid":"119e79fd299651e7c7f1f0461764d4883cfb0dcc","fields":{"nom_de_la_commune":"ECLIMEUX","libell_d_acheminement":"ECLIMEUX","code_postal":"62770","coordonnees_gps":[50.3960082983,2.18049856502],"code_commune_insee":"62282"},"geometry":{"type":"Point","coordinates":[2.18049856502,50.3960082983]},"record_timestamp":"2016-05-09T15:17:00+02:00"},{"datasetid":"laposte_hexasmal","recordid":"276c24358422564db500c65bb3d795eb52a11825","fields":{"nom_de_la_commune":"ECOURT ST QUENTIN","libell_d_acheminement":"ECOURT ST QUENTIN","code_postal":"62860","coordonnees_gps":[50.2606003824,3.06198342767],"code_commune_insee":"62284"},"geometry":{"type":"Point","coordinates":[3.06198342767,50.2606003824]},"record_timestamp":"2016-05-09T15:17:00+02:00"},{"datasetid":"laposte_hexasmal","recordid":"900970a3779e8a331fd158dab1193c5cab3b4a18","fields":{"nom_de_la_commune":"ECOUST ST MEIN","libell_d_acheminement":"ECOUST ST MEIN","code_postal":"62128","coordonnees_gps":[50.1738217586,2.90196588934],"code_commune_insee":"62285"},"geometry":{"type":"Point","coordinates":[2.90196588934,50.1738217586]},"record_timestamp":"2016-05-09T15:17:00+02:00"},{"datasetid":"laposte_hexasmal","recordid":"7490d16ddc8326eb5df55334bae7323fbb23eee0","fields":{"nom_de_la_commune":"ECQUES","libell_d_acheminement":"ECQUES","code_postal":"62129","coordonnees_gps":[50.6751011115,2.28909761313],"code_commune_insee":"62288"},"geometry":{"type":"Point","coordinates":[2.28909761313,50.6751011115]},"record_timestamp":"2016-05-09T15:17:00+02:00"},{"datasetid":"laposte_hexasmal","recordid":"18ced4ac59ac2565b0f45698c48327be2a1a7a5c","fields":{"nom_de_la_commune":"ECURIE","libell_d_acheminement":"ECURIE","code_postal":"62223","coordonnees_gps":[50.3328667178,2.76793109769],"code_commune_insee":"62290"},"geometry":{"type":"Point","coordinates":[2.76793109769,50.3328667178]},"record_timestamp":"2016-05-09T15:17:00+02:00"},{"datasetid":"laposte_hexasmal","recordid":"3628d5607de920192aa8167ff527f1cb2dfd8c65","fields":{"nom_de_la_commune":"ERIN","libell_d_acheminement":"ERIN","code_postal":"62134","coordonnees_gps":[50.4304811529,2.21886321071],"code_commune_insee":"62303"},"geometry":{"type":"Point","coordinates":[2.21886321071,50.4304811529]},"record_timestamp":"2016-05-09T15:17:00+02:00"},{"datasetid":"laposte_hexasmal","recordid":"834039af39b9b7638722be19e0d8aafdd95fa213","fields":{"nom_de_la_commune":"ERVILLERS","libell_d_acheminement":"ERVILLERS","code_postal":"62121","coordonnees_gps":[50.1644439777,2.82560253669],"code_commune_insee":"62306"},"geometry":{"type":"Point","coordinates":[2.82560253669,50.1644439777]},"record_timestamp":"2016-05-09T15:17:00+02:00"},{"datasetid":"laposte_hexasmal","recordid":"c57cbb40191e7c5600af70e30f787b12c2a8effe","fields":{"nom_de_la_commune":"ESTREE CAUCHY","libell_d_acheminement":"ESTREE CAUCHY","code_postal":"62690","coordonnees_gps":[50.3991885256,2.61140942771],"code_commune_insee":"62314"},"geometry":{"type":"Point","coordinates":[2.61140942771,50.3991885256]},"record_timestamp":"2016-05-09T15:17:00+02:00"},{"datasetid":"laposte_hexasmal","recordid":"c327bbb0e61a56ba527a6ffe95962b158ecd1d70","fields":{"nom_de_la_commune":"ESTREE WAMIN","libell_d_acheminement":"ESTREE WAMIN","code_postal":"62810","coordonnees_gps":[50.2689484994,2.39437823865],"code_commune_insee":"62316"},"geometry":{"type":"Point","coordinates":[2.39437823865,50.2689484994]},"record_timestamp":"2016-05-09T15:17:00+02:00"},{"datasetid":"laposte_hexasmal","recordid":"025e6c2ae120c1abf521303088a4dfc7b989195a","fields":{"nom_de_la_commune":"FEBVIN PALFART","libell_d_acheminement":"FEBVIN PALFART","code_postal":"62960","coordonnees_gps":[50.5333989825,2.30304274848],"code_commune_insee":"62327"},"geometry":{"type":"Point","coordinates":[2.30304274848,50.5333989825]},"record_timestamp":"2016-05-09T15:17:00+02:00"},{"datasetid":"laposte_hexasmal","recordid":"830f8aa40e64e9ccfe2725dd93c4d433563dee1d","fields":{"nom_de_la_commune":"FIEFS","libell_d_acheminement":"FIEFS","code_postal":"62134","coordonnees_gps":[50.4999837138,2.32108014368],"code_commune_insee":"62333"},"geometry":{"type":"Point","coordinates":[2.32108014368,50.4999837138]},"record_timestamp":"2016-05-09T15:17:00+02:00"},{"datasetid":"laposte_hexasmal","recordid":"27e58b22bd7f5bde1dde14c03dbcee3c4d0cf805","fields":{"nom_de_la_commune":"FILLIEVRES","libell_d_acheminement":"FILLIEVRES","code_postal":"62770","coordonnees_gps":[50.3171424803,2.16170089705],"code_commune_insee":"62335"},"geometry":{"type":"Point","coordinates":[2.16170089705,50.3171424803]},"record_timestamp":"2016-05-09T15:17:00+02:00"},{"datasetid":"laposte_hexasmal","recordid":"41c8956e6522ff57b81d3988cc5bb127ca3f6a0a","fields":{"nom_de_la_commune":"FONCQUEVILLERS","libell_d_acheminement":"FONCQUEVILLERS","code_postal":"62111","coordonnees_gps":[50.1456346313,2.62269335519],"code_commune_insee":"62341"},"geometry":{"type":"Point","coordinates":[2.62269335519,50.1456346313]},"record_timestamp":"2016-05-09T15:17:00+02:00"},{"datasetid":"laposte_hexasmal","recordid":"30e6ebf708f2449473479f4177fd5073985a7544","fields":{"nom_de_la_commune":"FONTAINE LES HERMANS","libell_d_acheminement":"FONTAINE LES HERMANS","code_postal":"62550","coordonnees_gps":[50.5275299556,2.33764506206],"code_commune_insee":"62344"},"geometry":{"type":"Point","coordinates":[2.33764506206,50.5275299556]},"record_timestamp":"2016-05-09T15:17:00+02:00"},{"datasetid":"laposte_hexasmal","recordid":"31629510fc5ec1b6333decb72b23ada66b4aea51","fields":{"nom_de_la_commune":"FRAMECOURT","libell_d_acheminement":"FRAMECOURT","code_postal":"62130","coordonnees_gps":[50.3232859684,2.30531032543],"code_commune_insee":"62352"},"geometry":{"type":"Point","coordinates":[2.30531032543,50.3232859684]},"record_timestamp":"2016-05-09T15:17:00+02:00"},{"datasetid":"laposte_hexasmal","recordid":"8f44f509ebdc41e13e347a3bb05b66a31a45a6e7","fields":{"nom_de_la_commune":"FRENCQ","libell_d_acheminement":"FRENCQ","code_postal":"62630","coordonnees_gps":[50.5617772282,1.68949161438],"code_commune_insee":"62354"},"geometry":{"type":"Point","coordinates":[1.68949161438,50.5617772282]},"record_timestamp":"2016-05-09T15:17:00+02:00"},{"datasetid":"laposte_hexasmal","recordid":"2edf8cd95d34994322cd39710ad0a5d4ca3174f5","fields":{"nom_de_la_commune":"GAUCHIN VERLOINGT","libell_d_acheminement":"GAUCHIN VERLOINGT","code_postal":"62130","coordonnees_gps":[50.3896471445,2.31551845708],"code_commune_insee":"62367"},"geometry":{"type":"Point","coordinates":[2.31551845708,50.3896471445]},"record_timestamp":"2016-05-09T15:17:00+02:00"},{"datasetid":"laposte_hexasmal","recordid":"e7d4253d48dac7fd4195de31a31f81dbb821cbf0","fields":{"nom_de_la_commune":"GOUVES","libell_d_acheminement":"GOUVES","code_postal":"62123","coordonnees_gps":[50.2964618298,2.64441572265],"code_commune_insee":"62378"},"geometry":{"type":"Point","coordinates":[2.64441572265,50.2964618298]},"record_timestamp":"2016-05-09T15:17:00+02:00"},{"datasetid":"laposte_hexasmal","recordid":"944099390f815261cc62f0f530cc177c3b3a354d","fields":{"nom_de_la_commune":"GRINCOURT LES PAS","libell_d_acheminement":"GRINCOURT LES PAS","code_postal":"62760","coordonnees_gps":[50.1780241408,2.48803738534],"code_commune_insee":"62389"},"geometry":{"type":"Point","coordinates":[2.48803738534,50.1780241408]},"record_timestamp":"2016-05-09T15:17:00+02:00"},{"datasetid":"laposte_hexasmal","recordid":"22f1f496bb22f00a4140945729620b163b1eca19","fields":{"nom_de_la_commune":"GUEMAPPE","libell_d_acheminement":"GUEMAPPE","code_postal":"62128","coordonnees_gps":[50.2507335159,2.89301877431],"code_commune_insee":"62392"},"geometry":{"type":"Point","coordinates":[2.89301877431,50.2507335159]},"record_timestamp":"2016-05-09T15:17:00+02:00"},{"datasetid":"laposte_hexasmal","recordid":"b1628ad2cb2279729afc0a7b8889728da5d9e0e4","fields":{"nom_de_la_commune":"GUIGNY","libell_d_acheminement":"GUIGNY","code_postal":"62140","coordonnees_gps":[50.3280392669,1.99522776546],"code_commune_insee":"62395"},"geometry":{"type":"Point","coordinates":[1.99522776546,50.3280392669]},"record_timestamp":"2016-05-09T15:17:00+02:00"},{"datasetid":"laposte_hexasmal","recordid":"6f65e54cd1592f91936e774ed2a38059f2aa103b","fields":{"nom_de_la_commune":"GUISY","libell_d_acheminement":"GUISY","code_postal":"62140","coordonnees_gps":[50.3877493268,2.00263953159],"code_commune_insee":"62398"},"geometry":{"type":"Point","coordinates":[2.00263953159,50.3877493268]},"record_timestamp":"2016-05-09T15:17:00+02:00"},{"datasetid":"laposte_hexasmal","recordid":"6ca90e14418d765531293a4685fcd827ea024f58","fields":{"nom_de_la_commune":"HABARCQ","libell_d_acheminement":"HABARCQ","code_postal":"62123","coordonnees_gps":[50.3112006109,2.60710466393],"code_commune_insee":"62399"},"geometry":{"type":"Point","coordinates":[2.60710466393,50.3112006109]},"record_timestamp":"2016-05-09T15:17:00+02:00"},{"datasetid":"laposte_hexasmal","recordid":"ab61ac183c366c470439a1c3490d7de104fcbe1f","fields":{"nom_de_la_commune":"HAMBLAIN LES PRES","libell_d_acheminement":"HAMBLAIN LES PRES","code_postal":"62118","coordonnees_gps":[50.2910559245,2.95821572161],"code_commune_insee":"62405"},"geometry":{"type":"Point","coordinates":[2.95821572161,50.2910559245]},"record_timestamp":"2016-05-09T15:17:00+02:00"},{"datasetid":"laposte_hexasmal","recordid":"fc38349064270a6a0609c77e73b9f0c2cce41df6","fields":{"nom_de_la_commune":"HANNESCAMPS","libell_d_acheminement":"HANNESCAMPS","code_postal":"62111","coordonnees_gps":[50.1615495622,2.64192588392],"code_commune_insee":"62409"},"geometry":{"type":"Point","coordinates":[2.64192588392,50.1615495622]},"record_timestamp":"2016-05-09T15:17:00+02:00"},{"datasetid":"laposte_hexasmal","recordid":"fb3df8f30e6bdfb59da923821e2f115310263a32","fields":{"nom_de_la_commune":"HAPLINCOURT","libell_d_acheminement":"HAPLINCOURT","code_postal":"62124","coordonnees_gps":[50.0929484431,2.93693106881],"code_commune_insee":"62410"},"geometry":{"type":"Point","coordinates":[2.93693106881,50.0929484431]},"record_timestamp":"2016-05-09T15:17:00+02:00"},{"datasetid":"laposte_hexasmal","recordid":"1fc88a980247fceb177fa0c2c86542e792da1428","fields":{"nom_de_la_commune":"HEBUTERNE","libell_d_acheminement":"HEBUTERNE","code_postal":"62111","coordonnees_gps":[50.1180452685,2.64625006269],"code_commune_insee":"62422"},"geometry":{"type":"Point","coordinates":[2.64625006269,50.1180452685]},"record_timestamp":"2016-05-09T15:17:00+02:00"},{"datasetid":"laposte_hexasmal","recordid":"3ec7cdb73d000cac5b3e1f601b846ee441f2c610","fields":{"nom_de_la_commune":"HERICOURT","libell_d_acheminement":"HERICOURT","code_postal":"62130","coordonnees_gps":[50.3379712527,2.24874588384],"code_commune_insee":"62433"},"geometry":{"type":"Point","coordinates":[2.24874588384,50.3379712527]},"record_timestamp":"2016-05-09T15:17:00+02:00"},{"datasetid":"laposte_hexasmal","recordid":"b4964cbd16ff717395a11bb08f07d1b0b6f47a4d","fields":{"nom_de_la_commune":"LA HERLIERE","libell_d_acheminement":"LA HERLIERE","code_postal":"62158","coordonnees_gps":[50.1989955706,2.55855876678],"code_commune_insee":"62434"},"geometry":{"type":"Point","coordinates":[2.55855876678,50.1989955706]},"record_timestamp":"2016-05-09T15:17:00+02:00"},{"datasetid":"laposte_hexasmal","recordid":"fc28734f6cfe2d32b6a196176cd0f0603bc67466","fields":{"nom_de_la_commune":"HERNICOURT","libell_d_acheminement":"HERNICOURT","code_postal":"62130","coordonnees_gps":[50.4147047187,2.30775344747],"code_commune_insee":"62442"},"geometry":{"type":"Point","coordinates":[2.30775344747,50.4147047187]},"record_timestamp":"2016-05-09T15:17:00+02:00"},{"datasetid":"laposte_hexasmal","recordid":"fa84b1d659bbdcb8853337e5e36471900397ce5c","fields":{"nom_de_la_commune":"HERVELINGHEN","libell_d_acheminement":"HERVELINGHEN","code_postal":"62179","coordonnees_gps":[50.8844468643,1.7189212303],"code_commune_insee":"62444"},"geometry":{"type":"Point","coordinates":[1.7189212303,50.8844468643]},"record_timestamp":"2016-05-09T15:17:00+02:00"},{"datasetid":"laposte_hexasmal","recordid":"adf16efb12e22cde31423a1df399868809d8f2ed","fields":{"nom_de_la_commune":"HESDIGNEUL LES BETHUNE","libell_d_acheminement":"HESDIGNEUL LES BETHUNE","code_postal":"62196","coordonnees_gps":[50.4965750907,2.5966608131],"code_commune_insee":"62445"},"geometry":{"type":"Point","coordinates":[2.5966608131,50.4965750907]},"record_timestamp":"2016-05-09T15:17:00+02:00"},{"datasetid":"laposte_hexasmal","recordid":"d9a4462129f000d19ff0c823502cdddd3c9883c4","fields":{"nom_de_la_commune":"HESMOND","libell_d_acheminement":"HESMOND","code_postal":"62990","coordonnees_gps":[50.4640913287,1.94222442678],"code_commune_insee":"62449"},"geometry":{"type":"Point","coordinates":[1.94222442678,50.4640913287]},"record_timestamp":"2016-05-09T15:17:00+02:00"},{"datasetid":"laposte_hexasmal","recordid":"c1a30a90cca2ea445b579a1314df8369b76d3882","fields":{"nom_de_la_commune":"HUCLIER","libell_d_acheminement":"HUCLIER","code_postal":"62130","coordonnees_gps":[50.4369559747,2.35470715306],"code_commune_insee":"62462"},"geometry":{"type":"Point","coordinates":[2.35470715306,50.4369559747]},"record_timestamp":"2016-05-09T15:17:00+02:00"},{"datasetid":"laposte_hexasmal","recordid":"799272413efd00d187543a006590b0163995a102","fields":{"nom_de_la_commune":"HUCQUELIERS","libell_d_acheminement":"HUCQUELIERS","code_postal":"62650","coordonnees_gps":[50.5684694236,1.91564949795],"code_commune_insee":"62463"},"geometry":{"type":"Point","coordinates":[1.91564949795,50.5684694236]},"record_timestamp":"2016-05-09T15:17:00+02:00"},{"datasetid":"laposte_hexasmal","recordid":"977034d7fc560f9cf260e54e54bbed525da215e9","fields":{"nom_de_la_commune":"HUMIERES","libell_d_acheminement":"HUMIERES","code_postal":"62130","coordonnees_gps":[50.3848586497,2.20826918939],"code_commune_insee":"62468"},"geometry":{"type":"Point","coordinates":[2.20826918939,50.3848586497]},"record_timestamp":"2016-05-09T15:17:00+02:00"},{"datasetid":"laposte_hexasmal","recordid":"326efdbc0c960a9e49969c1124bcdc0b26c4be27","fields":{"nom_de_la_commune":"INXENT","libell_d_acheminement":"INXENT","code_postal":"62170","coordonnees_gps":[50.5367422786,1.78814127158],"code_commune_insee":"62472"},"geometry":{"type":"Point","coordinates":[1.78814127158,50.5367422786]},"record_timestamp":"2016-05-09T15:17:00+02:00"},{"datasetid":"laposte_hexasmal","recordid":"6a223ce6f64eb4d084fdc85e63a52d43a62d461a","fields":{"code_postal":"62330","code_commune_insee":"62473","libell_d_acheminement":"ISBERGUES","ligne_5":"BERGUETTE","nom_de_la_commune":"ISBERGUES","coordonnees_gps":[50.6163010723,2.45566347831]},"geometry":{"type":"Point","coordinates":[2.45566347831,50.6163010723]},"record_timestamp":"2016-05-09T15:17:00+02:00"},{"datasetid":"laposte_hexasmal","recordid":"97036b11f6685fc334cc610a0c184d1522399193","fields":{"code_postal":"62330","code_commune_insee":"62473","libell_d_acheminement":"ISBERGUES","ligne_5":"MOLINGHEM","nom_de_la_commune":"ISBERGUES","coordonnees_gps":[50.6163010723,2.45566347831]},"geometry":{"type":"Point","coordinates":[2.45566347831,50.6163010723]},"record_timestamp":"2016-05-09T15:17:00+02:00"},