[{"datasetid":"laposte_hexasmal","recordid":"9c9561741d54d0af66f12c889339601b4aa45bd0","fields":{"nom_de_la_commune":"ANGEVILLE","libell_d_acheminement":"ANGEVILLE","code_postal":"82210","coordonnees_gps":[43.9938181839,1.03112257966],"code_commune_insee":"82003"},"geometry":{"type":"Point","coordinates":[1.03112257966,43.9938181839]},"record_timestamp":"2016-05-09T15:17:00+02:00"},{"datasetid":"laposte_hexasmal","recordid":"1bdd4370efcdbc534fbdb673a3f3f1d6dfa9a9b5","fields":{"nom_de_la_commune":"AUTERIVE","libell_d_acheminement":"AUTERIVE","code_postal":"82500","coordonnees_gps":[43.8551653218,0.970551762062],"code_commune_insee":"82006"},"geometry":{"type":"Point","coordinates":[0.970551762062,43.8551653218]},"record_timestamp":"2016-05-09T15:17:00+02:00"},{"datasetid":"laposte_hexasmal","recordid":"e8fa55b0ca21261102ee17393aafed85f5c35a1a","fields":{"nom_de_la_commune":"BARRY D ISLEMADE","libell_d_acheminement":"BARRY D ISLEMADE","code_postal":"82290","coordonnees_gps":[44.0727114625,1.25300673075],"code_commune_insee":"82011"},"geometry":{"type":"Point","coordinates":[1.25300673075,44.0727114625]},"record_timestamp":"2016-05-09T15:17:00+02:00"},{"datasetid":"laposte_hexasmal","recordid":"69a755d8072b20be93c9c2a0feee6dd7477f7a73","fields":{"nom_de_la_commune":"LES BARTHES","libell_d_acheminement":"LES BARTHES","code_postal":"82100","coordonnees_gps":[44.0911919961,1.17175938538],"code_commune_insee":"82012"},"geometry":{"type":"Point","coordinates":[1.17175938538,44.0911919961]},"record_timestamp":"2016-05-09T15:17:00+02:00"},{"datasetid":"laposte_hexasmal","recordid":"895f4e4d939eed6aa6ecf3e372af1713e64d6de2","fields":{"nom_de_la_commune":"BEAUPUY","libell_d_acheminement":"BEAUPUY","code_postal":"82600","coordonnees_gps":[43.8187281696,1.11607060391],"code_commune_insee":"82014"},"geometry":{"type":"Point","coordinates":[1.11607060391,43.8187281696]},"record_timestamp":"2016-05-09T15:17:00+02:00"},{"datasetid":"laposte_hexasmal","recordid":"4b9a42f4592007c8f36864b7a4a6749282ce3e86","fields":{"nom_de_la_commune":"BELVEZE","libell_d_acheminement":"BELVEZE","code_postal":"82150","coordonnees_gps":[44.3272081162,1.09030748279],"code_commune_insee":"82016"},"geometry":{"type":"Point","coordinates":[1.09030748279,44.3272081162]},"record_timestamp":"2016-05-09T15:17:00+02:00"},{"datasetid":"laposte_hexasmal","recordid":"b3f6ae8f9bce48862e80fc7aa14929e69b5c8399","fields":{"nom_de_la_commune":"BOULOC","libell_d_acheminement":"BOULOC","code_postal":"82110","coordonnees_gps":[44.3002675818,1.12464954976],"code_commune_insee":"82021"},"geometry":{"type":"Point","coordinates":[1.12464954976,44.3002675818]},"record_timestamp":"2016-05-09T15:17:00+02:00"},{"datasetid":"laposte_hexasmal","recordid":"d17c071829c3c3c508e22e8aca88a583a7cb9fbc","fields":{"nom_de_la_commune":"BOURRET","libell_d_acheminement":"BOURRET","code_postal":"82700","coordonnees_gps":[43.9436352242,1.15609472542],"code_commune_insee":"82023"},"geometry":{"type":"Point","coordinates":[1.15609472542,43.9436352242]},"record_timestamp":"2016-05-09T15:17:00+02:00"},{"datasetid":"laposte_hexasmal","recordid":"35ee1bfd96ee6b804c47ffb122f59bafb94ca371","fields":{"nom_de_la_commune":"CASTELFERRUS","libell_d_acheminement":"CASTELFERRUS","code_postal":"82100","coordonnees_gps":[44.0050177844,1.09114738889],"code_commune_insee":"82030"},"geometry":{"type":"Point","coordinates":[1.09114738889,44.0050177844]},"record_timestamp":"2016-05-09T15:17:00+02:00"},{"datasetid":"laposte_hexasmal","recordid":"2bfed2848dff4c0ed8587853a01038d88d335a1a","fields":{"nom_de_la_commune":"CORDES TOLOSANNES","libell_d_acheminement":"CORDES TOLOSANNES","code_postal":"82700","coordonnees_gps":[43.9758898256,1.13586987845],"code_commune_insee":"82045"},"geometry":{"type":"Point","coordinates":[1.13586987845,43.9758898256]},"record_timestamp":"2016-05-09T15:17:00+02:00"},{"datasetid":"laposte_hexasmal","recordid":"9e180ec3d9f07f77d0ba5924b62066c3a02c8101","fields":{"nom_de_la_commune":"COUTURES","libell_d_acheminement":"COUTURES","code_postal":"82210","coordonnees_gps":[43.960075822,0.987814449104],"code_commune_insee":"82046"},"geometry":{"type":"Point","coordinates":[0.987814449104,43.960075822]},"record_timestamp":"2016-05-09T15:17:00+02:00"},{"datasetid":"laposte_hexasmal","recordid":"dde900f24d38ab660b20867caaf0c89af3f93127","fields":{"nom_de_la_commune":"DUNES","libell_d_acheminement":"DUNES","code_postal":"82340","coordonnees_gps":[44.0864807376,0.773515942435],"code_commune_insee":"82050"},"geometry":{"type":"Point","coordinates":[0.773515942435,44.0864807376]},"record_timestamp":"2016-05-09T15:17:00+02:00"},{"datasetid":"laposte_hexasmal","recordid":"6197362e07ae81a7c39d446299aae8503713bae4","fields":{"nom_de_la_commune":"GIMAT","libell_d_acheminement":"GIMAT","code_postal":"82500","coordonnees_gps":[43.8656341647,0.940199875887],"code_commune_insee":"82068"},"geometry":{"type":"Point","coordinates":[0.940199875887,43.8656341647]},"record_timestamp":"2016-05-09T15:17:00+02:00"},{"datasetid":"laposte_hexasmal","recordid":"eeec4f8179280e620d6e2676c90a8ce164119e30","fields":{"nom_de_la_commune":"GOLFECH","libell_d_acheminement":"GOLFECH","code_postal":"82400","coordonnees_gps":[44.1100274334,0.856994008348],"code_commune_insee":"82072"},"geometry":{"type":"Point","coordinates":[0.856994008348,44.1100274334]},"record_timestamp":"2016-05-09T15:17:00+02:00"},{"datasetid":"laposte_hexasmal","recordid":"084d4ef2ad38959ef23ad3942023ded479e0cf7f","fields":{"nom_de_la_commune":"GOUDOURVILLE","libell_d_acheminement":"GOUDOURVILLE","code_postal":"82400","coordonnees_gps":[44.1130087288,0.925431531851],"code_commune_insee":"82073"},"geometry":{"type":"Point","coordinates":[0.925431531851,44.1130087288]},"record_timestamp":"2016-05-09T15:17:00+02:00"},{"datasetid":"laposte_hexasmal","recordid":"abd24b545ed6bbee56c566d140ecbf0b3ef1677c","fields":{"nom_de_la_commune":"L HONOR DE COS","libell_d_acheminement":"L HONOR DE COS","code_postal":"82130","coordonnees_gps":[44.1168766255,1.3569697203],"code_commune_insee":"82076"},"geometry":{"type":"Point","coordinates":[1.3569697203,44.1168766255]},"record_timestamp":"2016-05-09T15:17:00+02:00"},{"datasetid":"laposte_hexasmal","recordid":"aa2e23a9599eec613f95e41a928e470e782af5be","fields":{"nom_de_la_commune":"LABARTHE","libell_d_acheminement":"LABARTHE","code_postal":"82220","coordonnees_gps":[44.2091624963,1.31689415927],"code_commune_insee":"82077"},"geometry":{"type":"Point","coordinates":[1.31689415927,44.2091624963]},"record_timestamp":"2016-05-09T15:17:00+02:00"},{"datasetid":"laposte_hexasmal","recordid":"743152d36ea5f4cad38ae0c2d8da3efd0dc52a71","fields":{"nom_de_la_commune":"LABASTIDE DE PENNE","libell_d_acheminement":"LABASTIDE DE PENNE","code_postal":"82240","coordonnees_gps":[44.2817437019,1.59192694474],"code_commune_insee":"82078"},"geometry":{"type":"Point","coordinates":[1.59192694474,44.2817437019]},"record_timestamp":"2016-05-09T15:17:00+02:00"},{"datasetid":"laposte_hexasmal","recordid":"62fc849b0a06f38deef7705bb0a62df725a4cdb8","fields":{"nom_de_la_commune":"LACHAPELLE","libell_d_acheminement":"LACHAPELLE","code_postal":"82120","coordonnees_gps":[43.9851541381,0.841507103238],"code_commune_insee":"82083"},"geometry":{"type":"Point","coordinates":[0.841507103238,43.9851541381]},"record_timestamp":"2016-05-09T15:17:00+02:00"},{"datasetid":"laposte_hexasmal","recordid":"766f5151891c413c0c7632521f30093f226d2640","fields":{"nom_de_la_commune":"LAFRANCAISE","libell_d_acheminement":"LAFRANCAISE","code_postal":"82130","coordonnees_gps":[44.13545336,1.24021964059],"code_commune_insee":"82087"},"geometry":{"type":"Point","coordinates":[1.24021964059,44.13545336]},"record_timestamp":"2016-05-09T15:17:00+02:00"},{"datasetid":"laposte_hexasmal","recordid":"cd6e0966cc12bd97321bf46f36ae593422a9812d","fields":{"nom_de_la_commune":"LAMAGISTERE","libell_d_acheminement":"LAMAGISTERE","code_postal":"82360","coordonnees_gps":[44.1320571715,0.821877164854],"code_commune_insee":"82089"},"geometry":{"type":"Point","coordinates":[0.821877164854,44.1320571715]},"record_timestamp":"2016-05-09T15:17:00+02:00"},{"datasetid":"laposte_hexasmal","recordid":"416ed7998b69522097a0c1279ce0844e61fec569","fields":{"nom_de_la_commune":"LAMOTHE CAPDEVILLE","libell_d_acheminement":"LAMOTHE CAPDEVILLE","code_postal":"82130","coordonnees_gps":[44.0932619829,1.38976564928],"code_commune_insee":"82090"},"geometry":{"type":"Point","coordinates":[1.38976564928,44.0932619829]},"record_timestamp":"2016-05-09T15:17:00+02:00"},{"datasetid":"laposte_hexasmal","recordid":"2d967eb96be0d51e26edc69a36792f83cde3ad05","fields":{"nom_de_la_commune":"LAPENCHE","libell_d_acheminement":"LAPENCHE","code_postal":"82240","coordonnees_gps":[44.223694472,1.5730652063],"code_commune_insee":"82092"},"geometry":{"type":"Point","coordinates":[1.5730652063,44.223694472]},"record_timestamp":"2016-05-09T15:17:00+02:00"},{"datasetid":"laposte_hexasmal","recordid":"54d306575802cedabd10acdff898582c5f87a070","fields":{"nom_de_la_commune":"LOZE","libell_d_acheminement":"LOZE","code_postal":"82160","coordonnees_gps":[44.2922818263,1.763436611],"code_commune_insee":"82100"},"geometry":{"type":"Point","coordinates":[1.763436611,44.2922818263]},"record_timestamp":"2016-05-09T15:17:00+02:00"},{"datasetid":"laposte_hexasmal","recordid":"b0c0fdf2610cb6ccc627aad2fcbe2124f8d38762","fields":{"nom_de_la_commune":"MANSONVILLE","libell_d_acheminement":"MANSONVILLE","code_postal":"82120","coordonnees_gps":[44.0154220784,0.851115135446],"code_commune_insee":"82102"},"geometry":{"type":"Point","coordinates":[0.851115135446,44.0154220784]},"record_timestamp":"2016-05-09T15:17:00+02:00"},{"datasetid":"laposte_hexasmal","recordid":"53f1d1cbf4b293338fe58247f8e880ba7ef4f374","fields":{"nom_de_la_commune":"MAS GRENIER","libell_d_acheminement":"MAS GRENIER","code_postal":"82600","coordonnees_gps":[43.895387967,1.18134234627],"code_commune_insee":"82105"},"geometry":{"type":"Point","coordinates":[1.18134234627,43.895387967]},"record_timestamp":"2016-05-09T15:17:00+02:00"},{"datasetid":"laposte_hexasmal","recordid":"56241dbe11b1d1086b2b247f37bfe9fbdf7f9ed9","fields":{"nom_de_la_commune":"MAUMUSSON","libell_d_acheminement":"MAUMUSSON","code_postal":"82120","coordonnees_gps":[43.9122841203,0.906121220446],"code_commune_insee":"82107"},"geometry":{"type":"Point","coordinates":[0.906121220446,43.9122841203]},"record_timestamp":"2016-05-09T15:17:00+02:00"},{"datasetid":"laposte_hexasmal","recordid":"1d39630120d6d485ecdc9f379309045540e052ba","fields":{"nom_de_la_commune":"MIRAMONT DE QUERCY","libell_d_acheminement":"MIRAMONT DE QUERCY","code_postal":"82190","coordonnees_gps":[44.2285744993,1.05102472854],"code_commune_insee":"82111"},"geometry":{"type":"Point","coordinates":[1.05102472854,44.2285744993]},"record_timestamp":"2016-05-09T15:17:00+02:00"},{"datasetid":"laposte_hexasmal","recordid":"93e18d43e5e35d5bfbba71a5c5d80cc71b5d7ef0","fields":{"nom_de_la_commune":"MOISSAC","libell_d_acheminement":"MOISSAC","code_postal":"82200","coordonnees_gps":[44.1262518079,1.09834758014],"code_commune_insee":"82112"},"geometry":{"type":"Point","coordinates":[1.09834758014,44.1262518079]},"record_timestamp":"2016-05-09T15:17:00+02:00"},{"datasetid":"laposte_hexasmal","recordid":"3b0e3d60dbfc4740b34a90aa6abb6d68b171a8a1","fields":{"nom_de_la_commune":"MONTAGUDET","libell_d_acheminement":"MONTAGUDET","code_postal":"82110","coordonnees_gps":[44.2476837201,1.08705282102],"code_commune_insee":"82116"},"geometry":{"type":"Point","coordinates":[1.08705282102,44.2476837201]},"record_timestamp":"2016-05-09T15:17:00+02:00"},{"datasetid":"laposte_hexasmal","recordid":"443c542aa22c89f32e79c0598a48400c3de59e7d","fields":{"nom_de_la_commune":"MONTAIN","libell_d_acheminement":"MONTAIN","code_postal":"82100","coordonnees_gps":[43.9416567435,1.11390121929],"code_commune_insee":"82118"},"geometry":{"type":"Point","coordinates":[1.11390121929,43.9416567435]},"record_timestamp":"2016-05-09T15:17:00+02:00"},{"datasetid":"laposte_hexasmal","recordid":"14064c5cd27fa232c53252c50f49efb3370b8d4c","fields":{"nom_de_la_commune":"MONTBARTIER","libell_d_acheminement":"MONTBARTIER","code_postal":"82700","coordonnees_gps":[43.9148777604,1.28662456416],"code_commune_insee":"82123"},"geometry":{"type":"Point","coordinates":[1.28662456416,43.9148777604]},"record_timestamp":"2016-05-09T15:17:00+02:00"},{"datasetid":"laposte_hexasmal","recordid":"ce897549bbf2bb17a89bfd7bd183d32d58447261","fields":{"nom_de_la_commune":"MONTESQUIEU","libell_d_acheminement":"MONTESQUIEU","code_postal":"82200","coordonnees_gps":[44.1792539863,1.06193133749],"code_commune_insee":"82127"},"geometry":{"type":"Point","coordinates":[1.06193133749,44.1792539863]},"record_timestamp":"2016-05-09T15:17:00+02:00"},{"datasetid":"laposte_hexasmal","recordid":"9f6ebf736e227e5d83f1721f160ca537bab49533","fields":{"nom_de_la_commune":"MONTFERMIER","libell_d_acheminement":"MONTFERMIER","code_postal":"82270","coordonnees_gps":[44.2279188448,1.41564723711],"code_commune_insee":"82128"},"geometry":{"type":"Point","coordinates":[1.41564723711,44.2279188448]},"record_timestamp":"2016-05-09T15:17:00+02:00"},{"datasetid":"laposte_hexasmal","recordid":"b1a1992d016900893f02af8da905c74573d29094","fields":{"nom_de_la_commune":"MOUILLAC","libell_d_acheminement":"MOUILLAC","code_postal":"82160","coordonnees_gps":[44.2755002172,1.67305723666],"code_commune_insee":"82133"},"geometry":{"type":"Point","coordinates":[1.67305723666,44.2755002172]},"record_timestamp":"2016-05-09T15:17:00+02:00"},{"datasetid":"laposte_hexasmal","recordid":"72bf13bfa221a7626fa18d16ce6b3b1bec0e3614","fields":{"nom_de_la_commune":"PERVILLE","libell_d_acheminement":"PERVILLE","code_postal":"82400","coordonnees_gps":[44.1808489107,0.880636817107],"code_commune_insee":"82138"},"geometry":{"type":"Point","coordinates":[0.880636817107,44.1808489107]},"record_timestamp":"2016-05-09T15:17:00+02:00"},{"datasetid":"laposte_hexasmal","recordid":"d3a1eb6da02aefa8102cb45efbf967e8f9f968a3","fields":{"nom_de_la_commune":"PIQUECOS","libell_d_acheminement":"PIQUECOS","code_postal":"82130","coordonnees_gps":[44.1044667905,1.31637586388],"code_commune_insee":"82140"},"geometry":{"type":"Point","coordinates":[1.31637586388,44.1044667905]},"record_timestamp":"2016-05-09T15:17:00+02:00"},{"datasetid":"laposte_hexasmal","recordid":"f3895ce8d65844a630b568f8316eea34c06bc54b","fields":{"nom_de_la_commune":"POUPAS","libell_d_acheminement":"POUPAS","code_postal":"82120","coordonnees_gps":[43.9626081803,0.835987079725],"code_commune_insee":"82143"},"geometry":{"type":"Point","coordinates":[0.835987079725,43.9626081803]},"record_timestamp":"2016-05-09T15:17:00+02:00"},{"datasetid":"laposte_hexasmal","recordid":"60d0d0630c5f192dc0f1b3a5890c036c65277606","fields":{"nom_de_la_commune":"ST ANTONIN NOBLE VAL","libell_d_acheminement":"ST ANTONIN NOBLE VAL","code_postal":"82140","coordonnees_gps":[44.156093011,1.73640541242],"code_commune_insee":"82155"},"geometry":{"type":"Point","coordinates":[1.73640541242,44.156093011]},"record_timestamp":"2016-05-09T15:17:00+02:00"},{"datasetid":"laposte_hexasmal","recordid":"9773e360e5ec10e3d0c0abe5bba637a2755680be","fields":{"nom_de_la_commune":"ST BEAUZEIL","libell_d_acheminement":"ST BEAUZEIL","code_postal":"82150","coordonnees_gps":[44.3338919485,0.908627657621],"code_commune_insee":"82157"},"geometry":{"type":"Point","coordinates":[0.908627657621,44.3338919485]},"record_timestamp":"2016-05-09T15:17:00+02:00"},{"datasetid":"laposte_hexasmal","recordid":"73fc88f0ed8e1ef3b14c1388dcd6171dab1d9ec2","fields":{"nom_de_la_commune":"ST NICOLAS DE LA GRAVE","libell_d_acheminement":"ST NICOLAS DE LA GRAVE","code_postal":"82210","coordonnees_gps":[44.0658425315,1.02023020877],"code_commune_insee":"82169"},"geometry":{"type":"Point","coordinates":[1.02023020877,44.0658425315]},"record_timestamp":"2016-05-09T15:17:00+02:00"},{"datasetid":"laposte_hexasmal","recordid":"5eda5acac21d7e843d6945d82ccd45a01e4c791c","fields":{"nom_de_la_commune":"ST PAUL D ESPIS","libell_d_acheminement":"ST PAUL D ESPIS","code_postal":"82400","coordonnees_gps":[44.1401354751,1.00203700461],"code_commune_insee":"82170"},"geometry":{"type":"Point","coordinates":[1.00203700461,44.1401354751]},"record_timestamp":"2016-05-09T15:17:00+02:00"},{"datasetid":"laposte_hexasmal","recordid":"1398cdc5b87e90ea53c870e36966277cf1c7a0a5","fields":{"nom_de_la_commune":"ST SARDOS","libell_d_acheminement":"ST SARDOS","code_postal":"82600","coordonnees_gps":[43.9017054092,1.12413910173],"code_commune_insee":"82173"},"geometry":{"type":"Point","coordinates":[1.12413910173,43.9017054092]},"record_timestamp":"2016-05-09T15:17:00+02:00"},{"datasetid":"laposte_hexasmal","recordid":"42202d0bea0ebc3b99c4ce6b911681370d9e0ac6","fields":{"nom_de_la_commune":"ST VINCENT LESPINASSE","libell_d_acheminement":"ST VINCENT LESPINASSE","code_postal":"82400","coordonnees_gps":[44.120334414,0.963699672322],"code_commune_insee":"82175"},"geometry":{"type":"Point","coordinates":[0.963699672322,44.120334414]},"record_timestamp":"2016-05-09T15:17:00+02:00"},{"datasetid":"laposte_hexasmal","recordid":"3f4f14dd9c4d9a117114cc6ab50c6a2202928671","fields":{"nom_de_la_commune":"SEPTFONDS","libell_d_acheminement":"SEPTFONDS","code_postal":"82240","coordonnees_gps":[44.1765759652,1.61739308656],"code_commune_insee":"82179"},"geometry":{"type":"Point","coordinates":[1.61739308656,44.1765759652]},"record_timestamp":"2016-05-09T15:17:00+02:00"},{"datasetid":"laposte_hexasmal","recordid":"904c08e6a83f87499375d8ed5725202b0eb6d4ab","fields":{"nom_de_la_commune":"TOUFFAILLES","libell_d_acheminement":"TOUFFAILLES","code_postal":"82190","coordonnees_gps":[44.2755478135,1.03805964935],"code_commune_insee":"82182"},"geometry":{"type":"Point","coordinates":[1.03805964935,44.2755478135]},"record_timestamp":"2016-05-09T15:17:00+02:00"},{"datasetid":"laposte_hexasmal","recordid":"21b1aa18ad4be82815bbc5e01c49d285287f2a02","fields":{"nom_de_la_commune":"VAREN","libell_d_acheminement":"VAREN","code_postal":"82330","coordonnees_gps":[44.1580435232,1.88633565997],"code_commune_insee":"82187"},"geometry":{"type":"Point","coordinates":[1.88633565997,44.1580435232]},"record_timestamp":"2016-05-09T15:17:00+02:00"},{"datasetid":"laposte_hexasmal","recordid":"b2d336ee8b6037d1e1af47c488da1f032952f392","fields":{"nom_de_la_commune":"VARENNES","libell_d_acheminement":"VARENNES","code_postal":"82370","coordonnees_gps":[43.9165718677,1.49011749068],"code_commune_insee":"82188"},"geometry":{"type":"Point","coordinates":[1.49011749068,43.9165718677]},"record_timestamp":"2016-05-09T15:17:00+02:00"},{"datasetid":"laposte_hexasmal","recordid":"2b0455c02413c32ac972c0013974c049351660a8","fields":{"nom_de_la_commune":"VIGUERON","libell_d_acheminement":"VIGUERON","code_postal":"82500","coordonnees_gps":[43.8937685951,1.05623953646],"code_commune_insee":"82193"},"geometry":{"type":"Point","coordinates":[1.05623953646,43.8937685951]},"record_timestamp":"2016-05-09T15:17:00+02:00"},{"datasetid":"laposte_hexasmal","recordid":"adc90d16ed291f68eb1dd951e7bbcc500d53a0d3","fields":{"nom_de_la_commune":"ALBEFEUILLE LAGARDE","libell_d_acheminement":"ALBEFEUILLE LAGARDE","code_postal":"82290","coordonnees_gps":[44.0482971636,1.27398142654],"code_commune_insee":"82001"},"geometry":{"type":"Point","coordinates":[1.27398142654,44.0482971636]},"record_timestamp":"2016-05-09T15:17:00+02:00"},{"datasetid":"laposte_hexasmal","recordid":"06c673f6678914d3897b581015470a42f3fd4b97","fields":{"nom_de_la_commune":"ALBIAS","libell_d_acheminement":"ALBIAS","code_postal":"82350","coordonnees_gps":[44.0815971851,1.44856431622],"code_commune_insee":"82002"},"geometry":{"type":"Point","coordinates":[1.44856431622,44.0815971851]},"record_timestamp":"2016-05-09T15:17:00+02:00"},{"datasetid":"laposte_hexasmal","recordid":"1ebb2b926f22f043a5d7f31d25967583acd1e807","fields":{"nom_de_la_commune":"AUTY","libell_d_acheminement":"AUTY","code_postal":"82220","coordonnees_gps":[44.1889226535,1.4694372153],"code_commune_insee":"82007"},"geometry":{"type":"Point","coordinates":[1.4694372153,44.1889226535]},"record_timestamp":"2016-05-09T15:17:00+02:00"},{"datasetid":"laposte_hexasmal","recordid":"73cc020439275d6b5f135ef95946b834550d2ab4","fields":{"nom_de_la_commune":"BEAUMONT DE LOMAGNE","libell_d_acheminement":"BEAUMONT DE LOMAGNE","code_postal":"82500","coordonnees_gps":[43.876728355,1.01059588806],"code_commune_insee":"82013"},"geometry":{"type":"Point","coordinates":[1.01059588806,43.876728355]},"record_timestamp":"2016-05-09T15:17:00+02:00"},{"datasetid":"laposte_hexasmal","recordid":"80860830f452edc4258fe8c1fdbe210d4911b757","fields":{"nom_de_la_commune":"BOURG DE VISA","libell_d_acheminement":"BOURG DE VISA","code_postal":"82190","coordonnees_gps":[44.250966127,0.949785780231],"code_commune_insee":"82022"},"geometry":{"type":"Point","coordinates":[0.949785780231,44.250966127]},"record_timestamp":"2016-05-09T15:17:00+02:00"},{"datasetid":"laposte_hexasmal","recordid":"d90a6106de7e1fdd9a7cc4531b7e0a766833c2eb","fields":{"nom_de_la_commune":"BRASSAC","libell_d_acheminement":"BRASSAC","code_postal":"82190","coordonnees_gps":[44.2221101343,0.977222408503],"code_commune_insee":"82024"},"geometry":{"type":"Point","coordinates":[0.977222408503,44.2221101343]},"record_timestamp":"2016-05-09T15:17:00+02:00"},{"datasetid":"laposte_hexasmal","recordid":"c82dde9bb4b946a64c8e49009585a67bb28e7ad5","fields":{"nom_de_la_commune":"CASTELSAGRAT","libell_d_acheminement":"CASTELSAGRAT","code_postal":"82400","coordonnees_gps":[44.1767582704,0.960294296377],"code_commune_insee":"82032"},"geometry":{"type":"Point","coordinates":[0.960294296377,44.1767582704]},"record_timestamp":"2016-05-09T15:17:00+02:00"},{"datasetid":"laposte_hexasmal","recordid":"b6eed406f63b360a3106412d76c36f66d55d946e","fields":{"nom_de_la_commune":"FENEYROLS","libell_d_acheminement":"FENEYROLS","code_postal":"82140","coordonnees_gps":[44.1415263063,1.82521779243],"code_commune_insee":"82061"},"geometry":{"type":"Point","coordinates":[1.82521779243,44.1415263063]},"record_timestamp":"2016-05-09T15:17:00+02:00"},{"datasetid":"laposte_hexasmal","recordid":"17ef602f279f18a9bdee7c923f81ae27e46a499c","fields":{"nom_de_la_commune":"GARIES","libell_d_acheminement":"GARIES","code_postal":"82500","coordonnees_gps":[43.8107671631,1.03366935308],"code_commune_insee":"82064"},"geometry":{"type":"Point","coordinates":[1.03366935308,43.8107671631]},"record_timestamp":"2016-05-09T15:17:00+02:00"},{"datasetid":"laposte_hexasmal","recordid":"b0b609c60c19b83ba1c9be1c0f35b18efaefbf60","fields":{"nom_de_la_commune":"GENEBRIERES","libell_d_acheminement":"GENEBRIERES","code_postal":"82230","coordonnees_gps":[44.0012241111,1.49043175988],"code_commune_insee":"82066"},"geometry":{"type":"Point","coordinates":[1.49043175988,44.0012241111]},"record_timestamp":"2016-05-09T15:17:00+02:00"},{"datasetid":"laposte_hexasmal","recordid":"cfbf6933f54ee9665ab43d8374d2c7ade9461f1e","fields":{"nom_de_la_commune":"GINALS","libell_d_acheminement":"GINALS","code_postal":"82330","coordonnees_gps":[44.2198870277,1.87837880794],"code_commune_insee":"82069"},"geometry":{"type":"Point","coordinates":[1.87837880794,44.2198870277]},"record_timestamp":"2016-05-09T15:17:00+02:00"},{"datasetid":"laposte_hexasmal","recordid":"1b22082f1eed51c6e41d5de0996508fb0db7a82e","fields":{"nom_de_la_commune":"GRAMONT","libell_d_acheminement":"GRAMONT","code_postal":"82120","coordonnees_gps":[43.9426554834,0.787981814153],"code_commune_insee":"82074"},"geometry":{"type":"Point","coordinates":[0.787981814153,43.9426554834]},"record_timestamp":"2016-05-09T15:17:00+02:00"},{"datasetid":"laposte_hexasmal","recordid":"d391200e9ff1041bd19e0fda6f5956a227d45903","fields":{"nom_de_la_commune":"LACOUR","libell_d_acheminement":"LACOUR","code_postal":"82190","coordonnees_gps":[44.2848641284,0.965045084358],"code_commune_insee":"82084"},"geometry":{"type":"Point","coordinates":[0.965045084358,44.2848641284]},"record_timestamp":"2016-05-09T15:17:00+02:00"},{"datasetid":"laposte_hexasmal","recordid":"b25a66010cac0ee16c41e6fbbd2ac74ad8d94a40","fields":{"nom_de_la_commune":"LAFITTE","libell_d_acheminement":"LAFITTE","code_postal":"82100","coordonnees_gps":[43.9737693786,1.10663393727],"code_commune_insee":"82086"},"geometry":{"type":"Point","coordinates":[1.10663393727,43.9737693786]},"record_timestamp":"2016-05-09T15:17:00+02:00"},{"datasetid":"laposte_hexasmal","recordid":"17a163579cd49bc15a417584e1cf46302c585fa7","fields":{"nom_de_la_commune":"LAMOTHE CUMONT","libell_d_acheminement":"LAMOTHE CUMONT","code_postal":"82500","coordonnees_gps":[43.8829270496,0.913928018748],"code_commune_insee":"82091"},"geometry":{"type":"Point","coordinates":[0.913928018748,43.8829270496]},"record_timestamp":"2016-05-09T15:17:00+02:00"},{"datasetid":"laposte_hexasmal","recordid":"e2b3c8df4c2dc16c12e610f2642803c92b6469bd","fields":{"nom_de_la_commune":"MEAUZAC","libell_d_acheminement":"MEAUZAC","code_postal":"82290","coordonnees_gps":[44.0954617752,1.23041071919],"code_commune_insee":"82108"},"geometry":{"type":"Point","coordinates":[1.23041071919,44.0954617752]},"record_timestamp":"2016-05-09T15:17:00+02:00"},{"datasetid":"laposte_hexasmal","recordid":"2ebc806cd888971500b4c58cdc65f3b9f2548f0d","fields":{"nom_de_la_commune":"MERLES","libell_d_acheminement":"MERLES","code_postal":"82210","coordonnees_gps":[44.0647889391,0.966661565341],"code_commune_insee":"82109"},"geometry":{"type":"Point","coordinates":[0.966661565341,44.0647889391]},"record_timestamp":"2016-05-09T15:17:00+02:00"},{"datasetid":"laposte_hexasmal","recordid":"f783e7fafb0c36933f3fd9b0f958cdc494531cf5","fields":{"nom_de_la_commune":"PARISOT","libell_d_acheminement":"PARISOT","code_postal":"82160","coordonnees_gps":[44.2617881809,1.86571509225],"code_commune_insee":"82137"},"geometry":{"type":"Point","coordinates":[1.86571509225,44.2617881809]},"record_timestamp":"2016-05-09T15:17:00+02:00"},{"datasetid":"laposte_hexasmal","recordid":"7b8425dfa775e23f014cf21d047517f7198208ec","fields":{"nom_de_la_commune":"POMPIGNAN","libell_d_acheminement":"POMPIGNAN","code_postal":"82170","coordonnees_gps":[43.8196347492,1.32921957456],"code_commune_insee":"82142"},"geometry":{"type":"Point","coordinates":[1.32921957456,43.8196347492]},"record_timestamp":"2016-05-09T15:17:00+02:00"},{"datasetid":"laposte_hexasmal","recordid":"8b352af5484c623f966a513ceb8a2cd149aeabb7","fields":{"nom_de_la_commune":"PUYCORNET","libell_d_acheminement":"PUYCORNET","code_postal":"82220","coordonnees_gps":[44.1546581959,1.32199868953],"code_commune_insee":"82144"},"geometry":{"type":"Point","coordinates":[1.32199868953,44.1546581959]},"record_timestamp":"2016-05-09T15:17:00+02:00"},{"datasetid":"laposte_hexasmal","recordid":"dc537cc3f965150d9b8bc6bdec25efe925163578","fields":{"nom_de_la_commune":"PUYGAILLARD DE LOMAGNE","libell_d_acheminement":"PUYGAILLARD DE LOMAGNE","code_postal":"82120","coordonnees_gps":[43.9687272643,0.893447284352],"code_commune_insee":"82146"},"geometry":{"type":"Point","coordinates":[0.893447284352,43.9687272643]},"record_timestamp":"2016-05-09T15:17:00+02:00"},{"datasetid":"laposte_hexasmal","recordid":"b6bce5eb7cd5aa801cc6fb712c8043dfacc230ed","fields":{"nom_de_la_commune":"REYNIES","libell_d_acheminement":"REYNIES","code_postal":"82370","coordonnees_gps":[43.9261825292,1.41453449796],"code_commune_insee":"82150"},"geometry":{"type":"Point","coordinates":[1.41453449796,43.9261825292]},"record_timestamp":"2016-05-09T15:17:00+02:00"},{"datasetid":"laposte_hexasmal","recordid":"0c22cf5807dd2fc6279fa56bd4dd8fa257919944","fields":{"nom_de_la_commune":"ST AMANS DU PECH","libell_d_acheminement":"ST AMANS DU PECH","code_postal":"82150","coordonnees_gps":[44.3114103481,0.893358658989],"code_commune_insee":"82153"},"geometry":{"type":"Point","coordinates":[0.893358658989,44.3114103481]},"record_timestamp":"2016-05-09T15:17:00+02:00"},{"datasetid":"laposte_hexasmal","recordid":"357c4ebafa99d198569e67b9e5134f06cb923c67","fields":{"nom_de_la_commune":"ST ARROUMEX","libell_d_acheminement":"ST ARROUMEX","code_postal":"82210","coordonnees_gps":[43.9917173293,0.989292206916],"code_commune_insee":"82156"},"geometry":{"type":"Point","coordinates":[0.989292206916,43.9917173293]},"record_timestamp":"2016-05-09T15:17:00+02:00"},{"datasetid":"laposte_hexasmal","recordid":"af7cae0344b821e4e43004d72b9c03d476e58f64","fields":{"nom_de_la_commune":"ST ETIENNE DE TULMONT","libell_d_acheminement":"ST ETIENNE DE TULMONT","code_postal":"82410","coordonnees_gps":[44.044673154,1.45703284983],"code_commune_insee":"82161"},"geometry":{"type":"Point","coordinates":[1.45703284983,44.044673154]},"record_timestamp":"2016-05-09T15:17:00+02:00"},{"datasetid":"laposte_hexasmal","recordid":"2d102426d0fae5e3116dfef2395eb648ccbaa6a8","fields":{"nom_de_la_commune":"ST LOUP","libell_d_acheminement":"ST LOUP","code_postal":"82340","coordonnees_gps":[44.0833269005,0.852281972741],"code_commune_insee":"82165"},"geometry":{"type":"Point","coordinates":[0.852281972741,44.0833269005]},"record_timestamp":"2016-05-09T15:17:00+02:00"},{"datasetid":"laposte_hexasmal","recordid":"75a36aa1a193b6b6b2df065dc1486af1c98de2fe","fields":{"nom_de_la_commune":"SAUVETERRE","libell_d_acheminement":"SAUVETERRE","code_postal":"82110","coordonnees_gps":[44.2678274881,1.2726165468],"code_commune_insee":"82177"},"geometry":{"type":"Point","coordinates":[1.2726165468,44.2678274881]},"record_timestamp":"2016-05-09T15:17:00+02:00"},{"datasetid":"laposte_hexasmal","recordid":"8fc0b65b1d80c58193484daf491982c7266e9909","fields":{"nom_de_la_commune":"SERIGNAC","libell_d_acheminement":"SERIGNAC","code_postal":"82500","coordonnees_gps":[43.9244393445,1.02486200605],"code_commune_insee":"82180"},"geometry":{"type":"Point","coordinates":[1.02486200605,43.9244393445]},"record_timestamp":"2016-05-09T15:17:00+02:00"},{"datasetid":"laposte_hexasmal","recordid":"b02bddca0499e19d408405ee4c99bb1ae31674bd","fields":{"nom_de_la_commune":"VILLEBRUMIER","libell_d_acheminement":"VILLEBRUMIER","code_postal":"82370","coordonnees_gps":[43.9202948869,1.4512543274],"code_commune_insee":"82194"},"geometry":{"type":"Point","coordinates":[1.4512543274,43.9202948869]},"record_timestamp":"2016-05-09T15:17:00+02:00"},{"datasetid":"laposte_hexasmal","recordid":"47e1c3edb1b3e7ad0d830a102aab7ed763a62907","fields":{"nom_de_la_commune":"ASQUES","libell_d_acheminement":"ASQUES","code_postal":"82120","coordonnees_gps":[44.0092369862,0.955085490691],"code_commune_insee":"82004"},"geometry":{"type":"Point","coordinates":[0.955085490691,44.0092369862]},"record_timestamp":"2016-05-09T15:17:00+02:00"},{"datasetid":"laposte_hexasmal","recordid":"9b2d999d45d24d96b8fcf2762905878930ec8dee","fields":{"nom_de_la_commune":"BALIGNAC","libell_d_acheminement":"BALIGNAC","code_postal":"82120","coordonnees_gps":[43.9557351784,0.874892919974],"code_commune_insee":"82009"},"geometry":{"type":"Point","coordinates":[0.874892919974,43.9557351784]},"record_timestamp":"2016-05-09T15:17:00+02:00"},{"datasetid":"laposte_hexasmal","recordid":"01296fee67fd28c5581b00f00636a84fd388f6ba","fields":{"nom_de_la_commune":"BARDIGUES","libell_d_acheminement":"BARDIGUES","code_postal":"82340","coordonnees_gps":[44.0297663201,0.891549889681],"code_commune_insee":"82010"},"geometry":{"type":"Point","coordinates":[0.891549889681,44.0297663201]},"record_timestamp":"2016-05-09T15:17:00+02:00"},{"datasetid":"laposte_hexasmal","recordid":"eb991c1a7cd9ff730d10da4799e3aa1e622f1b95","fields":{"nom_de_la_commune":"CAMPSAS","libell_d_acheminement":"CAMPSAS","code_postal":"82370","coordonnees_gps":[43.8873028891,1.32880119974],"code_commune_insee":"82027"},"geometry":{"type":"Point","coordinates":[1.32880119974,43.8873028891]},"record_timestamp":"2016-05-09T15:17:00+02:00"},{"datasetid":"laposte_hexasmal","recordid":"ea06589069391c8529061543134099ec6dfc7f4c","fields":{"nom_de_la_commune":"CASTELSARRASIN","libell_d_acheminement":"CASTELSARRASIN","code_postal":"82100","coordonnees_gps":[44.0490326525,1.12348123121],"code_commune_insee":"82033"},"geometry":{"type":"Point","coordinates":[1.12348123121,44.0490326525]},"record_timestamp":"2016-05-09T15:17:00+02:00"},{"datasetid":"laposte_hexasmal","recordid":"bf517699c1672da7926ebcb8a4206aca5672d9d1","fields":{"nom_de_la_commune":"CASTERA BOUZET","libell_d_acheminement":"CASTERA BOUZET","code_postal":"82120","coordonnees_gps":[44.0029877877,0.917878782904],"code_commune_insee":"82034"},"geometry":{"type":"Point","coordinates":[0.917878782904,44.0029877877]},"record_timestamp":"2016-05-09T15:17:00+02:00"},{"datasetid":"laposte_hexasmal","recordid":"11c7dc20deac12a3d1f3f5d45c9cbb922107363a","fields":{"nom_de_la_commune":"CAUSSADE","libell_d_acheminement":"CAUSSADE","code_postal":"82300","coordonnees_gps":[44.1565421874,1.54351161487],"code_commune_insee":"82037"},"geometry":{"type":"Point","coordinates":[1.54351161487,44.1565421874]},"record_timestamp":"2016-05-09T15:17:00+02:00"},{"datasetid":"laposte_hexasmal","recordid":"a45b779910b5b08819156096710271753ebe96e5","fields":{"nom_de_la_commune":"CAYLUS","libell_d_acheminement":"CAYLUS","code_postal":"82160","coordonnees_gps":[44.2420637295,1.75360869362],"code_commune_insee":"82038"},"geometry":{"type":"Point","coordinates":[1.75360869362,44.2420637295]},"record_timestamp":"2016-05-09T15:17:00+02:00"},{"datasetid":"laposte_hexasmal","recordid":"b435ba96907b8c200a488575138817f3b667dd53","fields":{"nom_de_la_commune":"CAZES MONDENARD","libell_d_acheminement":"CAZES MONDENARD","code_postal":"82110","coordonnees_gps":[44.2128308252,1.21516583038],"code_commune_insee":"82042"},"geometry":{"type":"Point","coordinates":[1.21516583038,44.2128308252]},"record_timestamp":"2016-05-09T15:17:00+02:00"},{"datasetid":"laposte_hexasmal","recordid":"cc2fe5c69302bf70a10581efe5552b65cd99540c","fields":{"nom_de_la_commune":"COMBEROUGER","libell_d_acheminement":"COMBEROUGER","code_postal":"82600","coordonnees_gps":[43.8719884875,1.09282788935],"code_commune_insee":"82043"},"geometry":{"type":"Point","coordinates":[1.09282788935,43.8719884875]},"record_timestamp":"2016-05-09T15:17:00+02:00"},{"datasetid":"laposte_hexasmal","recordid":"918b37a8ad27f75a2a9a75251018930121433e4a","fields":{"nom_de_la_commune":"GASQUES","libell_d_acheminement":"GASQUES","code_postal":"82400","coordonnees_gps":[44.1489786487,0.910582677512],"code_commune_insee":"82065"},"geometry":{"type":"Point","coordinates":[0.910582677512,44.1489786487]},"record_timestamp":"2016-05-09T15:17:00+02:00"},{"datasetid":"laposte_hexasmal","recordid":"96d687d426bf1a67d7b3d3d7fc3f73c0148a5ddf","fields":{"nom_de_la_commune":"GOAS","libell_d_acheminement":"GOAS","code_postal":"82500","coordonnees_gps":[43.8150768113,0.960854244996],"code_commune_insee":"82071"},"geometry":{"type":"Point","coordinates":[0.960854244996,43.8150768113]},"record_timestamp":"2016-05-09T15:17:00+02:00"},{"datasetid":"laposte_hexasmal","recordid":"7d1ec43a780e520d28befd565d528c8908372f56","fields":{"nom_de_la_commune":"GRISOLLES","libell_d_acheminement":"GRISOLLES","code_postal":"82170","coordonnees_gps":[43.8224483737,1.28670830479],"code_commune_insee":"82075"},"geometry":{"type":"Point","coordinates":[1.28670830479,43.8224483737]},"record_timestamp":"2016-05-09T15:17:00+02:00"},{"datasetid":"laposte_hexasmal","recordid":"3e05c5718bea7b4bdbbfcd4412a126abab76c894","fields":{"nom_de_la_commune":"LABASTIDE DU TEMPLE","libell_d_acheminement":"LABASTIDE DU TEMPLE","code_postal":"82100","coordonnees_gps":[44.0810961823,1.20235818385],"code_commune_insee":"82080"},"geometry":{"type":"Point","coordinates":[1.20235818385,44.0810961823]},"record_timestamp":"2016-05-09T15:17:00+02:00"},{"datasetid":"laposte_hexasmal","recordid":"8d541e56500e5a0aef82b03e091971096788371d","fields":{"nom_de_la_commune":"LABOURGADE","libell_d_acheminement":"LABOURGADE","code_postal":"82100","coordonnees_gps":[43.9566434568,1.09237967165],"code_commune_insee":"82081"},"geometry":{"type":"Point","coordinates":[1.09237967165,43.9566434568]},"record_timestamp":"2016-05-09T15:17:00+02:00"},{"datasetid":"laposte_hexasmal","recordid":"cab78345d333e1fade3bf8572b01e173d1e2cb23","fields":{"nom_de_la_commune":"LACOURT ST PIERRE","libell_d_acheminement":"LACOURT ST PIERRE","code_postal":"82290","coordonnees_gps":[43.9885803671,1.27169521858],"code_commune_insee":"82085"},"geometry":{"type":"Point","coordinates":[1.27169521858,43.9885803671]},"record_timestamp":"2016-05-09T15:17:00+02:00"},{"datasetid":"laposte_hexasmal","recordid":"ccca08504e1304fc921a4152af8eb2fdc645aad3","fields":{"nom_de_la_commune":"LAGUEPIE","libell_d_acheminement":"LAGUEPIE","code_postal":"82250","coordonnees_gps":[44.163304209,1.95842635186],"code_commune_insee":"82088"},"geometry":{"type":"Point","coordinates":[1.95842635186,44.163304209]},"record_timestamp":"2016-05-09T15:17:00+02:00"},{"datasetid":"laposte_hexasmal","recordid":"ab1e56916fac75be17c242d3f7cdc1a90beebbb0","fields":{"nom_de_la_commune":"LAVAURETTE","libell_d_acheminement":"LAVAURETTE","code_postal":"82240","coordonnees_gps":[44.2073975213,1.66999511722],"code_commune_insee":"82095"},"geometry":{"type":"Point","coordinates":[1.66999511722,44.2073975213]},"record_timestamp":"2016-05-09T15:17:00+02:00"},{"datasetid":"laposte_hexasmal","recordid":"556296a4abf32ace489f895c7d80e8ad68c7f25a","fields":{"nom_de_la_commune":"LA VILLE DIEU DU TEMPLE","libell_d_acheminement":"LA VILLE DIEU DU TEMPLE","code_postal":"82290","coordonnees_gps":[44.0429816924,1.22097362362],"code_commune_insee":"82096"},"geometry":{"type":"Point","coordinates":[1.22097362362,44.0429816924]},"record_timestamp":"2016-05-09T15:17:00+02:00"},{"datasetid":"laposte_hexasmal","recordid":"04740a128317c3068d220c95b08c39a5b0c6f037","fields":{"nom_de_la_commune":"LIZAC","libell_d_acheminement":"LIZAC","code_postal":"82200","coordonnees_gps":[44.1127415173,1.18684429621],"code_commune_insee":"82099"},"geometry":{"type":"Point","coordinates":[1.18684429621,44.1127415173]},"record_timestamp":"2016-05-09T15:17:00+02:00"},{"datasetid":"laposte_hexasmal","recordid":"53cf30d9d69ee1e3575402be4be56b3eaf94d27d","fields":{"nom_de_la_commune":"MARSAC","libell_d_acheminement":"MARSAC","code_postal":"82120","coordonnees_gps":[43.9414664825,0.829474499399],"code_commune_insee":"82104"},"geometry":{"type":"Point","coordinates":[0.829474499399,43.9414664825]},"record_timestamp":"2016-05-09T15:17:00+02:00"},{"datasetid":"laposte_hexasmal","recordid":"7c6d89f571e37afc46c5c063f65652ccaa6f5145","fields":{"nom_de_la_commune":"MIRABEL","libell_d_acheminement":"MIRABEL","code_postal":"82440","coordonnees_gps":[44.1424577987,1.4113688594],"code_commune_insee":"82110"},"geometry":{"type":"Point","coordinates":[1.4113688594,44.1424577987]},"record_timestamp":"2016-05-09T15:17:00+02:00"},{"datasetid":"laposte_hexasmal","recordid":"e7545f5b8162a4e5d8ca7c2683eeba1c97d44f2a","fields":{"nom_de_la_commune":"MONBEQUI","libell_d_acheminement":"MONBEQUI","code_postal":"82170","coordonnees_gps":[43.8913749856,1.23224903007],"code_commune_insee":"82114"},"geometry":{"type":"Point","coordinates":[1.23224903007,43.8913749856]},"record_timestamp":"2016-05-09T15:17:00+02:00"},{"datasetid":"laposte_hexasmal","recordid":"b26095ee5b6e040516114cd4ae3e75fc5a329e68","fields":{"nom_de_la_commune":"MONTALZAT","libell_d_acheminement":"MONTALZAT","code_postal":"82270","coordonnees_gps":[44.2084619848,1.51721472042],"code_commune_insee":"82119"},"geometry":{"type":"Point","coordinates":[1.51721472042,44.2084619848]},"record_timestamp":"2016-05-09T15:17:00+02:00"},{"datasetid":"laposte_hexasmal","recordid":"cb31027d5f6848d01480daff7d067d68f3d926cd","fields":{"nom_de_la_commune":"MONTBETON","libell_d_acheminement":"MONTBETON","code_postal":"82290","coordonnees_gps":[44.0135610101,1.2703654947],"code_commune_insee":"82124"},"geometry":{"type":"Point","coordinates":[1.2703654947,44.0135610101]},"record_timestamp":"2016-05-09T15:17:00+02:00"},{"datasetid":"laposte_hexasmal","recordid":"67818c941ed06f8257f52143957a91bd2b22e9c3","fields":{"nom_de_la_commune":"NEGREPELISSE","libell_d_acheminement":"NEGREPELISSE","code_postal":"82800","coordonnees_gps":[44.0631437696,1.52813602608],"code_commune_insee":"82134"},"geometry":{"type":"Point","coordinates":[1.52813602608,44.0631437696]},"record_timestamp":"2016-05-09T15:17:00+02:00"},{"datasetid":"laposte_hexasmal","recordid":"e296be1de3f85cbb94dcff3a5261d4be46bd727f","fields":{"nom_de_la_commune":"NOHIC","libell_d_acheminement":"NOHIC","code_postal":"82370","coordonnees_gps":[43.8880946294,1.43765103909],"code_commune_insee":"82135"},"geometry":{"type":"Point","coordinates":[1.43765103909,43.8880946294]},"record_timestamp":"2016-05-09T15:17:00+02:00"},{"datasetid":"laposte_hexasmal","recordid":"704590a5eb7ee934e4ff8feb79c735b677275647","fields":{"nom_de_la_commune":"PUYGAILLARD DE QUERCY","libell_d_acheminement":"PUYGAILLARD DE QUERCY","code_postal":"82800","coordonnees_gps":[44.0245113626,1.63164922322],"code_commune_insee":"82145"},"geometry":{"type":"Point","coordinates":[1.63164922322,44.0245113626]},"record_timestamp":"2016-05-09T15:17:00+02:00"},{"datasetid":"laposte_hexasmal","recordid":"027288ee12815f701d760db8e900b06ad6c7410f","fields":{"nom_de_la_commune":"PUYLAGARDE","libell_d_acheminement":"PUYLAGARDE","code_postal":"82160","coordonnees_gps":[44.3066142311,1.84631007866],"code_commune_insee":"82147"},"geometry":{"type":"Point","coordinates":[1.84631007866,44.3066142311]},"record_timestamp":"2016-05-09T15:17:00+02:00"},{"datasetid":"laposte_hexasmal","recordid":"aef789e9d4e32b6cd6f9d2dddbb0a18bedb4ff69","fields":{"nom_de_la_commune":"PUYLAROQUE","libell_d_acheminement":"PUYLAROQUE","code_postal":"82240","coordonnees_gps":[44.2515860138,1.63529811514],"code_commune_insee":"82148"},"geometry":{"type":"Point","coordinates":[1.63529811514,44.2515860138]},"record_timestamp":"2016-05-09T15:17:00+02:00"},{"datasetid":"laposte_hexasmal","recordid":"98bd56d4b96506fed27e3ad5e827b55389f2492c","fields":{"nom_de_la_commune":"ST AMANS DE PELLAGAL","libell_d_acheminement":"ST AMANS DE PELLAGAL","code_postal":"82110","coordonnees_gps":[44.2216170382,1.12813639744],"code_commune_insee":"82154"},"geometry":{"type":"Point","coordinates":[1.12813639744,44.2216170382]},"record_timestamp":"2016-05-09T15:17:00+02:00"},{"datasetid":"laposte_hexasmal","recordid":"47a64c578a7d1ab00637c9dc4e9ab3f56d5e8c36","fields":{"nom_de_la_commune":"ST CIRQ","libell_d_acheminement":"ST CIRQ","code_postal":"82300","coordonnees_gps":[44.1349448025,1.60503531727],"code_commune_insee":"82159"},"geometry":{"type":"Point","coordinates":[1.60503531727,44.1349448025]},"record_timestamp":"2016-05-09T15:17:00+02:00"},{"datasetid":"laposte_hexasmal","recordid":"a91f8093d5770a2364559573b78716b81fcc0dbc","fields":{"nom_de_la_commune":"SAVENES","libell_d_acheminement":"SAVENES","code_postal":"82600","coordonnees_gps":[43.830592054,1.18506891098],"code_commune_insee":"82178"},"geometry":{"type":"Point","coordinates":[1.18506891098,43.830592054]},"record_timestamp":"2016-05-09T15:17:00+02:00"},{"datasetid":"laposte_hexasmal","recordid":"870e92a5cb4d7b75827d177ad500afd3dd8d4fb7","fields":{"nom_de_la_commune":"VAISSAC","libell_d_acheminement":"VAISSAC","code_postal":"82800","coordonnees_gps":[44.031662491,1.57065929853],"code_commune_insee":"82184"},"geometry":{"type":"Point","coordinates":[1.57065929853,44.031662491]},"record_timestamp":"2016-05-09T15:17:00+02:00"},{"datasetid":"laposte_hexasmal","recordid":"053803c8e80877c2b7b08ddcb059b604c4507d0a","fields":{"nom_de_la_commune":"VILLEMADE","libell_d_acheminement":"VILLEMADE","code_postal":"82130","coordonnees_gps":[44.0801227297,1.2899145835],"code_commune_insee":"82195"},"geometry":{"type":"Point","coordinates":[1.2899145835,44.0801227297]},"record_timestamp":"2016-05-09T15:17:00+02:00"},{"datasetid":"laposte_hexasmal","recordid":"df463fa91404db8f97decb2d856ee4b063ae76b6","fields":{"nom_de_la_commune":"AUCAMVILLE","libell_d_acheminement":"AUCAMVILLE","code_postal":"82600","coordonnees_gps":[43.7960241357,1.22532777135],"code_commune_insee":"82005"},"geometry":{"type":"Point","coordinates":[1.22532777135,43.7960241357]},"record_timestamp":"2016-05-09T15:17:00+02:00"},{"datasetid":"laposte_hexasmal","recordid":"fa7e0890ccadd06fc8ae141c5ec48b1d7ecf9837","fields":{"nom_de_la_commune":"AUVILLAR","libell_d_acheminement":"AUVILLAR","code_postal":"82340","coordonnees_gps":[44.0585023466,0.887408574561],"code_commune_insee":"82008"},"geometry":{"type":"Point","coordinates":[0.887408574561,44.0585023466]},"record_timestamp":"2016-05-09T15:17:00+02:00"},{"datasetid":"laposte_hexasmal","recordid":"3173000d37b99e66052dec416b5de7e1e9a91746","fields":{"nom_de_la_commune":"BELBEZE EN LOMAGNE","libell_d_acheminement":"BELBEZE EN LOMAGNE","code_postal":"82500","coordonnees_gps":[43.9057808814,1.07014719349],"code_commune_insee":"82015"},"geometry":{"type":"Point","coordinates":[1.07014719349,43.9057808814]},"record_timestamp":"2016-05-09T15:17:00+02:00"},{"datasetid":"laposte_hexasmal","recordid":"a32e32bd7ac2d812a21205497d2572f348b4797c","fields":{"nom_de_la_commune":"BIOULE","libell_d_acheminement":"BIOULE","code_postal":"82800","coordonnees_gps":[44.0992261106,1.54336811906],"code_commune_insee":"82018"},"geometry":{"type":"Point","coordinates":[1.54336811906,44.0992261106]},"record_timestamp":"2016-05-09T15:17:00+02:00"},{"datasetid":"laposte_hexasmal","recordid":"f18b65d97ec617c09706e012e8b48bb89973c46b","fields":{"nom_de_la_commune":"BOUILLAC","libell_d_acheminement":"BOUILLAC","code_postal":"82600","coordonnees_gps":[43.8471889462,1.1154526635],"code_commune_insee":"82020"},"geometry":{"type":"Point","coordinates":[1.1154526635,43.8471889462]},"record_timestamp":"2016-05-09T15:17:00+02:00"},{"datasetid":"laposte_hexasmal","recordid":"9ea460170b867627922a220ea71d082c5a19b33b","fields":{"nom_de_la_commune":"BRESSOLS","libell_d_acheminement":"BRESSOLS","code_postal":"82710","coordonnees_gps":[43.9544945655,1.31611180901],"code_commune_insee":"82025"},"geometry":{"type":"Point","coordinates":[1.31611180901,43.9544945655]},"record_timestamp":"2016-05-09T15:17:00+02:00"},{"datasetid":"laposte_hexasmal","recordid":"e219a74923b46f37d91f1a43264bc1316bbadb21","fields":{"nom_de_la_commune":"BRUNIQUEL","libell_d_acheminement":"BRUNIQUEL","code_postal":"82800","coordonnees_gps":[44.0521980341,1.66009719751],"code_commune_insee":"82026"},"geometry":{"type":"Point","coordinates":[1.66009719751,44.0521980341]},"record_timestamp":"2016-05-09T15:17:00+02:00"},{"datasetid":"laposte_hexasmal","recordid":"75dccdebacdaea319ccedac31c28178c2da892bf","fields":{"nom_de_la_commune":"CASTELMAYRAN","libell_d_acheminement":"CASTELMAYRAN","code_postal":"82210","coordonnees_gps":[44.0227123316,1.04707174068],"code_commune_insee":"82031"},"geometry":{"type":"Point","coordinates":[1.04707174068,44.0227123316]},"record_timestamp":"2016-05-09T15:17:00+02:00"},{"datasetid":"laposte_hexasmal","recordid":"4336313782a1154dd773e936ce28011eddbbb4d5","fields":{"nom_de_la_commune":"CAUMONT","libell_d_acheminement":"CAUMONT","code_postal":"82210","coordonnees_gps":[44.0211223113,0.9973632278],"code_commune_insee":"82035"},"geometry":{"type":"Point","coordinates":[0.9973632278,44.0211223113]},"record_timestamp":"2016-05-09T15:17:00+02:00"},{"datasetid":"laposte_hexasmal","recordid":"2e8d8eca5867d6cad9e77213fb374fdee2d530d1","fields":{"nom_de_la_commune":"DURFORT LACAPELETTE","libell_d_acheminement":"DURFORT LACAPELETTE","code_postal":"82390","coordonnees_gps":[44.1832337484,1.14143724607],"code_commune_insee":"82051"},"geometry":{"type":"Point","coordinates":[1.14143724607,44.1832337484]},"record_timestamp":"2016-05-09T15:17:00+02:00"},{"datasetid":"laposte_hexasmal","recordid":"357e034d74d69a5aa91b72f4e6ec86a755ebf619","fields":{"nom_de_la_commune":"ESCAZEAUX","libell_d_acheminement":"ESCAZEAUX","code_postal":"82500","coordonnees_gps":[43.836046459,1.02957097257],"code_commune_insee":"82053"},"geometry":{"type":"Point","coordinates":[1.02957097257,43.836046459]},"record_timestamp":"2016-05-09T15:17:00+02:00"},{"datasetid":"laposte_hexasmal","recordid":"e2bcf2f52c90d46353cea6e02bf6e42e3f1637e0","fields":{"nom_de_la_commune":"ESPARSAC","libell_d_acheminement":"ESPARSAC","code_postal":"82500","coordonnees_gps":[43.9115019162,0.947377490224],"code_commune_insee":"82055"},"geometry":{"type":"Point","coordinates":[0.947377490224,43.9115019162]},"record_timestamp":"2016-05-09T15:17:00+02:00"},{"datasetid":"laposte_hexasmal","recordid":"9f466641235fcbef03592a6546f3febee768c6df","fields":{"nom_de_la_commune":"FAUDOAS","libell_d_acheminement":"FAUDOAS","code_postal":"82500","coordonnees_gps":[43.8335413145,0.967332331087],"code_commune_insee":"82059"},"geometry":{"type":"Point","coordinates":[0.967332331087,43.8335413145]},"record_timestamp":"2016-05-09T15:17:00+02:00"},{"datasetid":"laposte_hexasmal","recordid":"e1feea71fa888bfd279d3d78c85a65280b11f368","fields":{"nom_de_la_commune":"FAUROUX","libell_d_acheminement":"FAUROUX","code_postal":"82190","coordonnees_gps":[44.2527084346,1.00589119507],"code_commune_insee":"82060"},"geometry":{"type":"Point","coordinates":[1.00589119507,44.2527084346]},"record_timestamp":"2016-05-09T15:17:00+02:00"},{"datasetid":"laposte_hexasmal","recordid":"478d08e56e8bb1ebbbdb4751082b6001adf90c21","fields":{"nom_de_la_commune":"FINHAN","libell_d_acheminement":"FINHAN","code_postal":"82700","coordonnees_gps":[43.9126951654,1.21926326685],"code_commune_insee":"82062"},"geometry":{"type":"Point","coordinates":[1.21926326685,43.9126951654]},"record_timestamp":"2016-05-09T15:17:00+02:00"},{"datasetid":"laposte_hexasmal","recordid":"0a37eeb9ea4a4249156e5778c480036225296bc4","fields":{"nom_de_la_commune":"GARGANVILLAR","libell_d_acheminement":"GARGANVILLAR","code_postal":"82100","coordonnees_gps":[43.9752270104,1.06428038626],"code_commune_insee":"82063"},"geometry":{"type":"Point","coordinates":[1.06428038626,43.9752270104]},"record_timestamp":"2016-05-09T15:17:00+02:00"},{"datasetid":"laposte_hexasmal","recordid":"e42be12d94592be53c68bed9220ac5685f137afd","fields":{"nom_de_la_commune":"GLATENS","libell_d_acheminement":"GLATENS","code_postal":"82500","coordonnees_gps":[43.8944756908,0.919896857009],"code_commune_insee":"82070"},"geometry":{"type":"Point","coordinates":[0.919896857009,43.8944756908]},"record_timestamp":"2016-05-09T15:17:00+02:00"},{"datasetid":"laposte_hexasmal","recordid":"12a97865e5d147cbc96c9666190d94e1df24ec95","fields":{"nom_de_la_commune":"LACAPELLE LIVRON","libell_d_acheminement":"LACAPELLE LIVRON","code_postal":"82160","coordonnees_gps":[44.2719783963,1.79012954535],"code_commune_insee":"82082"},"geometry":{"type":"Point","coordinates":[1.79012954535,44.2719783963]},"record_timestamp":"2016-05-09T15:17:00+02:00"},{"datasetid":"laposte_hexasmal","recordid":"76180fd83c2f767b62d6253cdc98da354cec4b93","fields":{"nom_de_la_commune":"LAUZERTE","libell_d_acheminement":"LAUZERTE","code_postal":"82110","coordonnees_gps":[44.2642995725,1.12713270139],"code_commune_insee":"82094"},"geometry":{"type":"Point","coordinates":[1.12713270139,44.2642995725]},"record_timestamp":"2016-05-09T15:17:00+02:00"},{"datasetid":"laposte_hexasmal","recordid":"4151eaa53b75392a4d49a30a54442ec53680a783","fields":{"nom_de_la_commune":"LAVIT","libell_d_acheminement":"LAVIT","code_postal":"82120","coordonnees_gps":[43.9560822139,0.925072043975],"code_commune_insee":"82097"},"geometry":{"type":"Point","coordinates":[0.925072043975,43.9560822139]},"record_timestamp":"2016-05-09T15:17:00+02:00"},{"datasetid":"laposte_hexasmal","recordid":"34643de1dcc2563fb78aaad814db445bbd557f0d","fields":{"nom_de_la_commune":"MONCLAR DE QUERCY","libell_d_acheminement":"MONCLAR DE QUERCY","code_postal":"82230","coordonnees_gps":[43.9880590722,1.58236305942],"code_commune_insee":"82115"},"geometry":{"type":"Point","coordinates":[1.58236305942,43.9880590722]},"record_timestamp":"2016-05-09T15:17:00+02:00"},{"datasetid":"laposte_hexasmal","recordid":"d3cfccbcfe40f974ae3b7ef85752a7495d2792c9","fields":{"nom_de_la_commune":"MONTAIGU DE QUERCY","libell_d_acheminement":"MONTAIGU DE QUERCY","code_postal":"82150","coordonnees_gps":[44.3406420111,1.03252683687],"code_commune_insee":"82117"},"geometry":{"type":"Point","coordinates":[1.03252683687,44.3406420111]},"record_timestamp":"2016-05-09T15:17:00+02:00"},{"datasetid":"laposte_hexasmal","recordid":"e992e90c355ec0bcf75b02efbd149bf2fe637b73","fields":{"nom_de_la_commune":"MONTECH","libell_d_acheminement":"MONTECH","code_postal":"82700","coordonnees_gps":[43.9524124123,1.23764675579],"code_commune_insee":"82125"},"geometry":{"type":"Point","coordinates":[1.23764675579,43.9524124123]},"record_timestamp":"2016-05-09T15:17:00+02:00"},{"datasetid":"laposte_hexasmal","recordid":"0a7aa336fccfbf417a0d2d68489860adca791401","fields":{"nom_de_la_commune":"MONTEILS","libell_d_acheminement":"MONTEILS","code_postal":"82300","coordonnees_gps":[44.1717870381,1.56537726368],"code_commune_insee":"82126"},"geometry":{"type":"Point","coordinates":[1.56537726368,44.1717870381]},"record_timestamp":"2016-05-09T15:17:00+02:00"},{"datasetid":"laposte_hexasmal","recordid":"33d5347fa8f4e1c9fceccbb64a49aff72f5514f1","fields":{"nom_de_la_commune":"MONTJOI","libell_d_acheminement":"MONTJOI","code_postal":"82400","coordonnees_gps":[44.2043392824,0.930124213553],"code_commune_insee":"82130"},"geometry":{"type":"Point","coordinates":[0.930124213553,44.2043392824]},"record_timestamp":"2016-05-09T15:17:00+02:00"},{"datasetid":"laposte_hexasmal","recordid":"7970dde5bca583bb57fad60323b07f7706c91efe","fields":{"nom_de_la_commune":"ORGUEIL","libell_d_acheminement":"ORGUEIL","code_postal":"82370","coordonnees_gps":[43.8991686927,1.39705978645],"code_commune_insee":"82136"},"geometry":{"type":"Point","coordinates":[1.39705978645,43.8991686927]},"record_timestamp":"2016-05-09T15:17:00+02:00"},{"datasetid":"laposte_hexasmal","recordid":"0f562766a54e8627e75a07ebf4bde5e140bec77e","fields":{"nom_de_la_commune":"POMMEVIC","libell_d_acheminement":"POMMEVIC","code_postal":"82400","coordonnees_gps":[44.0940422544,0.934521561123],"code_commune_insee":"82141"},"geometry":{"type":"Point","coordinates":[0.934521561123,44.0940422544]},"record_timestamp":"2016-05-09T15:17:00+02:00"},{"datasetid":"laposte_hexasmal","recordid":"504549d6bf923596cec60a0e1d245fa3844337ab","fields":{"nom_de_la_commune":"REALVILLE","libell_d_acheminement":"REALVILLE","code_postal":"82440","coordonnees_gps":[44.1281472573,1.48081390272],"code_commune_insee":"82149"},"geometry":{"type":"Point","coordinates":[1.48081390272,44.1281472573]},"record_timestamp":"2016-05-09T15:17:00+02:00"},{"datasetid":"laposte_hexasmal","recordid":"546c9d06ee8374c08ec2b1a59ef531b20cf81177","fields":{"nom_de_la_commune":"ROQUECOR","libell_d_acheminement":"ROQUECOR","code_postal":"82150","coordonnees_gps":[44.3164931425,0.946500411768],"code_commune_insee":"82151"},"geometry":{"type":"Point","coordinates":[0.946500411768,44.3164931425]},"record_timestamp":"2016-05-09T15:17:00+02:00"},{"datasetid":"laposte_hexasmal","recordid":"f3becac60a19b5d21cc99e75f9b797380666d85f","fields":{"nom_de_la_commune":"ST CLAIR","libell_d_acheminement":"ST CLAIR","code_postal":"82400","coordonnees_gps":[44.1524310269,0.942322871268],"code_commune_insee":"82160"},"geometry":{"type":"Point","coordinates":[0.942322871268,44.1524310269]},"record_timestamp":"2016-05-09T15:17:00+02:00"},{"datasetid":"laposte_hexasmal","recordid":"c4efe9da416a7ec6b4bec9830aa29bc163978b8c","fields":{"nom_de_la_commune":"ST JEAN DU BOUZET","libell_d_acheminement":"ST JEAN DU BOUZET","code_postal":"82120","coordonnees_gps":[43.9866371182,0.875793745086],"code_commune_insee":"82163"},"geometry":{"type":"Point","coordinates":[0.875793745086,43.9866371182]},"record_timestamp":"2016-05-09T15:17:00+02:00"},{"datasetid":"laposte_hexasmal","recordid":"98292205a9f7dab3c0b858452c260f7f8ad62474","fields":{"nom_de_la_commune":"ST MICHEL","libell_d_acheminement":"ST MICHEL","code_postal":"82340","coordonnees_gps":[44.0453516361,0.937520452505],"code_commune_insee":"82166"},"geometry":{"type":"Point","coordinates":[0.937520452505,44.0453516361]},"record_timestamp":"2016-05-09T15:17:00+02:00"},{"datasetid":"laposte_hexasmal","recordid":"2eac0653d271081b632a2d7f386279a304edab1f","fields":{"nom_de_la_commune":"ST NAZAIRE DE VALENTANE","libell_d_acheminement":"ST NAZAIRE DE VALENTANE","code_postal":"82190","coordonnees_gps":[44.2056807143,1.01728344459],"code_commune_insee":"82168"},"geometry":{"type":"Point","coordinates":[1.01728344459,44.2056807143]},"record_timestamp":"2016-05-09T15:17:00+02:00"},{"datasetid":"laposte_hexasmal","recordid":"e30de8c6c7a3fb9fa1aafdd76593573f492e0041","fields":{"nom_de_la_commune":"ST VINCENT D AUTEJAC","libell_d_acheminement":"ST VINCENT D AUTEJAC","code_postal":"82300","coordonnees_gps":[44.1643134123,1.46636504185],"code_commune_insee":"82174"},"geometry":{"type":"Point","coordinates":[1.46636504185,44.1643134123]},"record_timestamp":"2016-05-09T15:17:00+02:00"},{"datasetid":"laposte_hexasmal","recordid":"8614e45fbf249f972f0bc751786372a6b0c26528","fields":{"nom_de_la_commune":"SISTELS","libell_d_acheminement":"SISTELS","code_postal":"82340","coordonnees_gps":[44.0529870158,0.78331430404],"code_commune_insee":"82181"},"geometry":{"type":"Point","coordinates":[0.78331430404,44.0529870158]},"record_timestamp":"2016-05-09T15:17:00+02:00"},{"datasetid":"laposte_hexasmal","recordid":"cf9d6c7f5ae58109969d2e1d4a7f568b1a8fa3c0","fields":{"nom_de_la_commune":"TREJOULS","libell_d_acheminement":"TREJOULS","code_postal":"82110","coordonnees_gps":[44.2668414309,1.20229550462],"code_commune_insee":"82183"},"geometry":{"type":"Point","coordinates":[1.20229550462,44.2668414309]},"record_timestamp":"2016-05-09T15:17:00+02:00"},{"datasetid":"laposte_hexasmal","recordid":"a6e8d515b9bc6e4b59279b0ea70dcad970b9245e","fields":{"nom_de_la_commune":"VALEILLES","libell_d_acheminement":"VALEILLES","code_postal":"82150","coordonnees_gps":[44.3624095008,0.915058269132],"code_commune_insee":"82185"},"geometry":{"type":"Point","coordinates":[0.915058269132,44.3624095008]},"record_timestamp":"2016-05-09T15:17:00+02:00"},{"datasetid":"laposte_hexasmal","recordid":"23abb22284935a4c9fd1fddad2d25c0328d753e7","fields":{"nom_de_la_commune":"VALENCE","libell_d_acheminement":"VALENCE D AGEN","code_postal":"82400","coordonnees_gps":[44.1068332095,0.897921093494],"code_commune_insee":"82186"},"geometry":{"type":"Point","coordinates":[0.897921093494,44.1068332095]},"record_timestamp":"2016-05-09T15:17:00+02:00"},{"datasetid":"laposte_hexasmal","recordid":"88a455145ff17c8f36f0321d484d8119a3f6868c","fields":{"nom_de_la_commune":"VAZERAC","libell_d_acheminement":"VAZERAC","code_postal":"82220","coordonnees_gps":[44.195295259,1.27659596104],"code_commune_insee":"82189"},"geometry":{"type":"Point","coordinates":[1.27659596104,44.195295259]},"record_timestamp":"2016-05-09T15:17:00+02:00"},{"datasetid":"laposte_hexasmal","recordid":"1ab50630040dd35f2e2990840ce3d3cf53d3c67c","fields":{"nom_de_la_commune":"VERFEIL","libell_d_acheminement":"VERFEIL SUR SEYE","code_postal":"82330","coordonnees_gps":[44.1847529793,1.87464680477],"code_commune_insee":"82191"},"geometry":{"type":"Point","coordinates":[1.87464680477,44.1847529793]},"record_timestamp":"2016-05-09T15:17:00+02:00"},{"datasetid":"laposte_hexasmal","recordid":"2bd348ee054d561682911d84dc7faa475f744f6b","fields":{"nom_de_la_commune":"BESSENS","libell_d_acheminement":"BESSENS","code_postal":"82170","coordonnees_gps":[43.8878683292,1.27054717739],"code_commune_insee":"82017"},"geometry":{"type":"Point","coordinates":[1.27054717739,43.8878683292]},"record_timestamp":"2016-05-09T15:17:00+02:00"},{"datasetid":"laposte_hexasmal","recordid":"9cac565059a98daedffc53ad0c03a7e6d67a3dce","fields":{"nom_de_la_commune":"BOUDOU","libell_d_acheminement":"BOUDOU","code_postal":"82200","coordonnees_gps":[44.1038305827,1.01575160815],"code_commune_insee":"82019"},"geometry":{"type":"Point","coordinates":[1.01575160815,44.1038305827]},"record_timestamp":"2016-05-09T15:17:00+02:00"},{"datasetid":"laposte_hexasmal","recordid":"04f3985e6b5d0ce1790c9fbf30218015f50b70c0","fields":{"nom_de_la_commune":"CANALS","libell_d_acheminement":"CANALS","code_postal":"82170","coordonnees_gps":[43.8610543748,1.29934658197],"code_commune_insee":"82028"},"geometry":{"type":"Point","coordinates":[1.29934658197,43.8610543748]},"record_timestamp":"2016-05-09T15:17:00+02:00"},{"datasetid":"laposte_hexasmal","recordid":"1a47d903be09e7a228249c95e66dde94871c25e7","fields":{"nom_de_la_commune":"CASTANET","libell_d_acheminement":"CASTANET","code_postal":"82160","coordonnees_gps":[44.2603354224,1.92951732347],"code_commune_insee":"82029"},"geometry":{"type":"Point","coordinates":[1.92951732347,44.2603354224]},"record_timestamp":"2016-05-09T15:17:00+02:00"},{"datasetid":"laposte_hexasmal","recordid":"bec8f7e3f8c502ae5e0fb118b5dad436e9f68963","fields":{"nom_de_la_commune":"LE CAUSE","libell_d_acheminement":"LE CAUSE","code_postal":"82500","coordonnees_gps":[43.8022262259,0.972224568142],"code_commune_insee":"82036"},"geometry":{"type":"Point","coordinates":[0.972224568142,43.8022262259]},"record_timestamp":"2016-05-09T15:17:00+02:00"},{"datasetid":"laposte_hexasmal","recordid":"96c7145081c0f97ecf72fee9ef6628a8e82d62ff","fields":{"nom_de_la_commune":"CAYRAC","libell_d_acheminement":"CAYRAC","code_postal":"82440","coordonnees_gps":[44.1039406465,1.47852315966],"code_commune_insee":"82039"},"geometry":{"type":"Point","coordinates":[1.47852315966,44.1039406465]},"record_timestamp":"2016-05-09T15:17:00+02:00"},{"datasetid":"laposte_hexasmal","recordid":"e4fd920253748b1b02a06b0f0dc54071b87bf043","fields":{"nom_de_la_commune":"CAYRIECH","libell_d_acheminement":"CAYRIECH","code_postal":"82240","coordonnees_gps":[44.2153908954,1.60546514624],"code_commune_insee":"82040"},"geometry":{"type":"Point","coordinates":[1.60546514624,44.2153908954]},"record_timestamp":"2016-05-09T15:17:00+02:00"},{"datasetid":"laposte_hexasmal","recordid":"ca3ea13f5ff8aa025e96cf591974ee03fc0f5c06","fields":{"nom_de_la_commune":"CAZALS","libell_d_acheminement":"CAZALS","code_postal":"82140","coordonnees_gps":[44.1249834446,1.6848635445],"code_commune_insee":"82041"},"geometry":{"type":"Point","coordinates":[1.6848635445,44.1249834446]},"record_timestamp":"2016-05-09T15:17:00+02:00"},{"datasetid":"laposte_hexasmal","recordid":"89abce17b9107622b3a7ce32306a0033b37e2884","fields":{"nom_de_la_commune":"CORBARIEU","libell_d_acheminement":"CORBARIEU","code_postal":"82370","coordonnees_gps":[43.9412424129,1.38125963307],"code_commune_insee":"82044"},"geometry":{"type":"Point","coordinates":[1.38125963307,43.9412424129]},"record_timestamp":"2016-05-09T15:17:00+02:00"},{"datasetid":"laposte_hexasmal","recordid":"4498fc5be0b35c9157a8c9e39f775238990361a5","fields":{"nom_de_la_commune":"CUMONT","libell_d_acheminement":"CUMONT","code_postal":"82500","coordonnees_gps":[43.8703403158,0.903369775759],"code_commune_insee":"82047"},"geometry":{"type":"Point","coordinates":[0.903369775759,43.8703403158]},"record_timestamp":"2016-05-09T15:17:00+02:00"},{"datasetid":"laposte_hexasmal","recordid":"d36caaeb36e78977899dca6008be207b4f4e4425","fields":{"nom_de_la_commune":"DIEUPENTALE","libell_d_acheminement":"DIEUPENTALE","code_postal":"82170","coordonnees_gps":[43.8686375923,1.27914799068],"code_commune_insee":"82048"},"geometry":{"type":"Point","coordinates":[1.27914799068,43.8686375923]},"record_timestamp":"2016-05-09T15:17:00+02:00"},{"datasetid":"laposte_hexasmal","recordid":"66c3e2ccf2af2450c9f77a29fd16555fd7af210f","fields":{"nom_de_la_commune":"DONZAC","libell_d_acheminement":"DONZAC","code_postal":"82340","coordonnees_gps":[44.1025353418,0.814008819185],"code_commune_insee":"82049"},"geometry":{"type":"Point","coordinates":[0.814008819185,44.1025353418]},"record_timestamp":"2016-05-09T15:17:00+02:00"},{"datasetid":"laposte_hexasmal","recordid":"f73ebc683bf716bf3232a619fb202e446a1fca51","fields":{"nom_de_la_commune":"ESCATALENS","libell_d_acheminement":"ESCATALENS","code_postal":"82700","coordonnees_gps":[43.9817694616,1.19368002494],"code_commune_insee":"82052"},"geometry":{"type":"Point","coordinates":[1.19368002494,43.9817694616]},"record_timestamp":"2016-05-09T15:17:00+02:00"},{"datasetid":"laposte_hexasmal","recordid":"ce5aaf22ebdb404277822fd5d43cca75e56af579","fields":{"nom_de_la_commune":"ESPALAIS","libell_d_acheminement":"ESPALAIS","code_postal":"82400","coordonnees_gps":[44.0763853292,0.914122599798],"code_commune_insee":"82054"},"geometry":{"type":"Point","coordinates":[0.914122599798,44.0763853292]},"record_timestamp":"2016-05-09T15:17:00+02:00"},{"datasetid":"laposte_hexasmal","recordid":"5c27e913ed3ac276cadab2640069ce2de5972902","fields":{"nom_de_la_commune":"ESPINAS","libell_d_acheminement":"ESPINAS","code_postal":"82160","coordonnees_gps":[44.1967176562,1.7923386672],"code_commune_insee":"82056"},"geometry":{"type":"Point","coordinates":[1.7923386672,44.1967176562]},"record_timestamp":"2016-05-09T15:17:00+02:00"},{"datasetid":"laposte_hexasmal","recordid":"ae204d5f7822696686c0ab9ffb8c2c9eef0e90ad","fields":{"nom_de_la_commune":"FABAS","libell_d_acheminement":"FABAS","code_postal":"82170","coordonnees_gps":[43.861792636,1.3391246531],"code_commune_insee":"82057"},"geometry":{"type":"Point","coordinates":[1.3391246531,43.861792636]},"record_timestamp":"2016-05-09T15:17:00+02:00"},{"datasetid":"laposte_hexasmal","recordid":"2f170d51fbd53ff47a2b63c3a811a0510d822612","fields":{"nom_de_la_commune":"FAJOLLES","libell_d_acheminement":"FAJOLLES","code_postal":"82210","coordonnees_gps":[43.9666339943,1.01247908889],"code_commune_insee":"82058"},"geometry":{"type":"Point","coordinates":[1.01247908889,43.9666339943]},"record_timestamp":"2016-05-09T15:17:00+02:00"},{"datasetid":"laposte_hexasmal","recordid":"88d10bd26676b9ca2c13523ab6a4410d8bcdeb0f","fields":{"nom_de_la_commune":"GENSAC","libell_d_acheminement":"GENSAC","code_postal":"82120","coordonnees_gps":[43.9483571152,0.959337749058],"code_commune_insee":"82067"},"geometry":{"type":"Point","coordinates":[0.959337749058,43.9483571152]},"record_timestamp":"2016-05-09T15:17:00+02:00"},{"datasetid":"laposte_hexasmal","recordid":"d20a987a1ae703853d6cf788942d94e8f52f3f05","fields":{"nom_de_la_commune":"LABASTIDE ST PIERRE","libell_d_acheminement":"LABASTIDE ST PIERRE","code_postal":"82370","coordonnees_gps":[43.9190655964,1.34640200769],"code_commune_insee":"82079"},"geometry":{"type":"Point","coordinates":[1.34640200769,43.9190655964]},"record_timestamp":"2016-05-09T15:17:00+02:00"},{"datasetid":"laposte_hexasmal","recordid":"472a4fecdb052145e0e97f73d978c7d327163bb4","fields":{"nom_de_la_commune":"LARRAZET","libell_d_acheminement":"LARRAZET","code_postal":"82500","coordonnees_gps":[43.9324522931,1.08287865971],"code_commune_insee":"82093"},"geometry":{"type":"Point","coordinates":[1.08287865971,43.9324522931]},"record_timestamp":"2016-05-09T15:17:00+02:00"},{"datasetid":"laposte_hexasmal","recordid":"c7264164a8968f9c9e20535e2b23243fd658abb0","fields":{"nom_de_la_commune":"LEOJAC","libell_d_acheminement":"LEOJAC","code_postal":"82230","coordonnees_gps":[44.0029268043,1.45114680413],"code_commune_insee":"82098"},"geometry":{"type":"Point","coordinates":[1.45114680413,44.0029268043]},"record_timestamp":"2016-05-09T15:17:00+02:00"},{"datasetid":"laposte_hexasmal","recordid":"5837b207738e8e8818235b7d6303aaad02c6f959","fields":{"nom_de_la_commune":"MALAUSE","libell_d_acheminement":"MALAUSE","code_postal":"82200","coordonnees_gps":[44.0899884213,0.971913032435],"code_commune_insee":"82101"},"geometry":{"type":"Point","coordinates":[0.971913032435,44.0899884213]},"record_timestamp":"2016-05-09T15:17:00+02:00"},{"datasetid":"laposte_hexasmal","recordid":"ff9217e3405c9002ad51fe99f3a7047400292d72","fields":{"nom_de_la_commune":"MARIGNAC","libell_d_acheminement":"MARIGNAC","code_postal":"82500","coordonnees_gps":[43.8418091084,0.916264916273],"code_commune_insee":"82103"},"geometry":{"type":"Point","coordinates":[0.916264916273,43.8418091084]},"record_timestamp":"2016-05-09T15:17:00+02:00"},{"datasetid":"laposte_hexasmal","recordid":"afc568c956611610967fd78d67769c809762bfe6","fields":{"nom_de_la_commune":"MAUBEC","libell_d_acheminement":"MAUBEC","code_postal":"82500","coordonnees_gps":[43.8036755051,0.924111218572],"code_commune_insee":"82106"},"geometry":{"type":"Point","coordinates":[0.924111218572,43.8036755051]},"record_timestamp":"2016-05-09T15:17:00+02:00"},{"datasetid":"laposte_hexasmal","recordid":"351b64c7a3bc60f4373cf3ab10cb1c8b55dab20b","fields":{"nom_de_la_commune":"MOLIERES","libell_d_acheminement":"MOLIERES","code_postal":"82220","coordonnees_gps":[44.1933793632,1.39317951886],"code_commune_insee":"82113"},"geometry":{"type":"Point","coordinates":[1.39317951886,44.1933793632]},"record_timestamp":"2016-05-09T15:17:00+02:00"},{"datasetid":"laposte_hexasmal","recordid":"5c0cf089defaeee4f250adf93824c68460ae13d5","fields":{"nom_de_la_commune":"MONTASTRUC","libell_d_acheminement":"MONTASTRUC","code_postal":"82130","coordonnees_gps":[44.1037069376,1.29437012886],"code_commune_insee":"82120"},"geometry":{"type":"Point","coordinates":[1.29437012886,44.1037069376]},"record_timestamp":"2016-05-09T15:17:00+02:00"},{"datasetid":"laposte_hexasmal","recordid":"de6855700c2f8eb9b0691788dc8cc84690a662b6","fields":{"nom_de_la_commune":"MONTAUBAN","libell_d_acheminement":"MONTAUBAN","code_postal":"82000","coordonnees_gps":[44.0222594578,1.36408636501],"code_commune_insee":"82121"},"geometry":{"type":"Point","coordinates":[1.36408636501,44.0222594578]},"record_timestamp":"2016-05-09T15:17:00+02:00"},{"datasetid":"laposte_hexasmal","recordid":"9fbebce7b7927210337ae20eaf70bd265796394c","fields":{"nom_de_la_commune":"MONTBARLA","libell_d_acheminement":"MONTBARLA","code_postal":"82110","coordonnees_gps":[44.2136604431,1.08193556134],"code_commune_insee":"82122"},"geometry":{"type":"Point","coordinates":[1.08193556134,44.2136604431]},"record_timestamp":"2016-05-09T15:17:00+02:00"},{"datasetid":"laposte_hexasmal","recordid":"c0dae13af918f33422eb3ce86a77ff9167493d37","fields":{"nom_de_la_commune":"MONTGAILLARD","libell_d_acheminement":"MONTGAILLARD","code_postal":"82120","coordonnees_gps":[43.9301148287,0.878320223678],"code_commune_insee":"82129"},"geometry":{"type":"Point","coordinates":[0.878320223678,43.9301148287]},"record_timestamp":"2016-05-09T15:17:00+02:00"},{"datasetid":"laposte_hexasmal","recordid":"cccce09a60a3e4d0cb27efc81b96c5cd6efe5f96","fields":{"nom_de_la_commune":"MONTPEZAT DE QUERCY","libell_d_acheminement":"MONTPEZAT DE QUERCY","code_postal":"82270","coordonnees_gps":[44.2399240236,1.47367523661],"code_commune_insee":"82131"},"geometry":{"type":"Point","coordinates":[1.47367523661,44.2399240236]},"record_timestamp":"2016-05-09T15:17:00+02:00"},{"datasetid":"laposte_hexasmal","recordid":"88151ebbbd759460f2c721063fd01d64baa7f2b0","fields":{"nom_de_la_commune":"MONTRICOUX","libell_d_acheminement":"MONTRICOUX","code_postal":"82800","coordonnees_gps":[44.1035057733,1.62418942804],"code_commune_insee":"82132"},"geometry":{"type":"Point","coordinates":[1.62418942804,44.1035057733]},"record_timestamp":"2016-05-09T15:17:00+02:00"},{"datasetid":"laposte_hexasmal","recordid":"d1ca7f043152476ed86e48e608d5325751cbb39a","fields":{"nom_de_la_commune":"LE PIN","libell_d_acheminement":"LE PIN","code_postal":"82340","coordonnees_gps":[44.0376612636,0.975279136698],"code_commune_insee":"82139"},"geometry":{"type":"Point","coordinates":[0.975279136698,44.0376612636]},"record_timestamp":"2016-05-09T15:17:00+02:00"},{"datasetid":"laposte_hexasmal","recordid":"7d66ab879bc5f5a7240ad6376e17c1f34ad8e3fe","fields":{"nom_de_la_commune":"ST AIGNAN","libell_d_acheminement":"ST AIGNAN","code_postal":"82100","coordonnees_gps":[44.0231974542,1.07335605665],"code_commune_insee":"82152"},"geometry":{"type":"Point","coordinates":[1.07335605665,44.0231974542]},"record_timestamp":"2016-05-09T15:17:00+02:00"},{"datasetid":"laposte_hexasmal","recordid":"934174e9a92befb616751711b90f482218981627","fields":{"nom_de_la_commune":"ST CIRICE","libell_d_acheminement":"ST CIRICE","code_postal":"82340","coordonnees_gps":[44.0616740438,0.838811755985],"code_commune_insee":"82158"},"geometry":{"type":"Point","coordinates":[0.838811755985,44.0616740438]},"record_timestamp":"2016-05-09T15:17:00+02:00"},{"datasetid":"laposte_hexasmal","recordid":"c5fe8f9997eac5d39831745ddb26252d969ef22e","fields":{"nom_de_la_commune":"ST GEORGES","libell_d_acheminement":"ST GEORGES","code_postal":"82240","coordonnees_gps":[44.2182015153,1.63984516896],"code_commune_insee":"82162"},"geometry":{"type":"Point","coordinates":[1.63984516896,44.2182015153]},"record_timestamp":"2016-05-09T15:17:00+02:00"},{"datasetid":"laposte_hexasmal","recordid":"06fe8e52425975e3ac989319448a86452cfdf8d8","fields":{"nom_de_la_commune":"STE JULIETTE","libell_d_acheminement":"STE JULIETTE","code_postal":"82110","coordonnees_gps":[44.2920682024,1.16527808537],"code_commune_insee":"82164"},"geometry":{"type":"Point","coordinates":[1.16527808537,44.2920682024]},"record_timestamp":"2016-05-09T15:17:00+02:00"},{"datasetid":"laposte_hexasmal","recordid":"1b69cba430696bef769a3e88968db70056a2b3e8","fields":{"nom_de_la_commune":"ST NAUPHARY","libell_d_acheminement":"ST NAUPHARY","code_postal":"82370","coordonnees_gps":[43.95896731,1.44860158065],"code_commune_insee":"82167"},"geometry":{"type":"Point","coordinates":[1.44860158065,43.95896731]},"record_timestamp":"2016-05-09T15:17:00+02:00"},{"datasetid":"laposte_hexasmal","recordid":"6a8a729df73c532137a9c7091eee721e8660e063","fields":{"nom_de_la_commune":"ST PORQUIER","libell_d_acheminement":"ST PORQUIER","code_postal":"82700","coordonnees_gps":[44.0077030324,1.18227115286],"code_commune_insee":"82171"},"geometry":{"type":"Point","coordinates":[1.18227115286,44.0077030324]},"record_timestamp":"2016-05-09T15:17:00+02:00"},{"datasetid":"laposte_hexasmal","recordid":"5c45a50aea7c72cf544d05797e8a2495beebfcbf","fields":{"nom_de_la_commune":"ST PROJET","libell_d_acheminement":"ST PROJET","code_postal":"82160","coordonnees_gps":[44.3109210238,1.77087641196],"code_commune_insee":"82172"},"geometry":{"type":"Point","coordinates":[1.77087641196,44.3109210238]},"record_timestamp":"2016-05-09T15:17:00+02:00"},{"datasetid":"laposte_hexasmal","recordid":"d676b5cb2f86154fa971443163145b2bfad0f0c6","fields":{"nom_de_la_commune":"LA SALVETAT BELMONTET","libell_d_acheminement":"LA SALVETAT BELMONTET","code_postal":"82230","coordonnees_gps":[43.966657971,1.51277201419],"code_commune_insee":"82176"},"geometry":{"type":"Point","coordinates":[1.51277201419,43.966657971]},"record_timestamp":"2016-05-09T15:17:00+02:00"},{"datasetid":"laposte_hexasmal","recordid":"7ad676ccb36161aaa547ac613f8ce03e533c6515","fields":{"nom_de_la_commune":"VERDUN SUR GARONNE","libell_d_acheminement":"VERDUN SUR GARONNE","code_postal":"82600","coordonnees_gps":[43.849145335,1.22845642714],"code_commune_insee":"82190"},"geometry":{"type":"Point","coordinates":[1.22845642714,43.849145335]},"record_timestamp":"2016-05-09T15:17:00+02:00"},{"datasetid":"laposte_hexasmal","recordid":"4048d6b9277fad654cdd4b809da8e439de9f6628","fields":{"nom_de_la_commune":"VERLHAC TESCOU","libell_d_acheminement":"VERLHAC TESCOU","code_postal":"82230","coordonnees_gps":[43.9330870043,1.53273779471],"code_commune_insee":"82192"},"geometry":{"type":"Point","coordinates":[1.53273779471,43.9330870043]},"record_timestamp":"2016-05-09T15:17:00+02:00"}]