[{"datasetid":"laposte_hexasmal","recordid":"ded098bb754c50c4de8a95ab55c392cd57caaece","fields":{"nom_de_la_commune":"ARNOUVILLE","libell_d_acheminement":"ARNOUVILLE","code_postal":"95400","coordonnees_gps":[48.9858270233,2.41714370822],"code_commune_insee":"95019"},"geometry":{"type":"Point","coordinates":[2.41714370822,48.9858270233]},"record_timestamp":"2016-05-09T15:17:00+02:00"},{"datasetid":"laposte_hexasmal","recordid":"96d91c93e36facf4baf019b0b72091b3bc5f8133","fields":{"nom_de_la_commune":"AUVERS SUR OISE","libell_d_acheminement":"AUVERS SUR OISE","code_postal":"95430","coordonnees_gps":[49.0803858577,2.15488070885],"code_commune_insee":"95039"},"geometry":{"type":"Point","coordinates":[2.15488070885,49.0803858577]},"record_timestamp":"2016-05-09T15:17:00+02:00"},{"datasetid":"laposte_hexasmal","recordid":"42880702b4d496e7fa8c657e4657354b6f387c7a","fields":{"nom_de_la_commune":"AVERNES","libell_d_acheminement":"AVERNES","code_postal":"95450","coordonnees_gps":[49.0888264241,1.87003944746],"code_commune_insee":"95040"},"geometry":{"type":"Point","coordinates":[1.87003944746,49.0888264241]},"record_timestamp":"2016-05-09T15:17:00+02:00"},{"datasetid":"laposte_hexasmal","recordid":"f9f31e6ac04e5734767ec2897c22e8295c1cbd37","fields":{"nom_de_la_commune":"BELLEFONTAINE","libell_d_acheminement":"BELLEFONTAINE","code_postal":"95270","coordonnees_gps":[49.0925450079,2.46955814701],"code_commune_insee":"95055"},"geometry":{"type":"Point","coordinates":[2.46955814701,49.0925450079]},"record_timestamp":"2016-05-09T15:17:00+02:00"},{"datasetid":"laposte_hexasmal","recordid":"d8cff1382057e80a503dc2b72fde465880f708bc","fields":{"nom_de_la_commune":"BEZONS","libell_d_acheminement":"BEZONS","code_postal":"95870","coordonnees_gps":[48.9259810125,2.21133387765],"code_commune_insee":"95063"},"geometry":{"type":"Point","coordinates":[2.21133387765,48.9259810125]},"record_timestamp":"2016-05-09T15:17:00+02:00"},{"datasetid":"laposte_hexasmal","recordid":"1f6c240dbb1499cde8b4f534bf0a1b8c18fa35cc","fields":{"nom_de_la_commune":"BUHY","libell_d_acheminement":"BUHY","code_postal":"95770","coordonnees_gps":[49.1917501414,1.70277550581],"code_commune_insee":"95119"},"geometry":{"type":"Point","coordinates":[1.70277550581,49.1917501414]},"record_timestamp":"2016-05-09T15:17:00+02:00"},{"datasetid":"laposte_hexasmal","recordid":"bda4a7fca0ebe5231be3f528b74ea34938380e66","fields":{"nom_de_la_commune":"BUTRY SUR OISE","libell_d_acheminement":"BUTRY SUR OISE","code_postal":"95430","coordonnees_gps":[49.083906326,2.19184448916],"code_commune_insee":"95120"},"geometry":{"type":"Point","coordinates":[2.19184448916,49.083906326]},"record_timestamp":"2016-05-09T15:17:00+02:00"},{"datasetid":"laposte_hexasmal","recordid":"6be9869a5a4da753cba8bb9ad54fb7a3d33f0a40","fields":{"code_postal":"95000","code_commune_insee":"95127","libell_d_acheminement":"CERGY","ligne_5":"MENANDON","nom_de_la_commune":"CERGY","coordonnees_gps":[49.0401131567,2.05082123731]},"geometry":{"type":"Point","coordinates":[2.05082123731,49.0401131567]},"record_timestamp":"2016-05-09T15:17:00+02:00"},{"datasetid":"laposte_hexasmal","recordid":"6f681a08f5fa5cebcbcf984f7c32af24bbd3d6ce","fields":{"nom_de_la_commune":"CHAUMONTEL","libell_d_acheminement":"CHAUMONTEL","code_postal":"95270","coordonnees_gps":[49.1289962967,2.43643330005],"code_commune_insee":"95149"},"geometry":{"type":"Point","coordinates":[2.43643330005,49.1289962967]},"record_timestamp":"2016-05-09T15:17:00+02:00"},{"datasetid":"laposte_hexasmal","recordid":"e99fcaa939a36e5957e1f15b4dabcc3100bb062a","fields":{"nom_de_la_commune":"CHAUVRY","libell_d_acheminement":"CHAUVRY","code_postal":"95560","coordonnees_gps":[49.0530490833,2.26887039033],"code_commune_insee":"95151"},"geometry":{"type":"Point","coordinates":[2.26887039033,49.0530490833]},"record_timestamp":"2016-05-09T15:17:00+02:00"},{"datasetid":"laposte_hexasmal","recordid":"e1a1646882b7d4d14ee0854dbd8a3424fecc28b8","fields":{"nom_de_la_commune":"CLERY EN VEXIN","libell_d_acheminement":"CLERY EN VEXIN","code_postal":"95420","coordonnees_gps":[49.1319286241,1.8481642148],"code_commune_insee":"95166"},"geometry":{"type":"Point","coordinates":[1.8481642148,49.1319286241]},"record_timestamp":"2016-05-09T15:17:00+02:00"},{"datasetid":"laposte_hexasmal","recordid":"b7315115c0217008ebee553a1e43d591c8b3f908","fields":{"nom_de_la_commune":"COURCELLES SUR VIOSNE","libell_d_acheminement":"COURCELLES SUR VIOSNE","code_postal":"95650","coordonnees_gps":[49.073025738,1.99630178022],"code_commune_insee":"95181"},"geometry":{"type":"Point","coordinates":[1.99630178022,49.073025738]},"record_timestamp":"2016-05-09T15:17:00+02:00"},{"datasetid":"laposte_hexasmal","recordid":"b3f631a846aee666cde50371fb76d605d2cf8bac","fields":{"nom_de_la_commune":"EAUBONNE","libell_d_acheminement":"EAUBONNE","code_postal":"95600","coordonnees_gps":[48.9909940165,2.27800925488],"code_commune_insee":"95203"},"geometry":{"type":"Point","coordinates":[2.27800925488,48.9909940165]},"record_timestamp":"2016-05-09T15:17:00+02:00"},{"datasetid":"laposte_hexasmal","recordid":"55cbe11884d3e96baf9c0732371057cae6170e9f","fields":{"nom_de_la_commune":"ERAGNY","libell_d_acheminement":"ERAGNY SUR OISE","code_postal":"95610","coordonnees_gps":[49.0204587496,2.10136635847],"code_commune_insee":"95218"},"geometry":{"type":"Point","coordinates":[2.10136635847,49.0204587496]},"record_timestamp":"2016-05-09T15:17:00+02:00"},{"datasetid":"laposte_hexasmal","recordid":"dbd99f223aa27235303f358dd1c6b7d57d437c44","fields":{"nom_de_la_commune":"FREMAINVILLE","libell_d_acheminement":"FREMAINVILLE","code_postal":"95450","coordonnees_gps":[49.0662903393,1.86961416716],"code_commune_insee":"95253"},"geometry":{"type":"Point","coordinates":[1.86961416716,49.0662903393]},"record_timestamp":"2016-05-09T15:17:00+02:00"},{"datasetid":"laposte_hexasmal","recordid":"39ef020573afbbd492259bfbabadc465811b9724","fields":{"nom_de_la_commune":"FREMECOURT","libell_d_acheminement":"FREMECOURT","code_postal":"95830","coordonnees_gps":[49.1234959164,1.99347687153],"code_commune_insee":"95254"},"geometry":{"type":"Point","coordinates":[1.99347687153,49.1234959164]},"record_timestamp":"2016-05-09T15:17:00+02:00"},{"datasetid":"laposte_hexasmal","recordid":"28c69062782e9de1756bd6468fe7f59185faa07e","fields":{"nom_de_la_commune":"GENAINVILLE","libell_d_acheminement":"GENAINVILLE","code_postal":"95420","coordonnees_gps":[49.1168671395,1.75427492934],"code_commune_insee":"95270"},"geometry":{"type":"Point","coordinates":[1.75427492934,49.1168671395]},"record_timestamp":"2016-05-09T15:17:00+02:00"},{"datasetid":"laposte_hexasmal","recordid":"593ac3c043b12da02b5b8801eca60fa5cd3442af","fields":{"nom_de_la_commune":"GONESSE","libell_d_acheminement":"GONESSE","code_postal":"95500","coordonnees_gps":[48.9864903049,2.4569899628],"code_commune_insee":"95277"},"geometry":{"type":"Point","coordinates":[2.4569899628,48.9864903049]},"record_timestamp":"2016-05-09T15:17:00+02:00"},{"datasetid":"laposte_hexasmal","recordid":"9af2e8eaf389a5046b8234a88060469b71767cf0","fields":{"nom_de_la_commune":"GUIRY EN VEXIN","libell_d_acheminement":"GUIRY EN VEXIN","code_postal":"95450","coordonnees_gps":[49.1158466771,1.85568912619],"code_commune_insee":"95295"},"geometry":{"type":"Point","coordinates":[1.85568912619,49.1158466771]},"record_timestamp":"2016-05-09T15:17:00+02:00"},{"datasetid":"laposte_hexasmal","recordid":"8b069fbfe8b3a73b64bd3da97c0571d8b11315a9","fields":{"nom_de_la_commune":"HEROUVILLE","libell_d_acheminement":"HEROUVILLE","code_postal":"95300","coordonnees_gps":[49.1048939093,2.12722046859],"code_commune_insee":"95308"},"geometry":{"type":"Point","coordinates":[2.12722046859,49.1048939093]},"record_timestamp":"2016-05-09T15:17:00+02:00"},{"datasetid":"laposte_hexasmal","recordid":"489770eed421b94ba8d2bfc7d66959fe748d1bd2","fields":{"nom_de_la_commune":"LABBEVILLE","libell_d_acheminement":"LABBEVILLE","code_postal":"95690","coordonnees_gps":[49.1338305724,2.13502924194],"code_commune_insee":"95328"},"geometry":{"type":"Point","coordinates":[2.13502924194,49.1338305724]},"record_timestamp":"2016-05-09T15:17:00+02:00"},{"datasetid":"laposte_hexasmal","recordid":"76fe79f039d68363646d9e8a82aba418396db551","fields":{"nom_de_la_commune":"MAFFLIERS","libell_d_acheminement":"MAFFLIERS","code_postal":"95560","coordonnees_gps":[49.083629147,2.312333333],"code_commune_insee":"95353"},"geometry":{"type":"Point","coordinates":[2.312333333,49.083629147]},"record_timestamp":"2016-05-09T15:17:00+02:00"},{"datasetid":"laposte_hexasmal","recordid":"c3b3962b7c42406d3e67e03a4b7deb6ae804ff0e","fields":{"nom_de_la_commune":"MAREIL EN FRANCE","libell_d_acheminement":"MAREIL EN FRANCE","code_postal":"95850","coordonnees_gps":[49.0700384798,2.41753793907],"code_commune_insee":"95365"},"geometry":{"type":"Point","coordinates":[2.41753793907,49.0700384798]},"record_timestamp":"2016-05-09T15:17:00+02:00"},{"datasetid":"laposte_hexasmal","recordid":"c8867857bac313e0b9b954b373a080a998d3607b","fields":{"nom_de_la_commune":"MAUDETOUR EN VEXIN","libell_d_acheminement":"MAUDETOUR EN VEXIN","code_postal":"95420","coordonnees_gps":[49.1093620224,1.77708417418],"code_commune_insee":"95379"},"geometry":{"type":"Point","coordinates":[1.77708417418,49.1093620224]},"record_timestamp":"2016-05-09T15:17:00+02:00"},{"datasetid":"laposte_hexasmal","recordid":"ef5ad34012a03bcec9d33e8224d9f1b83314cce0","fields":{"nom_de_la_commune":"MONTLIGNON","libell_d_acheminement":"MONTLIGNON","code_postal":"95680","coordonnees_gps":[49.0141682011,2.28900488904],"code_commune_insee":"95426"},"geometry":{"type":"Point","coordinates":[2.28900488904,49.0141682011]},"record_timestamp":"2016-05-09T15:17:00+02:00"},{"datasetid":"laposte_hexasmal","recordid":"f898c029aa5621c1eba16813f036e40824d3ebec","fields":{"nom_de_la_commune":"MONTMAGNY","libell_d_acheminement":"MONTMAGNY","code_postal":"95360","coordonnees_gps":[48.9699195841,2.3460753179],"code_commune_insee":"95427"},"geometry":{"type":"Point","coordinates":[2.3460753179,48.9699195841]},"record_timestamp":"2016-05-09T15:17:00+02:00"},{"datasetid":"laposte_hexasmal","recordid":"037097cf7d6f872b95f407b44ab1e5b68485a346","fields":{"nom_de_la_commune":"MONTREUIL SUR EPTE","libell_d_acheminement":"MONTREUIL SUR EPTE","code_postal":"95770","coordonnees_gps":[49.1704950487,1.68615384906],"code_commune_insee":"95429"},"geometry":{"type":"Point","coordinates":[1.68615384906,49.1704950487]},"record_timestamp":"2016-05-09T15:17:00+02:00"},{"datasetid":"laposte_hexasmal","recordid":"73749976a9333766635d3857a1861df10eee746a","fields":{"nom_de_la_commune":"MOURS","libell_d_acheminement":"MOURS","code_postal":"95260","coordonnees_gps":[49.1303947491,2.26415088892],"code_commune_insee":"95436"},"geometry":{"type":"Point","coordinates":[2.26415088892,49.1303947491]},"record_timestamp":"2016-05-09T15:17:00+02:00"},{"datasetid":"laposte_hexasmal","recordid":"21cb4cd1cd1e202eb1a41f805303902e24600052","fields":{"nom_de_la_commune":"MOUSSY","libell_d_acheminement":"MOUSSY","code_postal":"95640","coordonnees_gps":[49.1349938099,1.90868035748],"code_commune_insee":"95438"},"geometry":{"type":"Point","coordinates":[1.90868035748,49.1349938099]},"record_timestamp":"2016-05-09T15:17:00+02:00"},{"datasetid":"laposte_hexasmal","recordid":"11a8f074cfdb3982b8481bfa7a8d3d6d2bb3f1ea","fields":{"nom_de_la_commune":"NERVILLE LA FORET","libell_d_acheminement":"NERVILLE LA FORET","code_postal":"95590","coordonnees_gps":[49.0903513665,2.27625010335],"code_commune_insee":"95445"},"geometry":{"type":"Point","coordinates":[2.27625010335,49.0903513665]},"record_timestamp":"2016-05-09T15:17:00+02:00"},{"datasetid":"laposte_hexasmal","recordid":"a930fecc93e391588b5bc71526ac2cf9b487b369","fields":{"nom_de_la_commune":"OMERVILLE","libell_d_acheminement":"OMERVILLE","code_postal":"95420","coordonnees_gps":[49.1427407784,1.72224789983],"code_commune_insee":"95462"},"geometry":{"type":"Point","coordinates":[1.72224789983,49.1427407784]},"record_timestamp":"2016-05-09T15:17:00+02:00"},{"datasetid":"laposte_hexasmal","recordid":"46e5243be08f38bcc3caaa25ad7deae52ceefd61","fields":{"nom_de_la_commune":"OSNY","libell_d_acheminement":"OSNY","code_postal":"95520","coordonnees_gps":[49.0676589923,2.06311678451],"code_commune_insee":"95476"},"geometry":{"type":"Point","coordinates":[2.06311678451,49.0676589923]},"record_timestamp":"2016-05-09T15:17:00+02:00"},{"datasetid":"laposte_hexasmal","recordid":"24bf45c048bafd7067c1d3126ef2e775ca814a32","fields":{"nom_de_la_commune":"PARMAIN","libell_d_acheminement":"PARMAIN","code_postal":"95620","coordonnees_gps":[49.1228699088,2.201277887],"code_commune_insee":"95480"},"geometry":{"type":"Point","coordinates":[2.201277887,49.1228699088]},"record_timestamp":"2016-05-09T15:17:00+02:00"},{"datasetid":"laposte_hexasmal","recordid":"d0490d7cc5a40c775ac466fb3eafea0c3b759f6f","fields":{"nom_de_la_commune":"PERSAN","libell_d_acheminement":"PERSAN","code_postal":"95340","coordonnees_gps":[49.1497441715,2.26978393249],"code_commune_insee":"95487"},"geometry":{"type":"Point","coordinates":[2.26978393249,49.1497441715]},"record_timestamp":"2016-05-09T15:17:00+02:00"},{"datasetid":"laposte_hexasmal","recordid":"219331984a9fa3b08a6aaf815efe670ab65d3b7f","fields":{"nom_de_la_commune":"ST LEU LA FORET","libell_d_acheminement":"ST LEU LA FORET","code_postal":"95320","coordonnees_gps":[49.0202164812,2.24676044206],"code_commune_insee":"95563"},"geometry":{"type":"Point","coordinates":[2.24676044206,49.0202164812]},"record_timestamp":"2016-05-09T15:17:00+02:00"},{"datasetid":"laposte_hexasmal","recordid":"70e1c5afb15152e08eb84137f8f011b311f7221d","fields":{"nom_de_la_commune":"ST PRIX","libell_d_acheminement":"ST PRIX","code_postal":"95390","coordonnees_gps":[49.0208224816,2.27015066493],"code_commune_insee":"95574"},"geometry":{"type":"Point","coordinates":[2.27015066493,49.0208224816]},"record_timestamp":"2016-05-09T15:17:00+02:00"},{"datasetid":"laposte_hexasmal","recordid":"2fa2520853dd29f9e50ef9235efac52b5babbcdb","fields":{"nom_de_la_commune":"SANNOIS","libell_d_acheminement":"SANNOIS","code_postal":"95110","coordonnees_gps":[48.9717773111,2.25299514112],"code_commune_insee":"95582"},"geometry":{"type":"Point","coordinates":[2.25299514112,48.9717773111]},"record_timestamp":"2016-05-09T15:17:00+02:00"},{"datasetid":"laposte_hexasmal","recordid":"1dc8d2b3664fb1b5b73eefc12629bc8e43972705","fields":{"nom_de_la_commune":"SEUGY","libell_d_acheminement":"SEUGY","code_postal":"95270","coordonnees_gps":[49.1230209321,2.39479551154],"code_commune_insee":"95594"},"geometry":{"type":"Point","coordinates":[2.39479551154,49.1230209321]},"record_timestamp":"2016-05-09T15:17:00+02:00"},{"datasetid":"laposte_hexasmal","recordid":"7fc53d6ea944e688799a749d533d1b4e6e887d2e","fields":{"nom_de_la_commune":"US","libell_d_acheminement":"US","code_postal":"95450","coordonnees_gps":[49.1048076828,1.95764610139],"code_commune_insee":"95625"},"geometry":{"type":"Point","coordinates":[1.95764610139,49.1048076828]},"record_timestamp":"2016-05-09T15:17:00+02:00"},{"datasetid":"laposte_hexasmal","recordid":"17e48335b6cf03c33f51400207ec0588d0cab4df","fields":{"nom_de_la_commune":"VAUREAL","libell_d_acheminement":"VAUREAL","code_postal":"95490","coordonnees_gps":[49.0295073382,2.02446619061],"code_commune_insee":"95637"},"geometry":{"type":"Point","coordinates":[2.02446619061,49.0295073382]},"record_timestamp":"2016-05-09T15:17:00+02:00"},{"datasetid":"laposte_hexasmal","recordid":"2563366e523f70d79cb3f6900acbddcb2a5cc0b7","fields":{"nom_de_la_commune":"ABLEIGES","libell_d_acheminement":"ABLEIGES","code_postal":"95450","coordonnees_gps":[49.085772994,1.97486524588],"code_commune_insee":"95002"},"geometry":{"type":"Point","coordinates":[1.97486524588,49.085772994]},"record_timestamp":"2016-05-09T15:17:00+02:00"},{"datasetid":"laposte_hexasmal","recordid":"20ffa4c9f637c0a20ac6a5cd9c9335c471131708","fields":{"nom_de_la_commune":"AINCOURT","libell_d_acheminement":"AINCOURT","code_postal":"95510","coordonnees_gps":[49.0728443021,1.77403416153],"code_commune_insee":"95008"},"geometry":{"type":"Point","coordinates":[1.77403416153,49.0728443021]},"record_timestamp":"2016-05-09T15:17:00+02:00"},{"datasetid":"laposte_hexasmal","recordid":"22a6b1b6501659a44d2cf0a84586a395c7e510c5","fields":{"nom_de_la_commune":"AMENUCOURT","libell_d_acheminement":"AMENUCOURT","code_postal":"95510","coordonnees_gps":[49.11033118,1.65004984269],"code_commune_insee":"95012"},"geometry":{"type":"Point","coordinates":[1.65004984269,49.11033118]},"record_timestamp":"2016-05-09T15:17:00+02:00"},{"datasetid":"laposte_hexasmal","recordid":"b2985c9940b8bc5c56998c1929cd021d8800c2bf","fields":{"nom_de_la_commune":"ANDILLY","libell_d_acheminement":"ANDILLY","code_postal":"95580","coordonnees_gps":[49.0084088051,2.30277335813],"code_commune_insee":"95014"},"geometry":{"type":"Point","coordinates":[2.30277335813,49.0084088051]},"record_timestamp":"2016-05-09T15:17:00+02:00"},{"datasetid":"laposte_hexasmal","recordid":"30cca9168cc13703b1923b2356c55d5a8dfe41ff","fields":{"nom_de_la_commune":"ARRONVILLE","libell_d_acheminement":"ARRONVILLE","code_postal":"95810","coordonnees_gps":[49.1740736985,2.1128755699],"code_commune_insee":"95023"},"geometry":{"type":"Point","coordinates":[2.1128755699,49.1740736985]},"record_timestamp":"2016-05-09T15:17:00+02:00"},{"datasetid":"laposte_hexasmal","recordid":"2d61146c975ded56dd30caf4539f0a99c76a95e0","fields":{"nom_de_la_commune":"BEAUMONT SUR OISE","libell_d_acheminement":"BEAUMONT SUR OISE","code_postal":"95260","coordonnees_gps":[49.1400981058,2.30021267239],"code_commune_insee":"95052"},"geometry":{"type":"Point","coordinates":[2.30021267239,49.1400981058]},"record_timestamp":"2016-05-09T15:17:00+02:00"},{"datasetid":"laposte_hexasmal","recordid":"a38f2ea7c03b5f0167f58b020248360a7167b7b8","fields":{"nom_de_la_commune":"BELLOY EN FRANCE","libell_d_acheminement":"BELLOY EN FRANCE","code_postal":"95270","coordonnees_gps":[49.0922395849,2.371761287],"code_commune_insee":"95056"},"geometry":{"type":"Point","coordinates":[2.371761287,49.0922395849]},"record_timestamp":"2016-05-09T15:17:00+02:00"},{"datasetid":"laposte_hexasmal","recordid":"cc683db4a34748f8927035f6282922bddfca8c13","fields":{"nom_de_la_commune":"BETHEMONT LA FORET","libell_d_acheminement":"BETHEMONT LA FORET","code_postal":"95840","coordonnees_gps":[49.0543170878,2.25114028557],"code_commune_insee":"95061"},"geometry":{"type":"Point","coordinates":[2.25114028557,49.0543170878]},"record_timestamp":"2016-05-09T15:17:00+02:00"},{"datasetid":"laposte_hexasmal","recordid":"8c1ae4a5ccc2e881b0aebcb953a40c64c6182305","fields":{"nom_de_la_commune":"BONNEUIL EN FRANCE","libell_d_acheminement":"BONNEUIL EN FRANCE","code_postal":"95500","coordonnees_gps":[48.9651461518,2.43492885419],"code_commune_insee":"95088"},"geometry":{"type":"Point","coordinates":[2.43492885419,48.9651461518]},"record_timestamp":"2016-05-09T15:17:00+02:00"},{"datasetid":"laposte_hexasmal","recordid":"39afb65aec1f50fbc45757912f51de4e3fc0d363","fields":{"nom_de_la_commune":"CERGY","libell_d_acheminement":"CERGY","code_postal":"95800","coordonnees_gps":[49.0401131567,2.05082123731],"code_commune_insee":"95127"},"geometry":{"type":"Point","coordinates":[2.05082123731,49.0401131567]},"record_timestamp":"2016-05-09T15:17:00+02:00"},{"datasetid":"laposte_hexasmal","recordid":"5802afa11cb111c2f1503c95e0857981ae7e4dcb","fields":{"nom_de_la_commune":"CHAMPAGNE SUR OISE","libell_d_acheminement":"CHAMPAGNE SUR OISE","code_postal":"95660","coordonnees_gps":[49.1427759123,2.22801680604],"code_commune_insee":"95134"},"geometry":{"type":"Point","coordinates":[2.22801680604,49.1427759123]},"record_timestamp":"2016-05-09T15:17:00+02:00"},{"datasetid":"laposte_hexasmal","recordid":"48e9ecd2a89f972a9dbef5b3dce52780f60a75af","fields":{"nom_de_la_commune":"CHERENCE","libell_d_acheminement":"CHERENCE","code_postal":"95510","coordonnees_gps":[49.0911714832,1.68127200467],"code_commune_insee":"95157"},"geometry":{"type":"Point","coordinates":[1.68127200467,49.0911714832]},"record_timestamp":"2016-05-09T15:17:00+02:00"},{"datasetid":"laposte_hexasmal","recordid":"1124982f0b731e371c5f29d269950376a85a8e4e","fields":{"nom_de_la_commune":"ENGHIEN LES BAINS","libell_d_acheminement":"ENGHIEN LES BAINS","code_postal":"95880","coordonnees_gps":[48.97016048,2.30485955429],"code_commune_insee":"95210"},"geometry":{"type":"Point","coordinates":[2.30485955429,48.97016048]},"record_timestamp":"2016-05-09T15:17:00+02:00"},{"datasetid":"laposte_hexasmal","recordid":"ae0ca3915b065ea530d5660f9f8a56ab14f44702","fields":{"nom_de_la_commune":"ERMONT","libell_d_acheminement":"ERMONT","code_postal":"95120","coordonnees_gps":[48.98824217,2.25662443737],"code_commune_insee":"95219"},"geometry":{"type":"Point","coordinates":[2.25662443737,48.98824217]},"record_timestamp":"2016-05-09T15:17:00+02:00"},{"datasetid":"laposte_hexasmal","recordid":"962b5c4ed9439489881e20d8ecb3bbec285939b6","fields":{"nom_de_la_commune":"EZANVILLE","libell_d_acheminement":"EZANVILLE","code_postal":"95460","coordonnees_gps":[49.038600379,2.36269120289],"code_commune_insee":"95229"},"geometry":{"type":"Point","coordinates":[2.36269120289,49.038600379]},"record_timestamp":"2016-05-09T15:17:00+02:00"},{"datasetid":"laposte_hexasmal","recordid":"22556493114952dd0a55f365341bbd84c3741691","fields":{"nom_de_la_commune":"FONTENAY EN PARISIS","libell_d_acheminement":"FONTENAY EN PARISIS","code_postal":"95190","coordonnees_gps":[49.0501196631,2.44539371928],"code_commune_insee":"95241"},"geometry":{"type":"Point","coordinates":[2.44539371928,49.0501196631]},"record_timestamp":"2016-05-09T15:17:00+02:00"},{"datasetid":"laposte_hexasmal","recordid":"5c3730357253a5f9d6230ba833473d81e96da9d8","fields":{"nom_de_la_commune":"FRANCONVILLE","libell_d_acheminement":"FRANCONVILLE LA GARENNE","code_postal":"95130","coordonnees_gps":[48.9884161105,2.2238932062],"code_commune_insee":"95252"},"geometry":{"type":"Point","coordinates":[2.2238932062,48.9884161105]},"record_timestamp":"2016-05-09T15:17:00+02:00"},{"datasetid":"laposte_hexasmal","recordid":"ab6933056545ee43c14c26cbdfdb40a946da2879","fields":{"nom_de_la_commune":"GARGES LES GONESSE","libell_d_acheminement":"GARGES LES GONESSE","code_postal":"95140","coordonnees_gps":[48.9701231267,2.40534038501],"code_commune_insee":"95268"},"geometry":{"type":"Point","coordinates":[2.40534038501,48.9701231267]},"record_timestamp":"2016-05-09T15:17:00+02:00"},{"datasetid":"laposte_hexasmal","recordid":"1b772fd2470ebd391fd729c7bf4d83871dcfdab1","fields":{"nom_de_la_commune":"GOUSSAINVILLE","libell_d_acheminement":"GOUSSAINVILLE","code_postal":"95190","coordonnees_gps":[49.024343017,2.46619848866],"code_commune_insee":"95280"},"geometry":{"type":"Point","coordinates":[2.46619848866,49.024343017]},"record_timestamp":"2016-05-09T15:17:00+02:00"},{"datasetid":"laposte_hexasmal","recordid":"cf7a6c633e7454fe1f16d6420129c5e3fca7e806","fields":{"nom_de_la_commune":"HARAVILLIERS","libell_d_acheminement":"HARAVILLIERS","code_postal":"95640","coordonnees_gps":[49.1752644516,2.03713061027],"code_commune_insee":"95298"},"geometry":{"type":"Point","coordinates":[2.03713061027,49.1752644516]},"record_timestamp":"2016-05-09T15:17:00+02:00"},{"datasetid":"laposte_hexasmal","recordid":"d41fd051aa2ca053f9b851c09184892823916eb9","fields":{"nom_de_la_commune":"HAUTE ISLE","libell_d_acheminement":"HAUTE ISLE","code_postal":"95780","coordonnees_gps":[49.0827306409,1.66281760836],"code_commune_insee":"95301"},"geometry":{"type":"Point","coordinates":[1.66281760836,49.0827306409]},"record_timestamp":"2016-05-09T15:17:00+02:00"},{"datasetid":"laposte_hexasmal","recordid":"a1051c214c46132873ff88b2d562bef1bd4ee83e","fields":{"nom_de_la_commune":"HEDOUVILLE","libell_d_acheminement":"HEDOUVILLE","code_postal":"95690","coordonnees_gps":[49.1584963577,2.17768034545],"code_commune_insee":"95304"},"geometry":{"type":"Point","coordinates":[2.17768034545,49.1584963577]},"record_timestamp":"2016-05-09T15:17:00+02:00"},{"datasetid":"laposte_hexasmal","recordid":"332efef854a7d81f3dac471e3f1b9f8bae9b3f03","fields":{"nom_de_la_commune":"HODENT","libell_d_acheminement":"HODENT","code_postal":"95420","coordonnees_gps":[49.1421704888,1.762430658],"code_commune_insee":"95309"},"geometry":{"type":"Point","coordinates":[1.762430658,49.1421704888]},"record_timestamp":"2016-05-09T15:17:00+02:00"},{"datasetid":"laposte_hexasmal","recordid":"5e2ede98c9a69c94663279ebccd43c2610b9387b","fields":{"nom_de_la_commune":"LIVILLIERS","libell_d_acheminement":"LIVILLIERS","code_postal":"95300","coordonnees_gps":[49.1004574229,2.09462391064],"code_commune_insee":"95341"},"geometry":{"type":"Point","coordinates":[2.09462391064,49.1004574229]},"record_timestamp":"2016-05-09T15:17:00+02:00"},{"datasetid":"laposte_hexasmal","recordid":"1886732d433e553dc1c28fafe8c89113dde538fa","fields":{"nom_de_la_commune":"MAGNY EN VEXIN","libell_d_acheminement":"MAGNY EN VEXIN","code_postal":"95420","coordonnees_gps":[49.158617564,1.81039322129],"code_commune_insee":"95355"},"geometry":{"type":"Point","coordinates":[1.81039322129,49.158617564]},"record_timestamp":"2016-05-09T15:17:00+02:00"},{"datasetid":"laposte_hexasmal","recordid":"1c57a29a5680af0fcb149ddb26d45cc16d250dfa","fields":{"nom_de_la_commune":"MARINES","libell_d_acheminement":"MARINES","code_postal":"95640","coordonnees_gps":[49.1480448573,1.98376019265],"code_commune_insee":"95370"},"geometry":{"type":"Point","coordinates":[1.98376019265,49.1480448573]},"record_timestamp":"2016-05-09T15:17:00+02:00"},{"datasetid":"laposte_hexasmal","recordid":"d0be5ee4941402ab659180f69be09f2f89b2c103","fields":{"nom_de_la_commune":"MARLY LA VILLE","libell_d_acheminement":"MARLY LA VILLE","code_postal":"95670","coordonnees_gps":[49.0815057636,2.5087179751],"code_commune_insee":"95371"},"geometry":{"type":"Point","coordinates":[2.5087179751,49.0815057636]},"record_timestamp":"2016-05-09T15:17:00+02:00"},{"datasetid":"laposte_hexasmal","recordid":"62f170ae13dbc19bb8845e94e34611aea2483211","fields":{"nom_de_la_commune":"MENOUVILLE","libell_d_acheminement":"MENOUVILLE","code_postal":"95810","coordonnees_gps":[49.1532355635,2.10779433987],"code_commune_insee":"95387"},"geometry":{"type":"Point","coordinates":[2.10779433987,49.1532355635]},"record_timestamp":"2016-05-09T15:17:00+02:00"},{"datasetid":"laposte_hexasmal","recordid":"d1ee4473f6ce897a153a97be8d3dddc4d3da3e5b","fields":{"nom_de_la_commune":"MENUCOURT","libell_d_acheminement":"MENUCOURT","code_postal":"95180","coordonnees_gps":[49.0275422182,1.9746848215],"code_commune_insee":"95388"},"geometry":{"type":"Point","coordinates":[1.9746848215,49.0275422182]},"record_timestamp":"2016-05-09T15:17:00+02:00"},{"datasetid":"laposte_hexasmal","recordid":"e0b519bd8eec19043ea2d2bb51595c3216d21264","fields":{"nom_de_la_commune":"MERY SUR OISE","libell_d_acheminement":"MERY SUR OISE","code_postal":"95540","coordonnees_gps":[49.0548422566,2.17397254184],"code_commune_insee":"95394"},"geometry":{"type":"Point","coordinates":[2.17397254184,49.0548422566]},"record_timestamp":"2016-05-09T15:17:00+02:00"},{"datasetid":"laposte_hexasmal","recordid":"bb2ecdf8bd9d39ae73c5ef56dcfc900e0f61162f","fields":{"nom_de_la_commune":"NOISY SUR OISE","libell_d_acheminement":"NOISY SUR OISE","code_postal":"95270","coordonnees_gps":[49.1346676659,2.32848304396],"code_commune_insee":"95456"},"geometry":{"type":"Point","coordinates":[2.32848304396,49.1346676659]},"record_timestamp":"2016-05-09T15:17:00+02:00"},{"datasetid":"laposte_hexasmal","recordid":"5181b72cda9396bbfaf0f47986c2eb09488859fc","fields":{"nom_de_la_commune":"NUCOURT","libell_d_acheminement":"NUCOURT","code_postal":"95420","coordonnees_gps":[49.1595393224,1.85643409298],"code_commune_insee":"95459"},"geometry":{"type":"Point","coordinates":[1.85643409298,49.1595393224]},"record_timestamp":"2016-05-09T15:17:00+02:00"},{"datasetid":"laposte_hexasmal","recordid":"78906832de5578fb500ea0c51ddb5a38ede8aeaa","fields":{"nom_de_la_commune":"LE PLESSIS BOUCHARD","libell_d_acheminement":"LE PLESSIS BOUCHARD","code_postal":"95130","coordonnees_gps":[49.0032793478,2.23401999637],"code_commune_insee":"95491"},"geometry":{"type":"Point","coordinates":[2.23401999637,49.0032793478]},"record_timestamp":"2016-05-09T15:17:00+02:00"},{"datasetid":"laposte_hexasmal","recordid":"87eb54f54567ea2241e7ccf8c2baaa0e5be198a1","fields":{"nom_de_la_commune":"LE PLESSIS GASSOT","libell_d_acheminement":"LE PLESSIS GASSOT","code_postal":"95720","coordonnees_gps":[49.0357861801,2.41591923278],"code_commune_insee":"95492"},"geometry":{"type":"Point","coordinates":[2.41591923278,49.0357861801]},"record_timestamp":"2016-05-09T15:17:00+02:00"},{"datasetid":"laposte_hexasmal","recordid":"453ee0f02da7411b771c91e63ad6428a556d9083","fields":{"nom_de_la_commune":"PONTOISE","libell_d_acheminement":"PONTOISE","code_postal":"95300","coordonnees_gps":[49.0513737853,2.09487928948],"code_commune_insee":"95500"},"geometry":{"type":"Point","coordinates":[2.09487928948,49.0513737853]},"record_timestamp":"2016-05-09T15:17:00+02:00"},{"datasetid":"laposte_hexasmal","recordid":"e18b941e6ec8cbfc8b27f394d3c8e6a5f9f0918a","fields":{"nom_de_la_commune":"PRESLES","libell_d_acheminement":"PRESLES","code_postal":"95590","coordonnees_gps":[49.1118569843,2.28674437908],"code_commune_insee":"95504"},"geometry":{"type":"Point","coordinates":[2.28674437908,49.1118569843]},"record_timestamp":"2016-05-09T15:17:00+02:00"},{"datasetid":"laposte_hexasmal","recordid":"bb1947ba9e466a85aba51dabc2eaebf6d16b0495","fields":{"nom_de_la_commune":"LA ROCHE GUYON","libell_d_acheminement":"LA ROCHE GUYON","code_postal":"95780","coordonnees_gps":[49.0874855412,1.63442620986],"code_commune_insee":"95523"},"geometry":{"type":"Point","coordinates":[1.63442620986,49.0874855412]},"record_timestamp":"2016-05-09T15:17:00+02:00"},{"datasetid":"laposte_hexasmal","recordid":"3abad3f2133b09a12f8bf7459c9e92e11c26f2af","fields":{"nom_de_la_commune":"RONQUEROLLES","libell_d_acheminement":"RONQUEROLLES","code_postal":"95340","coordonnees_gps":[49.1677039084,2.21341666638],"code_commune_insee":"95529"},"geometry":{"type":"Point","coordinates":[2.21341666638,49.1677039084]},"record_timestamp":"2016-05-09T15:17:00+02:00"},{"datasetid":"laposte_hexasmal","recordid":"bdf1e378f703e3431fab27f490a7da01b0ef9d5f","fields":{"nom_de_la_commune":"ST GRATIEN","libell_d_acheminement":"ST GRATIEN","code_postal":"95210","coordonnees_gps":[48.9689724948,2.28518003438],"code_commune_insee":"95555"},"geometry":{"type":"Point","coordinates":[2.28518003438,48.9689724948]},"record_timestamp":"2016-05-09T15:17:00+02:00"},{"datasetid":"laposte_hexasmal","recordid":"f0b13052373aae4c2ed66cd2d778bee1da8b581f","fields":{"nom_de_la_commune":"ST MARTIN DU TERTRE","libell_d_acheminement":"ST MARTIN DU TERTRE","code_postal":"95270","coordonnees_gps":[49.1039330244,2.33445740142],"code_commune_insee":"95566"},"geometry":{"type":"Point","coordinates":[2.33445740142,49.1039330244]},"record_timestamp":"2016-05-09T15:17:00+02:00"},{"datasetid":"laposte_hexasmal","recordid":"0744e8840a2230c71702446e417bf3c5c43c4b9b","fields":{"nom_de_la_commune":"TAVERNY","libell_d_acheminement":"TAVERNY","code_postal":"95150","coordonnees_gps":[49.0267316203,2.22116067166],"code_commune_insee":"95607"},"geometry":{"type":"Point","coordinates":[2.22116067166,49.0267316203]},"record_timestamp":"2016-05-09T15:17:00+02:00"},{"datasetid":"laposte_hexasmal","recordid":"d99b7fe404d7424aa7a4d3990c490b17e933865a","fields":{"nom_de_la_commune":"VIENNE EN ARTHIES","libell_d_acheminement":"VIENNE EN ARTHIES","code_postal":"95510","coordonnees_gps":[49.0664410063,1.72229012946],"code_commune_insee":"95656"},"geometry":{"type":"Point","coordinates":[1.72229012946,49.0664410063]},"record_timestamp":"2016-05-09T15:17:00+02:00"},{"datasetid":"laposte_hexasmal","recordid":"9161676e7b3e4bcd7e9ec545ed969b04e65a9416","fields":{"nom_de_la_commune":"VILLAINES SOUS BOIS","libell_d_acheminement":"VILLAINES SOUS BOIS","code_postal":"95570","coordonnees_gps":[49.0753739915,2.35663670214],"code_commune_insee":"95660"},"geometry":{"type":"Point","coordinates":[2.35663670214,49.0753739915]},"record_timestamp":"2016-05-09T15:17:00+02:00"},{"datasetid":"laposte_hexasmal","recordid":"002eb000869ee62697a0ba577a94666f47e5f742","fields":{"nom_de_la_commune":"VILLERS EN ARTHIES","libell_d_acheminement":"VILLERS EN ARTHIES","code_postal":"95510","coordonnees_gps":[49.0858999284,1.73039629888],"code_commune_insee":"95676"},"geometry":{"type":"Point","coordinates":[1.73039629888,49.0858999284]},"record_timestamp":"2016-05-09T15:17:00+02:00"},{"datasetid":"laposte_hexasmal","recordid":"c1120453a2691fc88e5108d9db2e80f848eb14dc","fields":{"nom_de_la_commune":"VILLIERS LE BEL","libell_d_acheminement":"VILLIERS LE BEL","code_postal":"95400","coordonnees_gps":[49.0084494157,2.40385604039],"code_commune_insee":"95680"},"geometry":{"type":"Point","coordinates":[2.40385604039,49.0084494157]},"record_timestamp":"2016-05-09T15:17:00+02:00"},{"datasetid":"laposte_hexasmal","recordid":"e8ab062d6d4804cfed2c856b51f662dce9ccc0a4","fields":{"nom_de_la_commune":"AMBLEVILLE","libell_d_acheminement":"AMBLEVILLE","code_postal":"95710","coordonnees_gps":[49.1509533273,1.69495333477],"code_commune_insee":"95011"},"geometry":{"type":"Point","coordinates":[1.69495333477,49.1509533273]},"record_timestamp":"2016-05-09T15:17:00+02:00"},{"datasetid":"laposte_hexasmal","recordid":"9f9b25fdddaf5bc9ee8babcd81f3eb501575453a","fields":{"nom_de_la_commune":"ARGENTEUIL","libell_d_acheminement":"ARGENTEUIL","code_postal":"95100","coordonnees_gps":[48.9511344629,2.2410409502],"code_commune_insee":"95018"},"geometry":{"type":"Point","coordinates":[2.2410409502,48.9511344629]},"record_timestamp":"2016-05-09T15:17:00+02:00"},{"datasetid":"laposte_hexasmal","recordid":"f9caf6666bfbb5ca0eee40f428d75a819f27d0c8","fields":{"nom_de_la_commune":"ASNIERES SUR OISE","libell_d_acheminement":"ASNIERES SUR OISE","code_postal":"95270","coordonnees_gps":[49.1407338587,2.3800597257],"code_commune_insee":"95026"},"geometry":{"type":"Point","coordinates":[2.3800597257,49.1407338587]},"record_timestamp":"2016-05-09T15:17:00+02:00"},{"datasetid":"laposte_hexasmal","recordid":"fbb742052d6a866947d90cc7989a7b40a5a60aeb","fields":{"nom_de_la_commune":"BEAUCHAMP","libell_d_acheminement":"BEAUCHAMP","code_postal":"95250","coordonnees_gps":[49.0148746005,2.19223334805],"code_commune_insee":"95051"},"geometry":{"type":"Point","coordinates":[2.19223334805,49.0148746005]},"record_timestamp":"2016-05-09T15:17:00+02:00"},{"datasetid":"laposte_hexasmal","recordid":"4eb5a8f7cafad7b7becacfe8b215a75e74e5f2db","fields":{"nom_de_la_commune":"LE BELLAY EN VEXIN","libell_d_acheminement":"LE BELLAY EN VEXIN","code_postal":"95750","coordonnees_gps":[49.149355833,1.87860817105],"code_commune_insee":"95054"},"geometry":{"type":"Point","coordinates":[1.87860817105,49.149355833]},"record_timestamp":"2016-05-09T15:17:00+02:00"},{"datasetid":"laposte_hexasmal","recordid":"8840f03efc00a4861a8f180b9db6f345af76ca56","fields":{"nom_de_la_commune":"BERNES SUR OISE","libell_d_acheminement":"BERNES SUR OISE","code_postal":"95340","coordonnees_gps":[49.165413332,2.3012763367],"code_commune_insee":"95058"},"geometry":{"type":"Point","coordinates":[2.3012763367,49.165413332]},"record_timestamp":"2016-05-09T15:17:00+02:00"},{"datasetid":"laposte_hexasmal","recordid":"3efc59563161edd085b34f78104c0f832b3fff4e","fields":{"nom_de_la_commune":"BERVILLE","libell_d_acheminement":"BERVILLE","code_postal":"95810","coordonnees_gps":[49.1924943178,2.07091417142],"code_commune_insee":"95059"},"geometry":{"type":"Point","coordinates":[2.07091417142,49.1924943178]},"record_timestamp":"2016-05-09T15:17:00+02:00"},{"datasetid":"laposte_hexasmal","recordid":"e770b7a65a306e21f1c233f6967151b81b9724d9","fields":{"nom_de_la_commune":"BESSANCOURT","libell_d_acheminement":"BESSANCOURT","code_postal":"95550","coordonnees_gps":[49.0373082647,2.19851000707],"code_commune_insee":"95060"},"geometry":{"type":"Point","coordinates":[2.19851000707,49.0373082647]},"record_timestamp":"2016-05-09T15:17:00+02:00"},{"datasetid":"laposte_hexasmal","recordid":"1a1cf9fa5612d0285e4b8302bf8e41813bbbaebb","fields":{"nom_de_la_commune":"BREANCON","libell_d_acheminement":"BREANCON","code_postal":"95640","coordonnees_gps":[49.1493481193,2.02307108872],"code_commune_insee":"95102"},"geometry":{"type":"Point","coordinates":[2.02307108872,49.1493481193]},"record_timestamp":"2016-05-09T15:17:00+02:00"},{"datasetid":"laposte_hexasmal","recordid":"74ac28da8baf4e45cdd8fc14253ff5ad8b0b3edb","fields":{"nom_de_la_commune":"CERGY","libell_d_acheminement":"CERGY","code_postal":"95000","coordonnees_gps":[49.0401131567,2.05082123731],"code_commune_insee":"95127"},"geometry":{"type":"Point","coordinates":[2.05082123731,49.0401131567]},"record_timestamp":"2016-05-09T15:17:00+02:00"},{"datasetid":"laposte_hexasmal","recordid":"775c9b24bae80607d64678b48937fef5625ddb36","fields":{"nom_de_la_commune":"LA CHAPELLE EN VEXIN","libell_d_acheminement":"LA CHAPELLE EN VEXIN","code_postal":"95420","coordonnees_gps":[49.1835139361,1.72855495896],"code_commune_insee":"95139"},"geometry":{"type":"Point","coordinates":[1.72855495896,49.1835139361]},"record_timestamp":"2016-05-09T15:17:00+02:00"},{"datasetid":"laposte_hexasmal","recordid":"ef030f5801ddcfbaeaf2b9ecc054cb5b2adf5010","fields":{"nom_de_la_commune":"CHAUSSY","libell_d_acheminement":"CHAUSSY","code_postal":"95710","coordonnees_gps":[49.1134565492,1.70351386398],"code_commune_insee":"95150"},"geometry":{"type":"Point","coordinates":[1.70351386398,49.1134565492]},"record_timestamp":"2016-05-09T15:17:00+02:00"},{"datasetid":"laposte_hexasmal","recordid":"28e79491e9c34da214a0b9ad0d171cfab672d2a7","fields":{"nom_de_la_commune":"CHENNEVIERES LES LOUVRES","libell_d_acheminement":"CHENNEVIERES LES LOUVRES","code_postal":"95380","coordonnees_gps":[49.0420924353,2.54653894777],"code_commune_insee":"95154"},"geometry":{"type":"Point","coordinates":[2.54653894777,49.0420924353]},"record_timestamp":"2016-05-09T15:17:00+02:00"},{"datasetid":"laposte_hexasmal","recordid":"aeb231e82073711f7d188646d196781882cf84d4","fields":{"nom_de_la_commune":"EPIAIS LES LOUVRES","libell_d_acheminement":"EPIAIS LES LOUVRES","code_postal":"95380","coordonnees_gps":[49.030193287,2.54884090855],"code_commune_insee":"95212"},"geometry":{"type":"Point","coordinates":[2.54884090855,49.030193287]},"record_timestamp":"2016-05-09T15:17:00+02:00"},{"datasetid":"laposte_hexasmal","recordid":"259481a0d3fcb8146d53f7d3beb26437af4053af","fields":{"nom_de_la_commune":"EPIAIS RHUS","libell_d_acheminement":"EPIAIS RHUS","code_postal":"95810","coordonnees_gps":[49.1238363223,2.07311253247],"code_commune_insee":"95213"},"geometry":{"type":"Point","coordinates":[2.07311253247,49.1238363223]},"record_timestamp":"2016-05-09T15:17:00+02:00"},{"datasetid":"laposte_hexasmal","recordid":"0a2077aba2ab64e4d65fad7210e112b01cd52ad6","fields":{"nom_de_la_commune":"LA FRETTE SUR SEINE","libell_d_acheminement":"LA FRETTE SUR SEINE","code_postal":"95530","coordonnees_gps":[48.9745244717,2.17786777518],"code_commune_insee":"95257"},"geometry":{"type":"Point","coordinates":[2.17786777518,48.9745244717]},"record_timestamp":"2016-05-09T15:17:00+02:00"},{"datasetid":"laposte_hexasmal","recordid":"9ded828c2523dc3b058abdfa74b7fa2066359f51","fields":{"nom_de_la_commune":"FROUVILLE","libell_d_acheminement":"FROUVILLE","code_postal":"95690","coordonnees_gps":[49.1574870013,2.14659092833],"code_commune_insee":"95258"},"geometry":{"type":"Point","coordinates":[2.14659092833,49.1574870013]},"record_timestamp":"2016-05-09T15:17:00+02:00"},{"datasetid":"laposte_hexasmal","recordid":"8ffa3db9ad99a47e2ab1df98e3ddbc9a16282a80","fields":{"nom_de_la_commune":"GOUZANGREZ","libell_d_acheminement":"GOUZANGREZ","code_postal":"95450","coordonnees_gps":[49.113864439,1.90836879616],"code_commune_insee":"95282"},"geometry":{"type":"Point","coordinates":[1.90836879616,49.113864439]},"record_timestamp":"2016-05-09T15:17:00+02:00"},{"datasetid":"laposte_hexasmal","recordid":"f677c24b8db31a6f18b4fcf49c0a288c1f2156a6","fields":{"nom_de_la_commune":"HERBLAY","libell_d_acheminement":"HERBLAY","code_postal":"95220","coordonnees_gps":[49.0007002763,2.14967680776],"code_commune_insee":"95306"},"geometry":{"type":"Point","coordinates":[2.14967680776,49.0007002763]},"record_timestamp":"2016-05-09T15:17:00+02:00"},{"datasetid":"laposte_hexasmal","recordid":"a355eff385d8eb9aebe6f21b568394376c7c4893","fields":{"code_postal":"95220","code_commune_insee":"95306","libell_d_acheminement":"HERBLAY","ligne_5":"LA PATTE D OIE","nom_de_la_commune":"HERBLAY","coordonnees_gps":[49.0007002763,2.14967680776]},"geometry":{"type":"Point","coordinates":[2.14967680776,49.0007002763]},"record_timestamp":"2016-05-09T15:17:00+02:00"},{"datasetid":"laposte_hexasmal","recordid":"b7a1e721f16992b4343ce0effc165c8c091f8c70","fields":{"nom_de_la_commune":"L ISLE ADAM","libell_d_acheminement":"L ISLE ADAM","code_postal":"95290","coordonnees_gps":[49.1072255924,2.23436241795],"code_commune_insee":"95313"},"geometry":{"type":"Point","coordinates":[2.23436241795,49.1072255924]},"record_timestamp":"2016-05-09T15:17:00+02:00"},{"datasetid":"laposte_hexasmal","recordid":"4f33091d27f4a24b7c771aeda5b1647cb76d7c04","fields":{"nom_de_la_commune":"LE MESNIL AUBRY","libell_d_acheminement":"LE MESNIL AUBRY","code_postal":"95720","coordonnees_gps":[49.0535430501,2.39230869097],"code_commune_insee":"95395"},"geometry":{"type":"Point","coordinates":[2.39230869097,49.0535430501]},"record_timestamp":"2016-05-09T15:17:00+02:00"},{"datasetid":"laposte_hexasmal","recordid":"c18139577f5869d46dfd061735960f5bd4c1a948","fields":{"nom_de_la_commune":"MONTIGNY LES CORMEILLES","libell_d_acheminement":"MONTIGNY LES CORMEILLES","code_postal":"95370","coordonnees_gps":[48.9938035561,2.19351793046],"code_commune_insee":"95424"},"geometry":{"type":"Point","coordinates":[2.19351793046,48.9938035561]},"record_timestamp":"2016-05-09T15:17:00+02:00"},{"datasetid":"laposte_hexasmal","recordid":"4d82da205fd926d927b4ec0646c5d2eec8d0188d","fields":{"nom_de_la_commune":"MONTMORENCY","libell_d_acheminement":"MONTMORENCY","code_postal":"95160","coordonnees_gps":[48.9918643363,2.32119797848],"code_commune_insee":"95428"},"geometry":{"type":"Point","coordinates":[2.32119797848,48.9918643363]},"record_timestamp":"2016-05-09T15:17:00+02:00"},{"datasetid":"laposte_hexasmal","recordid":"e5c54776188d86f67d179442ab5a4ff21cab90f8","fields":{"nom_de_la_commune":"MONTSOULT","libell_d_acheminement":"MONTSOULT","code_postal":"95560","coordonnees_gps":[49.0715830247,2.30381480542],"code_commune_insee":"95430"},"geometry":{"type":"Point","coordinates":[2.30381480542,49.0715830247]},"record_timestamp":"2016-05-09T15:17:00+02:00"},{"datasetid":"laposte_hexasmal","recordid":"7350117b8bd7876b41fd73f8ccde01ef7375bbd2","fields":{"nom_de_la_commune":"NESLES LA VALLEE","libell_d_acheminement":"NESLES LA VALLEE","code_postal":"95690","coordonnees_gps":[49.1260403898,2.17176267252],"code_commune_insee":"95446"},"geometry":{"type":"Point","coordinates":[2.17176267252,49.1260403898]},"record_timestamp":"2016-05-09T15:17:00+02:00"},{"datasetid":"laposte_hexasmal","recordid":"4bc1abd0f412345cb1d571902baf68aee806610a","fields":{"nom_de_la_commune":"NEUILLY EN VEXIN","libell_d_acheminement":"NEUILLY EN VEXIN","code_postal":"95640","coordonnees_gps":[49.1737847677,1.98023153343],"code_commune_insee":"95447"},"geometry":{"type":"Point","coordinates":[1.98023153343,49.1737847677]},"record_timestamp":"2016-05-09T15:17:00+02:00"},{"datasetid":"laposte_hexasmal","recordid":"9896f19033ec7c0fc3e1aeb8f15dd8a5b5f9969a","fields":{"nom_de_la_commune":"NOINTEL","libell_d_acheminement":"NOINTEL","code_postal":"95590","coordonnees_gps":[49.1288691946,2.29434375998],"code_commune_insee":"95452"},"geometry":{"type":"Point","coordinates":[2.29434375998,49.1288691946]},"record_timestamp":"2016-05-09T15:17:00+02:00"},{"datasetid":"laposte_hexasmal","recordid":"cf67498dcc921f3ca7f655773c43079540c27627","fields":{"nom_de_la_commune":"LE PLESSIS LUZARCHES","libell_d_acheminement":"LE PLESSIS LUZARCHES","code_postal":"95270","coordonnees_gps":[49.095729672,2.45475644312],"code_commune_insee":"95493"},"geometry":{"type":"Point","coordinates":[2.45475644312,49.095729672]},"record_timestamp":"2016-05-09T15:17:00+02:00"},{"datasetid":"laposte_hexasmal","recordid":"3529f9be26dd3872dd4aee997676e98cc00f9008","fields":{"nom_de_la_commune":"PONTOISE","libell_d_acheminement":"PONTOISE","code_postal":"95000","coordonnees_gps":[49.0513737853,2.09487928948],"code_commune_insee":"95500"},"geometry":{"type":"Point","coordinates":[2.09487928948,49.0513737853]},"record_timestamp":"2016-05-09T15:17:00+02:00"},{"datasetid":"laposte_hexasmal","recordid":"9f221abc8533dbdb5cba8da24fe1863f1b0a0288","fields":{"nom_de_la_commune":"ST BRICE SOUS FORET","libell_d_acheminement":"ST BRICE SOUS FORET","code_postal":"95350","coordonnees_gps":[49.0019033624,2.35030688962],"code_commune_insee":"95539"},"geometry":{"type":"Point","coordinates":[2.35030688962,49.0019033624]},"record_timestamp":"2016-05-09T15:17:00+02:00"},{"datasetid":"laposte_hexasmal","recordid":"49e30f2abe96479e25147efc51922e9877243fca","fields":{"nom_de_la_commune":"ST CLAIR SUR EPTE","libell_d_acheminement":"ST CLAIR SUR EPTE","code_postal":"95770","coordonnees_gps":[49.2131541909,1.70318156018],"code_commune_insee":"95541"},"geometry":{"type":"Point","coordinates":[1.70318156018,49.2131541909]},"record_timestamp":"2016-05-09T15:17:00+02:00"},{"datasetid":"laposte_hexasmal","recordid":"b3e44214d6980a5738d04a505c47edaf6bdb38f1","fields":{"nom_de_la_commune":"ST CYR EN ARTHIES","libell_d_acheminement":"ST CYR EN ARTHIES","code_postal":"95510","coordonnees_gps":[49.059130605,1.74195790474],"code_commune_insee":"95543"},"geometry":{"type":"Point","coordinates":[1.74195790474,49.059130605]},"record_timestamp":"2016-05-09T15:17:00+02:00"},{"datasetid":"laposte_hexasmal","recordid":"1eee8747a13a22ff940df866bd63db7ee13ae8dd","fields":{"nom_de_la_commune":"ST GERVAIS","libell_d_acheminement":"ST GERVAIS","code_postal":"95420","coordonnees_gps":[49.1669076657,1.76166350491],"code_commune_insee":"95554"},"geometry":{"type":"Point","coordinates":[1.76166350491,49.1669076657]},"record_timestamp":"2016-05-09T15:17:00+02:00"},{"datasetid":"laposte_hexasmal","recordid":"65048ac31e9b1d125cd05b13c26b78cc66c584ef","fields":{"nom_de_la_commune":"ST WITZ","libell_d_acheminement":"ST WITZ","code_postal":"95470","coordonnees_gps":[49.0857837241,2.55227615042],"code_commune_insee":"95580"},"geometry":{"type":"Point","coordinates":[2.55227615042,49.0857837241]},"record_timestamp":"2016-05-09T15:17:00+02:00"},{"datasetid":"laposte_hexasmal","recordid":"b3570c3319522d7bd0c75596fd923398346a3f5d","fields":{"nom_de_la_commune":"SANTEUIL","libell_d_acheminement":"SANTEUIL","code_postal":"95640","coordonnees_gps":[49.1295034535,1.95810304373],"code_commune_insee":"95584"},"geometry":{"type":"Point","coordinates":[1.95810304373,49.1295034535]},"record_timestamp":"2016-05-09T15:17:00+02:00"},{"datasetid":"laposte_hexasmal","recordid":"b3605de73f0698daef1041e1514e7455cfdda936","fields":{"nom_de_la_commune":"SARCELLES","libell_d_acheminement":"SARCELLES","code_postal":"95200","coordonnees_gps":[48.9902250437,2.38160272749],"code_commune_insee":"95585"},"geometry":{"type":"Point","coordinates":[2.38160272749,48.9902250437]},"record_timestamp":"2016-05-09T15:17:00+02:00"},{"datasetid":"laposte_hexasmal","recordid":"98456b2a3c9420e47a5a66959e54d3ca48f5e0a7","fields":{"nom_de_la_commune":"LE THILLAY","libell_d_acheminement":"LE THILLAY","code_postal":"95500","coordonnees_gps":[49.004277001,2.46927524969],"code_commune_insee":"95612"},"geometry":{"type":"Point","coordinates":[2.46927524969,49.004277001]},"record_timestamp":"2016-05-09T15:17:00+02:00"},{"datasetid":"laposte_hexasmal","recordid":"69e642e922d7a1547046271c9dfc814bc1c2d34b","fields":{"nom_de_la_commune":"VETHEUIL","libell_d_acheminement":"VETHEUIL","code_postal":"95510","coordonnees_gps":[49.0620216513,1.70672153604],"code_commune_insee":"95651"},"geometry":{"type":"Point","coordinates":[1.70672153604,49.0620216513]},"record_timestamp":"2016-05-09T15:17:00+02:00"},{"datasetid":"laposte_hexasmal","recordid":"c3b58b58698d4f08e854df4ea70a930a8e17deb6","fields":{"nom_de_la_commune":"VIGNY","libell_d_acheminement":"VIGNY","code_postal":"95450","coordonnees_gps":[49.080165557,1.92992323682],"code_commune_insee":"95658"},"geometry":{"type":"Point","coordinates":[1.92992323682,49.080165557]},"record_timestamp":"2016-05-09T15:17:00+02:00"},{"datasetid":"laposte_hexasmal","recordid":"55514313e0f0a55d1b990fb2c399800fea9af11b","fields":{"nom_de_la_commune":"VILLIERS ADAM","libell_d_acheminement":"VILLIERS ADAM","code_postal":"95840","coordonnees_gps":[49.0702888248,2.23950871871],"code_commune_insee":"95678"},"geometry":{"type":"Point","coordinates":[2.23950871871,49.0702888248]},"record_timestamp":"2016-05-09T15:17:00+02:00"},{"datasetid":"laposte_hexasmal","recordid":"042379b2a64c4dfb1d1df591bcc5ad9a528d8ffb","fields":{"nom_de_la_commune":"ATTAINVILLE","libell_d_acheminement":"ATTAINVILLE","code_postal":"95570","coordonnees_gps":[49.0609607975,2.35043699897],"code_commune_insee":"95028"},"geometry":{"type":"Point","coordinates":[2.35043699897,49.0609607975]},"record_timestamp":"2016-05-09T15:17:00+02:00"},{"datasetid":"laposte_hexasmal","recordid":"1695d9d0aa3df4bb3210bb14239109a5908a6d04","fields":{"nom_de_la_commune":"BAILLET EN FRANCE","libell_d_acheminement":"BAILLET EN FRANCE","code_postal":"95560","coordonnees_gps":[49.0587634445,2.30242390203],"code_commune_insee":"95042"},"geometry":{"type":"Point","coordinates":[2.30242390203,49.0587634445]},"record_timestamp":"2016-05-09T15:17:00+02:00"},{"datasetid":"laposte_hexasmal","recordid":"a6ca8cb3c5a198dd006bc04de5d1948330573ae5","fields":{"nom_de_la_commune":"BANTHELU","libell_d_acheminement":"BANTHELU","code_postal":"95420","coordonnees_gps":[49.125635171,1.81493362014],"code_commune_insee":"95046"},"geometry":{"type":"Point","coordinates":[1.81493362014,49.125635171]},"record_timestamp":"2016-05-09T15:17:00+02:00"},{"datasetid":"laposte_hexasmal","recordid":"f2bb5d2b5b3a2987658f3888d1f0771eef1d29b1","fields":{"nom_de_la_commune":"BOISSY L AILLERIE","libell_d_acheminement":"BOISSY L AILLERIE","code_postal":"95650","coordonnees_gps":[49.0831174161,2.03269283542],"code_commune_insee":"95078"},"geometry":{"type":"Point","coordinates":[2.03269283542,49.0831174161]},"record_timestamp":"2016-05-09T15:17:00+02:00"},{"datasetid":"laposte_hexasmal","recordid":"a8518e4c330d000caf4952cd7dee9df421a7163a","fields":{"nom_de_la_commune":"BOUQUEVAL","libell_d_acheminement":"BOUQUEVAL","code_postal":"95720","coordonnees_gps":[49.0223417404,2.42997422795],"code_commune_insee":"95094"},"geometry":{"type":"Point","coordinates":[2.42997422795,49.0223417404]},"record_timestamp":"2016-05-09T15:17:00+02:00"},{"datasetid":"laposte_hexasmal","recordid":"65d15d7a49b369865fe7b1bfe20825af27bf4295","fields":{"nom_de_la_commune":"BRAY ET LU","libell_d_acheminement":"BRAY ET LU","code_postal":"95710","coordonnees_gps":[49.1421953145,1.66575656789],"code_commune_insee":"95101"},"geometry":{"type":"Point","coordinates":[1.66575656789,49.1421953145]},"record_timestamp":"2016-05-09T15:17:00+02:00"},{"datasetid":"laposte_hexasmal","recordid":"0fb8bf3829e635929077e6e40f1b8001478f7185","fields":{"nom_de_la_commune":"BRIGNANCOURT","libell_d_acheminement":"BRIGNANCOURT","code_postal":"95640","coordonnees_gps":[49.1395537337,1.94352100236],"code_commune_insee":"95110"},"geometry":{"type":"Point","coordinates":[1.94352100236,49.1395537337]},"record_timestamp":"2016-05-09T15:17:00+02:00"},{"datasetid":"laposte_hexasmal","recordid":"068238aeef5750c8a9dd73107176ae99d87d71a5","fields":{"nom_de_la_commune":"BRUYERES SUR OISE","libell_d_acheminement":"BRUYERES SUR OISE","code_postal":"95820","coordonnees_gps":[49.1610125293,2.32878300621],"code_commune_insee":"95116"},"geometry":{"type":"Point","coordinates":[2.32878300621,49.1610125293]},"record_timestamp":"2016-05-09T15:17:00+02:00"},{"datasetid":"laposte_hexasmal","recordid":"a18be9056c93dfb9436a8cbe1a9b13888ea156f5","fields":{"nom_de_la_commune":"CHARMONT","libell_d_acheminement":"CHARMONT","code_postal":"95420","coordonnees_gps":[49.1370870263,1.78987414307],"code_commune_insee":"95141"},"geometry":{"type":"Point","coordinates":[1.78987414307,49.1370870263]},"record_timestamp":"2016-05-09T15:17:00+02:00"},{"datasetid":"laposte_hexasmal","recordid":"33a9cc3d08b4293125443acc318eeab0ab73fc71","fields":{"nom_de_la_commune":"CHARS","libell_d_acheminement":"CHARS","code_postal":"95750","coordonnees_gps":[49.1576020656,1.93153133198],"code_commune_insee":"95142"},"geometry":{"type":"Point","coordinates":[1.93153133198,49.1576020656]},"record_timestamp":"2016-05-09T15:17:00+02:00"},{"datasetid":"laposte_hexasmal","recordid":"2e7a7be4b3e25d9dd4ba5f8e2320f021470b4b52","fields":{"nom_de_la_commune":"CHATENAY EN FRANCE","libell_d_acheminement":"CHATENAY EN FRANCE","code_postal":"95190","coordonnees_gps":[49.0649154148,2.46274737647],"code_commune_insee":"95144"},"geometry":{"type":"Point","coordinates":[2.46274737647,49.0649154148]},"record_timestamp":"2016-05-09T15:17:00+02:00"},{"datasetid":"laposte_hexasmal","recordid":"63ef2b229313891ffcec3f4dc031e15950f1d362","fields":{"nom_de_la_commune":"CONDECOURT","libell_d_acheminement":"CONDECOURT","code_postal":"95450","coordonnees_gps":[49.0375647936,1.93659110857],"code_commune_insee":"95170"},"geometry":{"type":"Point","coordinates":[1.93659110857,49.0375647936]},"record_timestamp":"2016-05-09T15:17:00+02:00"},{"datasetid":"laposte_hexasmal","recordid":"42a77351f40aebaff6c625830adbfe5017ccaca8","fields":{"nom_de_la_commune":"CORMEILLES EN PARISIS","libell_d_acheminement":"CORMEILLES EN PARISIS","code_postal":"95240","coordonnees_gps":[48.9682249677,2.19921349468],"code_commune_insee":"95176"},"geometry":{"type":"Point","coordinates":[2.19921349468,48.9682249677]},"record_timestamp":"2016-05-09T15:17:00+02:00"},{"datasetid":"laposte_hexasmal","recordid":"10f14e58194b1e7c4cbb060507bad3706ab9ed76","fields":{"nom_de_la_commune":"COURDIMANCHE","libell_d_acheminement":"COURDIMANCHE","code_postal":"95800","coordonnees_gps":[49.040676793,1.9994435918],"code_commune_insee":"95183"},"geometry":{"type":"Point","coordinates":[1.9994435918,49.040676793]},"record_timestamp":"2016-05-09T15:17:00+02:00"},{"datasetid":"laposte_hexasmal","recordid":"484591ebe9a1fb47390ed3aaa71c23c550e3cc20","fields":{"nom_de_la_commune":"DEUIL LA BARRE","libell_d_acheminement":"DEUIL LA BARRE","code_postal":"95170","coordonnees_gps":[48.9712690171,2.32616290144],"code_commune_insee":"95197"},"geometry":{"type":"Point","coordinates":[2.32616290144,48.9712690171]},"record_timestamp":"2016-05-09T15:17:00+02:00"},{"datasetid":"laposte_hexasmal","recordid":"d0367cf710aef8c55f033c9ab6ae2b2f78d8d1c9","fields":{"nom_de_la_commune":"DOMONT","libell_d_acheminement":"DOMONT","code_postal":"95330","coordonnees_gps":[49.0296655684,2.32290103729],"code_commune_insee":"95199"},"geometry":{"type":"Point","coordinates":[2.32290103729,49.0296655684]},"record_timestamp":"2016-05-09T15:17:00+02:00"},{"datasetid":"laposte_hexasmal","recordid":"11ea86037a15e754f177fd7c1a99d446faecfe84","fields":{"nom_de_la_commune":"ENNERY","libell_d_acheminement":"ENNERY","code_postal":"95300","coordonnees_gps":[49.0784386043,2.10941210454],"code_commune_insee":"95211"},"geometry":{"type":"Point","coordinates":[2.10941210454,49.0784386043]},"record_timestamp":"2016-05-09T15:17:00+02:00"},{"datasetid":"laposte_hexasmal","recordid":"a9b7130f4d88fea8e50155a09c0baebc5325ce15","fields":{"nom_de_la_commune":"EPINAY CHAMPLATREUX","libell_d_acheminement":"EPINAY CHAMPLATREUX","code_postal":"95270","coordonnees_gps":[49.0900262096,2.40710033598],"code_commune_insee":"95214"},"geometry":{"type":"Point","coordinates":[2.40710033598,49.0900262096]},"record_timestamp":"2016-05-09T15:17:00+02:00"},{"datasetid":"laposte_hexasmal","recordid":"0aea3775f9406e8a0d89f011559b60ad280c5dd1","fields":{"nom_de_la_commune":"FOSSES","libell_d_acheminement":"FOSSES","code_postal":"95470","coordonnees_gps":[49.1000437966,2.49906495383],"code_commune_insee":"95250"},"geometry":{"type":"Point","coordinates":[2.49906495383,49.1000437966]},"record_timestamp":"2016-05-09T15:17:00+02:00"},{"datasetid":"laposte_hexasmal","recordid":"8ce12c2fa7eb8c358015510a5de2f987732a6265","fields":{"nom_de_la_commune":"GADANCOURT","libell_d_acheminement":"GADANCOURT","code_postal":"95450","coordonnees_gps":[49.0985979496,1.85847770637],"code_commune_insee":"95259"},"geometry":{"type":"Point","coordinates":[1.85847770637,49.0985979496]},"record_timestamp":"2016-05-09T15:17:00+02:00"},{"datasetid":"laposte_hexasmal","recordid":"45b353546e3b012db2d4e3141edd0a9a31d498f3","fields":{"nom_de_la_commune":"GENICOURT","libell_d_acheminement":"GENICOURT","code_postal":"95650","coordonnees_gps":[49.0948354012,2.06072705902],"code_commune_insee":"95271"},"geometry":{"type":"Point","coordinates":[2.06072705902,49.0948354012]},"record_timestamp":"2016-05-09T15:17:00+02:00"},{"datasetid":"laposte_hexasmal","recordid":"f0e8c86ab13999444edf7a79233d48648c7ee151","fields":{"nom_de_la_commune":"GRISY LES PLATRES","libell_d_acheminement":"GRISY LES PLATRES","code_postal":"95810","coordonnees_gps":[49.1332346678,2.0484611533],"code_commune_insee":"95287"},"geometry":{"type":"Point","coordinates":[2.0484611533,49.1332346678]},"record_timestamp":"2016-05-09T15:17:00+02:00"},{"datasetid":"laposte_hexasmal","recordid":"ad6fc2d894697036d65f9c1d2178ea09f6d1b1dc","fields":{"nom_de_la_commune":"LE HEAULME","libell_d_acheminement":"LE HEAULME","code_postal":"95640","coordonnees_gps":[49.1669918244,2.00040147185],"code_commune_insee":"95303"},"geometry":{"type":"Point","coordinates":[2.00040147185,49.1669918244]},"record_timestamp":"2016-05-09T15:17:00+02:00"},{"datasetid":"laposte_hexasmal","recordid":"e51f0a3db79a77df1eacbece4b51df8f1e6d8bb7","fields":{"nom_de_la_commune":"LASSY","libell_d_acheminement":"LASSY","code_postal":"95270","coordonnees_gps":[49.0949281199,2.4378486193],"code_commune_insee":"95331"},"geometry":{"type":"Point","coordinates":[2.4378486193,49.0949281199]},"record_timestamp":"2016-05-09T15:17:00+02:00"},{"datasetid":"laposte_hexasmal","recordid":"fcb332035339fbfcd6448ddad0ab4a6fbaedc601","fields":{"nom_de_la_commune":"LONGUESSE","libell_d_acheminement":"LONGUESSE","code_postal":"95450","coordonnees_gps":[49.0616626709,1.92659421162],"code_commune_insee":"95348"},"geometry":{"type":"Point","coordinates":[1.92659421162,49.0616626709]},"record_timestamp":"2016-05-09T15:17:00+02:00"},{"datasetid":"laposte_hexasmal","recordid":"bc1db401611a889dbbe467615371c084f81fe19b","fields":{"nom_de_la_commune":"LUZARCHES","libell_d_acheminement":"LUZARCHES","code_postal":"95270","coordonnees_gps":[49.1151211125,2.44082640954],"code_commune_insee":"95352"},"geometry":{"type":"Point","coordinates":[2.44082640954,49.1151211125]},"record_timestamp":"2016-05-09T15:17:00+02:00"},{"datasetid":"laposte_hexasmal","recordid":"3007bcc5d33f62218a6b928fabf624f66f06dfdb","fields":{"nom_de_la_commune":"MOISSELLES","libell_d_acheminement":"MOISSELLES","code_postal":"95570","coordonnees_gps":[49.0459598728,2.33744939306],"code_commune_insee":"95409"},"geometry":{"type":"Point","coordinates":[2.33744939306,49.0459598728]},"record_timestamp":"2016-05-09T15:17:00+02:00"},{"datasetid":"laposte_hexasmal","recordid":"84b5274483eafa1878187dd46d3b0da38e520bce","fields":{"nom_de_la_commune":"MONTGEROULT","libell_d_acheminement":"MONTGEROULT","code_postal":"95650","coordonnees_gps":[49.0908042782,2.00787015509],"code_commune_insee":"95422"},"geometry":{"type":"Point","coordinates":[2.00787015509,49.0908042782]},"record_timestamp":"2016-05-09T15:17:00+02:00"},{"datasetid":"laposte_hexasmal","recordid":"e593fd1477c6bf6f1dc1149835850f779f1ea265","fields":{"nom_de_la_commune":"PIERRELAYE","libell_d_acheminement":"PIERRELAYE","code_postal":"95220","coordonnees_gps":[49.0194444023,2.16105557777],"code_commune_insee":"95488"},"geometry":{"type":"Point","coordinates":[2.16105557777,49.0194444023]},"record_timestamp":"2016-05-09T15:17:00+02:00"},{"datasetid":"laposte_hexasmal","recordid":"e65e99738a8b3b35e5809e8716b05bfe93c42eeb","fields":{"code_postal":"95700","code_commune_insee":"95527","libell_d_acheminement":"ROISSY EN FRANCE","ligne_5":"ROISSY AEROPORT CHARLES DE GAULLE","nom_de_la_commune":"ROISSY EN FRANCE","coordonnees_gps":[49.00660444,2.51417743519]},"geometry":{"type":"Point","coordinates":[2.51417743519,49.00660444]},"record_timestamp":"2016-05-09T15:17:00+02:00"},{"datasetid":"laposte_hexasmal","recordid":"1717d98645891283d4fd2cecaea81f8e7bab02ec","fields":{"nom_de_la_commune":"SAGY","libell_d_acheminement":"SAGY","code_postal":"95450","coordonnees_gps":[49.0526461167,1.96852121634],"code_commune_insee":"95535"},"geometry":{"type":"Point","coordinates":[1.96852121634,49.0526461167]},"record_timestamp":"2016-05-09T15:17:00+02:00"},{"datasetid":"laposte_hexasmal","recordid":"e33285d5f86ab98733721b69100164998e345e06","fields":{"nom_de_la_commune":"THEMERICOURT","libell_d_acheminement":"THEMERICOURT","code_postal":"95450","coordonnees_gps":[49.0903809548,1.90532262834],"code_commune_insee":"95610"},"geometry":{"type":"Point","coordinates":[1.90532262834,49.0903809548]},"record_timestamp":"2016-05-09T15:17:00+02:00"},{"datasetid":"laposte_hexasmal","recordid":"c6876ea063af4fc396063317873f0038e96001b0","fields":{"nom_de_la_commune":"THEUVILLE","libell_d_acheminement":"THEUVILLE","code_postal":"95810","coordonnees_gps":[49.1567965357,2.0691663538],"code_commune_insee":"95611"},"geometry":{"type":"Point","coordinates":[2.0691663538,49.1567965357]},"record_timestamp":"2016-05-09T15:17:00+02:00"},{"datasetid":"laposte_hexasmal","recordid":"f509401b3989e9234832a5e44db75f8e4c930fac","fields":{"nom_de_la_commune":"VALLANGOUJARD","libell_d_acheminement":"VALLANGOUJARD","code_postal":"95810","coordonnees_gps":[49.1340749867,2.10393344842],"code_commune_insee":"95627"},"geometry":{"type":"Point","coordinates":[2.10393344842,49.1340749867]},"record_timestamp":"2016-05-09T15:17:00+02:00"},{"datasetid":"laposte_hexasmal","recordid":"4c29a715b02df4a73d720e43ca3ab0537e39a00c","fields":{"nom_de_la_commune":"VALMONDOIS","libell_d_acheminement":"VALMONDOIS","code_postal":"95760","coordonnees_gps":[49.0976500716,2.18016319535],"code_commune_insee":"95628"},"geometry":{"type":"Point","coordinates":[2.18016319535,49.0976500716]},"record_timestamp":"2016-05-09T15:17:00+02:00"},{"datasetid":"laposte_hexasmal","recordid":"32f75c6d8a37810d44d7429172257b4b46062991","fields":{"nom_de_la_commune":"VAUDHERLAND","libell_d_acheminement":"VAUDHERLAND","code_postal":"95500","coordonnees_gps":[49.0004967295,2.48642956224],"code_commune_insee":"95633"},"geometry":{"type":"Point","coordinates":[2.48642956224,49.0004967295]},"record_timestamp":"2016-05-09T15:17:00+02:00"},{"datasetid":"laposte_hexasmal","recordid":"a519f16240ab5653e29f562831fcf83bcf776112","fields":{"nom_de_la_commune":"VILLERON","libell_d_acheminement":"VILLERON","code_postal":"95380","coordonnees_gps":[49.060842982,2.5345109745],"code_commune_insee":"95675"},"geometry":{"type":"Point","coordinates":[2.5345109745,49.060842982]},"record_timestamp":"2016-05-09T15:17:00+02:00"},{"datasetid":"laposte_hexasmal","recordid":"c12cbc9e8de8b8ba7e7c2c1b932e757e78864346","fields":{"code_postal":"95420","code_commune_insee":"95011","libell_d_acheminement":"AMBLEVILLE","ligne_5":"LE VAUMION","nom_de_la_commune":"AMBLEVILLE","coordonnees_gps":[49.1509533273,1.69495333477]},"geometry":{"type":"Point","coordinates":[1.69495333477,49.1509533273]},"record_timestamp":"2016-05-09T15:17:00+02:00"},{"datasetid":"laposte_hexasmal","recordid":"913a86860df4853e5cce199e74dfb508d19c7255","fields":{"nom_de_la_commune":"ARTHIES","libell_d_acheminement":"ARTHIES","code_postal":"95420","coordonnees_gps":[49.0949860681,1.79726253732],"code_commune_insee":"95024"},"geometry":{"type":"Point","coordinates":[1.79726253732,49.0949860681]},"record_timestamp":"2016-05-09T15:17:00+02:00"},{"datasetid":"laposte_hexasmal","recordid":"cabf970068d1d6807537e2817edffe8a392b58e8","fields":{"nom_de_la_commune":"BOISEMONT","libell_d_acheminement":"BOISEMONT","code_postal":"95000","coordonnees_gps":[49.0186866586,2.00384200606],"code_commune_insee":"95074"},"geometry":{"type":"Point","coordinates":[2.00384200606,49.0186866586]},"record_timestamp":"2016-05-09T15:17:00+02:00"},{"datasetid":"laposte_hexasmal","recordid":"2d0473f32a77d7ec4f9116f535900beabae3216d","fields":{"nom_de_la_commune":"BOUFFEMONT","libell_d_acheminement":"BOUFFEMONT","code_postal":"95570","coordonnees_gps":[49.04157253,2.29838457991],"code_commune_insee":"95091"},"geometry":{"type":"Point","coordinates":[2.29838457991,49.04157253]},"record_timestamp":"2016-05-09T15:17:00+02:00"},{"datasetid":"laposte_hexasmal","recordid":"fc8ab0387cae60decaf5e0d6692966f8a7937076","fields":{"nom_de_la_commune":"COMMENY","libell_d_acheminement":"COMMENY","code_postal":"95450","coordonnees_gps":[49.126580535,1.88800469417],"code_commune_insee":"95169"},"geometry":{"type":"Point","coordinates":[1.88800469417,49.126580535]},"record_timestamp":"2016-05-09T15:17:00+02:00"},{"datasetid":"laposte_hexasmal","recordid":"5754c631746739f8bc423abd488a0ed6187230ef","fields":{"nom_de_la_commune":"CORMEILLES EN VEXIN","libell_d_acheminement":"CORMEILLES EN VEXIN","code_postal":"95830","coordonnees_gps":[49.1134329307,2.01977916637],"code_commune_insee":"95177"},"geometry":{"type":"Point","coordinates":[2.01977916637,49.1134329307]},"record_timestamp":"2016-05-09T15:17:00+02:00"},{"datasetid":"laposte_hexasmal","recordid":"db1bce2ce0e1237d8915151f06cc493b33cfde5c","fields":{"nom_de_la_commune":"ECOUEN","libell_d_acheminement":"ECOUEN","code_postal":"95440","coordonnees_gps":[49.0260643173,2.38485695599],"code_commune_insee":"95205"},"geometry":{"type":"Point","coordinates":[2.38485695599,49.0260643173]},"record_timestamp":"2016-05-09T15:17:00+02:00"},{"datasetid":"laposte_hexasmal","recordid":"b0ab0d8fb525fbfbc2ea6ce6577c45efde8a469f","fields":{"nom_de_la_commune":"FREPILLON","libell_d_acheminement":"FREPILLON","code_postal":"95740","coordonnees_gps":[49.0501306912,2.20489899147],"code_commune_insee":"95256"},"geometry":{"type":"Point","coordinates":[2.20489899147,49.0501306912]},"record_timestamp":"2016-05-09T15:17:00+02:00"},{"datasetid":"laposte_hexasmal","recordid":"18faad59527d6ff83926537ccc2cf49f923b16c4","fields":{"nom_de_la_commune":"GROSLAY","libell_d_acheminement":"GROSLAY","code_postal":"95410","coordonnees_gps":[48.9849701077,2.35049057811],"code_commune_insee":"95288"},"geometry":{"type":"Point","coordinates":[2.35049057811,48.9849701077]},"record_timestamp":"2016-05-09T15:17:00+02:00"},{"datasetid":"laposte_hexasmal","recordid":"d91a1def211fb4b70d2fa3ebf737342b92bbcfc1","fields":{"nom_de_la_commune":"JAGNY SOUS BOIS","libell_d_acheminement":"JAGNY SOUS BOIS","code_postal":"95850","coordonnees_gps":[49.0814278078,2.44399511411],"code_commune_insee":"95316"},"geometry":{"type":"Point","coordinates":[2.44399511411,49.0814278078]},"record_timestamp":"2016-05-09T15:17:00+02:00"},{"datasetid":"laposte_hexasmal","recordid":"20cae53fcb323d41892fae3378ff11ed0029a4a5","fields":{"nom_de_la_commune":"JOUY LE MOUTIER","libell_d_acheminement":"JOUY LE MOUTIER","code_postal":"95280","coordonnees_gps":[49.0113625056,2.03408317867],"code_commune_insee":"95323"},"geometry":{"type":"Point","coordinates":[2.03408317867,49.0113625056]},"record_timestamp":"2016-05-09T15:17:00+02:00"},{"datasetid":"laposte_hexasmal","recordid":"45699a2ab40402f01ccb4777a7d3db4f2ee997d0","fields":{"code_postal":"95280","code_commune_insee":"95323","libell_d_acheminement":"JOUY LE MOUTIER","ligne_5":"JOUY LA FONTAINE","nom_de_la_commune":"JOUY LE MOUTIER","coordonnees_gps":[49.0113625056,2.03408317867]},"geometry":{"type":"Point","coordinates":[2.03408317867,49.0113625056]},"record_timestamp":"2016-05-09T15:17:00+02:00"},{"datasetid":"laposte_hexasmal","recordid":"f5d2a1553bc5b8fa10495ed58c12e6dd6170a45e","fields":{"code_postal":"95280","code_commune_insee":"95323","libell_d_acheminement":"JOUY LE MOUTIER","ligne_5":"VINCOURT","nom_de_la_commune":"JOUY LE MOUTIER","coordonnees_gps":[49.0113625056,2.03408317867]},"geometry":{"type":"Point","coordinates":[2.03408317867,49.0113625056]},"record_timestamp":"2016-05-09T15:17:00+02:00"},{"datasetid":"laposte_hexasmal","recordid":"347886ee81cc2ce7845de8fb730edd54c8fd94ee","fields":{"nom_de_la_commune":"LOUVRES","libell_d_acheminement":"LOUVRES","code_postal":"95380","coordonnees_gps":[49.0422977702,2.50358491408],"code_commune_insee":"95351"},"geometry":{"type":"Point","coordinates":[2.50358491408,49.0422977702]},"record_timestamp":"2016-05-09T15:17:00+02:00"},{"datasetid":"laposte_hexasmal","recordid":"a7248e29758b99c2ddeecf2f19fa3e0c1ef4a43e","fields":{"nom_de_la_commune":"MARGENCY","libell_d_acheminement":"MARGENCY","code_postal":"95580","coordonnees_gps":[49.0014888466,2.28907008969],"code_commune_insee":"95369"},"geometry":{"type":"Point","coordinates":[2.28907008969,49.0014888466]},"record_timestamp":"2016-05-09T15:17:00+02:00"},{"datasetid":"laposte_hexasmal","recordid":"9ee8e0306b911dc38cf60b50eeb80aa5f37bd0b7","fields":{"nom_de_la_commune":"MERIEL","libell_d_acheminement":"MERIEL","code_postal":"95630","coordonnees_gps":[49.0771587262,2.21325051405],"code_commune_insee":"95392"},"geometry":{"type":"Point","coordinates":[2.21325051405,49.0771587262]},"record_timestamp":"2016-05-09T15:17:00+02:00"},{"datasetid":"laposte_hexasmal","recordid":"c97b8f4c527c87ffc43c754bd9304552c4639f84","fields":{"nom_de_la_commune":"NEUVILLE SUR OISE","libell_d_acheminement":"NEUVILLE SUR OISE","code_postal":"95000","coordonnees_gps":[49.0173343999,2.06276656128],"code_commune_insee":"95450"},"geometry":{"type":"Point","coordinates":[2.06276656128,49.0173343999]},"record_timestamp":"2016-05-09T15:17:00+02:00"},{"datasetid":"laposte_hexasmal","recordid":"3e82c23fac0ef64a1dcacd98638e279e4c0d0594","fields":{"nom_de_la_commune":"LE PERCHAY","libell_d_acheminement":"LE PERCHAY","code_postal":"95450","coordonnees_gps":[49.1164053302,1.92739087092],"code_commune_insee":"95483"},"geometry":{"type":"Point","coordinates":[1.92739087092,49.1164053302]},"record_timestamp":"2016-05-09T15:17:00+02:00"},{"datasetid":"laposte_hexasmal","recordid":"587afd17e9cae40de7232bc9a34e534f298312b7","fields":{"nom_de_la_commune":"PIERRELAYE","libell_d_acheminement":"PIERRELAYE","code_postal":"95480","coordonnees_gps":[49.0194444023,2.16105557777],"code_commune_insee":"95488"},"geometry":{"type":"Point","coordinates":[2.16105557777,49.0194444023]},"record_timestamp":"2016-05-09T15:17:00+02:00"},{"datasetid":"laposte_hexasmal","recordid":"894dc9902d9315259c7838de393ccdcbefefa3ff","fields":{"nom_de_la_commune":"PISCOP","libell_d_acheminement":"PISCOP","code_postal":"95350","coordonnees_gps":[49.0165874672,2.34203473029],"code_commune_insee":"95489"},"geometry":{"type":"Point","coordinates":[2.34203473029,49.0165874672]},"record_timestamp":"2016-05-09T15:17:00+02:00"},{"datasetid":"laposte_hexasmal","recordid":"e2d88748ee8916ab457e0d6637d1514c06d067d7","fields":{"nom_de_la_commune":"PUISEUX EN FRANCE","libell_d_acheminement":"PUISEUX EN FRANCE","code_postal":"95380","coordonnees_gps":[49.0668504076,2.48852340935],"code_commune_insee":"95509"},"geometry":{"type":"Point","coordinates":[2.48852340935,49.0668504076]},"record_timestamp":"2016-05-09T15:17:00+02:00"},{"datasetid":"laposte_hexasmal","recordid":"b1d38d7834fe18ca1b1d381542816268fe5f76d6","fields":{"nom_de_la_commune":"PUISEUX PONTOISE","libell_d_acheminement":"PUISEUX PONTOISE","code_postal":"95650","coordonnees_gps":[49.0637642089,2.01586749979],"code_commune_insee":"95510"},"geometry":{"type":"Point","coordinates":[2.01586749979,49.0637642089]},"record_timestamp":"2016-05-09T15:17:00+02:00"},{"datasetid":"laposte_hexasmal","recordid":"4b69c0e107a45c039fa8e8ac25ed8de05d5535be","fields":{"nom_de_la_commune":"ROISSY EN FRANCE","libell_d_acheminement":"ROISSY EN FRANCE","code_postal":"95700","coordonnees_gps":[49.00660444,2.51417743519],"code_commune_insee":"95527"},"geometry":{"type":"Point","coordinates":[2.51417743519,49.00660444]},"record_timestamp":"2016-05-09T15:17:00+02:00"},{"datasetid":"laposte_hexasmal","recordid":"a6ba62267053d5f0da620421e7b01b988194a776","fields":{"nom_de_la_commune":"ST OUEN L AUMONE","libell_d_acheminement":"ST OUEN L AUMONE","code_postal":"95310","coordonnees_gps":[49.0441683455,2.12861303743],"code_commune_insee":"95572"},"geometry":{"type":"Point","coordinates":[2.12861303743,49.0441683455]},"record_timestamp":"2016-05-09T15:17:00+02:00"},{"datasetid":"laposte_hexasmal","recordid":"f7ef881aa3de03ae53b7681b2f9f3f0c2537c70a","fields":{"nom_de_la_commune":"SERAINCOURT","libell_d_acheminement":"SERAINCOURT","code_postal":"95450","coordonnees_gps":[49.0421395607,1.87866991801],"code_commune_insee":"95592"},"geometry":{"type":"Point","coordinates":[1.87866991801,49.0421395607]},"record_timestamp":"2016-05-09T15:17:00+02:00"},{"datasetid":"laposte_hexasmal","recordid":"6a6fc7dfbf6b486f387422dff99b5425ff73bf25","fields":{"nom_de_la_commune":"SOISY SOUS MONTMORENCY","libell_d_acheminement":"SOISY SOUS MONTMORENCY","code_postal":"95230","coordonnees_gps":[48.9884077875,2.30049978342],"code_commune_insee":"95598"},"geometry":{"type":"Point","coordinates":[2.30049978342,48.9884077875]},"record_timestamp":"2016-05-09T15:17:00+02:00"},{"datasetid":"laposte_hexasmal","recordid":"bdc68294325cdcc0d01161fc72bd7e87ff5a5941","fields":{"nom_de_la_commune":"SURVILLIERS","libell_d_acheminement":"SURVILLIERS","code_postal":"95470","coordonnees_gps":[49.1059736219,2.54410742752],"code_commune_insee":"95604"},"geometry":{"type":"Point","coordinates":[2.54410742752,49.1059736219]},"record_timestamp":"2016-05-09T15:17:00+02:00"},{"datasetid":"laposte_hexasmal","recordid":"15026d6ed78b88a39c3af7f62f602ae006aa47b8","fields":{"nom_de_la_commune":"VEMARS","libell_d_acheminement":"VEMARS","code_postal":"95470","coordonnees_gps":[49.0628571398,2.56723072677],"code_commune_insee":"95641"},"geometry":{"type":"Point","coordinates":[2.56723072677,49.0628571398]},"record_timestamp":"2016-05-09T15:17:00+02:00"},{"datasetid":"laposte_hexasmal","recordid":"e8801e4b6ba07968ad6b65538fc20fa458a60cd8","fields":{"nom_de_la_commune":"VIARMES","libell_d_acheminement":"VIARMES","code_postal":"95270","coordonnees_gps":[49.1231107932,2.37799676025],"code_commune_insee":"95652"},"geometry":{"type":"Point","coordinates":[2.37799676025,49.1231107932]},"record_timestamp":"2016-05-09T15:17:00+02:00"},{"datasetid":"laposte_hexasmal","recordid":"843cac8f4aa064818815d1276b1627cea6bd5b88","fields":{"nom_de_la_commune":"VILLIERS LE SEC","libell_d_acheminement":"VILLIERS LE SEC","code_postal":"95720","coordonnees_gps":[49.0743088682,2.38688959984],"code_commune_insee":"95682"},"geometry":{"type":"Point","coordinates":[2.38688959984,49.0743088682]},"record_timestamp":"2016-05-09T15:17:00+02:00"},{"datasetid":"laposte_hexasmal","recordid":"42a7201ce1ae4c206776ac440bd8bc6a10aaca37","fields":{"nom_de_la_commune":"WY DIT JOLI VILLAGE","libell_d_acheminement":"WY DIT JOLI VILLAGE","code_postal":"95420","coordonnees_gps":[49.0958197758,1.82502883308],"code_commune_insee":"95690"},"geometry":{"type":"Point","coordinates":[1.82502883308,49.0958197758]},"record_timestamp":"2016-05-09T15:17:00+02:00"}]